     2.11           OBSERVATION DATA    M (MIXED)           RINEX VERSION / TYPE
teqc  2016Nov7      KASI/KOREA          20200816 00:48:08UTCPGM / RUN BY / DATE
Linux 2.4.20-8|Pentium IV|gcc|Linux|486/DX+                 COMMENT
  0.0000      (antenna height)                              COMMENT
 +36.39942714 (latitude)                                    COMMENT
+127.37448264 (longitude)                                   COMMENT
0116.859      (elevation)                                   COMMENT
BIT 2 OF LLI FLAGS DATA COLLECTED UNDER A/S CONDITION       COMMENT
23902M002 (COGO code)                                       COMMENT
DAEJ                                                        MARKER NAME
23902M002                                                   MARKER NUMBER
KASI GPS            KASI/KOREA                              OBSERVER / AGENCY
5412K48145          TRIMBLE NETR9       5.44                REC # / TYPE / VERS
4923363230          TRM59800.00     SCIS                    ANT # / TYPE
 -3120042.7911  4084613.6545  3764026.8131                  APPROX POSITION XYZ
        0.0000        0.0000        0.0000                  ANTENNA: DELTA H/E/N
     1     1                                                WAVELENGTH FACT L1/2
    10    L1    L2    L5    C1    P1    P2    C5    S1    S2# / TYPES OF OBSERV
          S5                                                # / TYPES OF OBSERV
    18                                                      LEAP SECONDS
 SNR is mapped to RINEX snr flag value [0-9]                COMMENT
  L1 & L2: min(max(int(snr_dBHz/6), 0), 9)                  COMMENT
  2020     8    16     0    30    0.0000000     GPS         TIME OF FIRST OBS
                                                            END OF HEADER
 20  8 16  0 30  0.0000000  0 23R01G17G08G03R18R24G06R17G28G11G19R02
                                G30G01R14G22R16R15E36E02E14E15E30
 123401247.969 5  95978895.392 5                  23084782.492    23084782.492
  23084789.512                          30.300          30.400
 118559357.775 6  92383820.81046                  22561063.047
  22561067.863                          40.000          37.700
 128053391.520 4  99781908.29842  95624288.404 6  24367751.719
  24367760.750    24367759.035          29.900          13.900          40.400
 112236976.909 7  87457488.08147  83813428.148 8  21357998.891
  21358006.859    21358007.309          42.900          46.000          51.000
 111295382.608 6  86562995.369 7                  20849350.125    20849349.215
  20849353.266                          41.200          42.700
 124857205.646 4  97111173.827 5                  23348933.773    23348931.785
  23348936.559                          29.600          32.600
 129552249.697 5 100949808.31144  96743565.206 6  24652964.711
  24652973.605    24652973.891          30.800          25.600          39.800
 108190330.458 7  84147926.145 7                  20217920.695    20217919.391
  20217923.672                          43.400          43.600
 109680565.962 7  85465385.91545                  20871511.438
  20871515.543                          43.800          35.900
 118026834.838 6  91968964.84043                  22459758.008
  22459763.012                          37.800          22.300
 125953816.979 5  98145909.05542                  23968231.641
  23968235.344                          31.800          17.400
 117837509.148 6  91651421.687 6                  22082695.867    22082694.766
  22082700.430                          37.700          38.800
 124187206.322 5  96769290.89145  92737235.258 7  23632044.297
  23632053.352    23632054.352          34.200          30.500          44.500
 110479556.413 7  86088039.17945  82501029.878 8  21023570.750
  21023579.164    21023577.695          42.800          34.300          50.900
 123301584.423 5  95901252.421 5                  23131069.711    23131068.918
  23131075.402                          34.700          35.000
 113768461.516 7  88650753.91745                  21649410.133
  21649413.566                          42.600          34.300
 113282044.936 5  88108189.679 6                  21206618.766    21206616.656
  21206620.508                          34.900          36.500
 107676531.307 7  83748322.498 7                  20150167.992    20150167.711
  20150172.527                          44.100          44.500
 130039300.425 7                  97107288.176 7  24745656.602
                  24745662.406          43.400                          47.500
 128142960.843 7                  95691185.962 8  24384795.367
                  24384800.258          44.800                          48.900
 114468831.234 6                  85479989.809 7  21782692.758
                  21782697.086          37.400                          42.900
 138218373.418 6                 103215045.390 6  26302082.461
                  26302088.816          36.200                          41.500
 120422177.614 7                  89925680.998 8  22915575.617
                  22915580.703          46.100                          49.400
 20  8 16  0 30  1.0000000  0 23R01G17G08G03R18R24G06R17G28G11G19R02
                                G30G01R14G22R16R15E36E02E14E15E30
 123402509.513 4  95979876.562 5                  23085017.547    23085018.352
  23085025.570                          29.600          30.000
 118557433.861 6  92382321.65846                  22560697.344
  22560701.824                          40.000          38.100
 128055899.109 5  99783862.25642  95626160.963 6  24368228.250
  24368237.938    24368236.211          30.100          15.600          40.500
 112235348.333 7  87456219.06047  83812212.014 8  21357688.836
  21357696.816    21357697.523          42.600          45.800          50.800
 111294140.186 6  86562029.069 7                  20849117.039    20849116.191
  20849120.727                          41.100          43.000
 124859989.468 4  97113339.018 5                  23349454.148    23349452.430
  23349457.227                          29.500          33.000
 129549170.908 4 100947409.25544  96741266.103 6  24652379.422
  24652387.543    24652387.781          29.400          25.000          39.000
 108191525.933 7  84148855.980 7                  20218144.086    20218142.898
  20218147.051                          43.400          43.300
 109679251.841 7  85464361.92345                  20871260.805
  20871265.422                          43.600          35.900
 118029488.231 6  91971032.43043                  22460263.180
  22460268.023                          37.700          22.600
 125951066.291 5  98143765.68343                  23967708.180
  23967711.957                          31.200          18.600
 117834852.339 6  91649355.293 6                  22082198.492    22082196.750
  22082202.734                          37.800          39.300
 124189919.627 5  96771405.15245  92739261.445 7  23632561.242
  23632569.801    23632570.680          34.300          30.900          44.800
 110481848.164 7  86089824.96445  82502741.258 8  21024006.750
  21024015.297    21024013.766          42.600          34.100          50.900
 123306047.664 5  95904723.816 5                  23131907.805    23131906.270
  23131912.586                          34.300          35.300
 113768762.304 6  88650988.30445                  21649467.867
  21649470.797                          41.900          34.400
 113280217.879 5  88106768.595 6                  21206276.852    21206274.707
  21206278.559                          34.900          36.200
 107678831.905 7  83750111.863 7                  20150598.711    20150598.336
  20150603.035                          44.000          44.100
 130041049.733 7                  97108594.473 7  24745989.867
                  24745995.180          43.200                          47.000
 128145168.361 7                  95692834.426 8  24385215.445
                  24385220.391          44.900                          48.800
 114462953.287 6                  85475600.431 7  21781574.289
                  21781578.523          37.100                          43.300
 138216498.961 5                 103213645.629 6  26301725.539
                  26301731.996          35.900                          41.600
 120421700.464 7                  89925324.672 8  22915484.891
                  22915489.895          45.900                          49.500
 20  8 16  0 30  2.0000000  0 23R01G17G08G03R18R24G06R17G28G11G19R02
                                G30G01R14G22R16R15E36E02E14E15E30
 123403771.774 4  95980858.316 5                  23085254.742    23085254.551
  23085261.621                          29.700          31.000
 118555509.963 6  92380822.51546                  22560331.055
  22560335.695                          39.000          38.200
 128058406.792 5  99785816.24942  95628033.576 6  24368705.367
  24368715.039    24368713.371          30.500          14.800          40.800
 112233720.320 7  87454950.48347  83810996.298 8  21357379.383
  21357387.074    21357387.637          43.000          46.000          50.600
 111292898.056 6  86561062.965 7                  20848884.547    20848883.430
  20848887.934                          41.100          42.800
 124862773.269 4  97115504.158 5                  23349974.203    23349973.395
  23349977.840                          28.800          33.000
 129546092.252 4 100945010.27544  96738967.097 6  24651793.563
  24651801.820    24651802.004          29.900          25.600          39.500
 108192721.574 7  84149785.915 7                  20218367.781    20218366.297
  20218370.496                          43.700          43.600
 109677938.160 7  85463338.28346                  20871011.109
  20871015.359                          43.700          36.100
 118032141.736 6  91973100.08443                  22460768.602
  22460773.023                          38.300          21.800
 125948315.619 5  98141622.25943                  23967184.336
  23967188.438                          31.300          18.300
 117832196.024 6  91647289.286 6                  22081699.914    22081699.238
  22081704.980                          37.900          39.200
 124192633.082 5  96773519.54045  92741287.732 7  23633077.531
  23633085.988    23633086.988          34.500          30.500          44.700
 110484140.237 7  86091610.99145  82504452.859 8  21024442.891
  21024451.430    21024449.813          42.700          33.900          50.700
 123310510.933 5  95908195.258 5                  23132745.070    23132743.219
  23132749.965                          34.100          35.400
 113769063.696 7  88651223.14945                  21649525.188
  21649528.199                          42.600          34.200
 113278391.542 5  88105348.138 6                  21205934.656    21205933.129
  21205936.676                          34.300          36.500
 107681133.213 7  83751901.752 7                  20151028.867    20151029.098
  20151033.664                          44.100          44.300
 130042799.050 7                  97109900.793 7  24746322.164
                  24746328.086          43.900                          46.800
 128147376.156 7                  95694483.110 8  24385635.547
                  24385640.469          44.900                          48.800
 114457075.567 6                  85471211.228 7  21780455.555
                  21780460.199          37.300                          43.500
 138214624.621 6                 103212245.965 6  26301369.109
                  26301375.250          36.800                          41.400
 120421223.727 7                  89924968.667 8  22915394.031
                  22915399.305          45.700                          49.500
 20  8 16  0 30  3.0000000  0 23R01G17G08G03R18R24G06R17G28G11G19R02
                                G30G01R14G22R16R15E36E02E14E15E30
 123405034.846 5  95981840.719 5                  23085490.563    23085491.219
  23085497.813                          30.300          31.500
 118553586.151 6  92379323.44146                  22559964.602
  22559969.492                          38.900          38.400
 128060914.618 5  99787770.48442  95629906.296 6  24369182.313
  24369192.371    24369190.395          30.300          16.300          40.500
 112232092.942 7  87453682.39347  83809781.045 8  21357069.578
  21357077.395    21357077.941          43.600          45.900          50.300
 111291656.225 6  86560097.065 7                  20848651.539    20848651.039
  20848655.305                          41.000          43.300
 124865557.037 4  97117669.302 5                  23350495.281    23350493.457
  23350498.453                          28.000          32.900
 129543013.759 4 100942611.45144  96736668.245 6  24651206.719
  24651215.828    24651216.133          29.600          25.000          39.400
 108193917.440 7  84150716.032 7                  20218590.859    20218589.793
  20218594.156                          43.400          43.600
 109676624.950 7  85462314.99045                  20870760.805
  20870765.391                          44.000          35.700
 118034795.422 6  91975167.90143                  22461273.172
  22461278.078                          38.600          22.800
 125945564.991 5  98139478.92143                  23966662.000
  23966665.004                          30.800          18.300
 117829540.217 6  91645223.637 6                  22081202.117    22081201.414
  22081207.438                          37.900          38.800
 124195346.766 5  96775634.09745  92743314.158 7  23633594.023
  23633602.355    23633603.379          34.500          30.500          44.900
 110486432.638 7  86093397.27545  82506164.716 8  21024878.883
  21024887.598    21024886.234          43.000          34.400          50.300
 123314974.326 5  95911666.781 5                  23133581.883    23133580.910
  23133587.273                          34.400          35.600
 113769365.733 7  88651458.51245                  21649582.719
  21649585.641                          42.800          34.500
 113276566.105 5  88103928.326 6                  21205592.883    21205590.922
  21205594.891                          34.300          36.900
 107683435.282 7  83753692.256 7                  20151459.875    20151459.895
  20151464.512                          44.300          44.600
 130044548.468 7                  97111207.167 7  24746655.344
                  24746660.973          43.500                          46.800
 128149584.322 7                  95696132.067 8  24386055.922
                  24386060.578          45.200                          48.800
 114451198.088 6                  85466822.185 7  21779337.445
                  21779341.441          37.800                          43.300
 138212750.436 6                 103210846.431 6  26301012.516
                  26301018.609          36.800                          41.400
 120420747.455 7                  89924613.023 8  22915303.508
                  22915308.461          45.600                          49.700
 20  8 16  0 30  4.0000000  0 23R01G17G08G03R18R24G06R17G28G11G19R02
                                G30G01R14G22R16R15E36E02E14E15E30
 123406298.610 5  95982823.668 5                  23085726.281    23085727.281
  23085734.332                          30.000          30.700
 118551662.345 6  92377824.36946                  22559598.203
  22559603.402                          38.700          38.300
 128063422.438 5  99789724.59442  95631779.029 6  24369659.648
  24369669.590    24369668.102          30.500          16.300          40.100
 112230466.065 7  87452414.69947  83808566.183 8  21356759.914
  21356767.754    21356768.367          43.500          45.900          50.500
 111290414.590 6  86559131.359 7                  20848418.398    20848417.930
  20848422.785                          40.900          43.000
 124868340.609 4  97119834.348 5                  23351015.516    23351013.754
  23351019.082                          29.000          32.300
 129539935.413 5 100940212.75744  96734369.480 6  24650620.898
  24650630.023    24650630.461          30.100          24.900          39.400
 108195113.418 7  84151646.232 7                  20218814.289    20218813.188
  20218817.555                          43.600          43.800
 109675312.117 7  85461292.00346                  20870511.016
  20870515.602                          43.900          36.300
 118037449.152 6  91977235.73343                  22461777.938
  22461783.039                          37.700          22.800
 125942814.285 5  98137335.48742                  23966137.820
  23966141.727                          30.700          17.800
 117826884.829 6  91643158.355 6                  22080703.969    22080703.395
  22080709.852                          37.800          38.400
 124198060.480 5  96777748.68045  92745340.654 7  23634110.414
  23634118.695    23634119.715          34.600          30.200          45.100
 110488725.275 7  86095183.74645  82507876.757 8  21025315.289
  21025323.977    21025322.320          42.700          33.900          50.100
 123319437.699 5  95915138.296 5                  23134418.836    23134418.410
  23134424.727                          34.100          35.800
 113769668.354 7  88651694.30645                  21649640.281
  21649643.332                          42.700          34.500
 113274741.334 5  88102509.080 6                  21205251.063    21205249.598
  21205253.375                          34.100          36.500
 107685738.053 7  83755483.295 7                  20151891.289    20151890.730
  20151895.395                          44.100          44.300
 130046297.856 7                  97112513.520 7  24746988.242
                  24746994.027          43.600                          46.700
 128151792.756 7                  95697781.210 8  24386475.852
                  24386480.938          44.900                          48.400
 114445320.803 6                  85462433.325 7  21778219.203
                  21778223.141          37.700                          43.600
 138210876.356 6                 103209446.945 6  26300656.031
                  26300661.887          36.200                          41.600
 120420271.609 7                  89924257.670 8  22915212.828
                  22915217.918          45.400                          49.400
 20  8 16  0 30  5.0000000  0 23R01G17G08G03R18R24G06R17G28G11G19R02
                                G30G01R14G22R16R15E36E02E14E15E30
 123407563.238 5  95983807.273 5                  23085964.055    23085963.633
  23085970.816                          30.300          30.700
 118549738.650 6  92376325.38846                  22559232.063
  22559237.203                          38.900          38.100
 128065930.418 5  99791678.82642  95633651.922 6  24370136.211
  24370146.770    24370145.238          30.800          15.600          39.900
 112228839.875 7  87451147.53247  83807351.816 8  21356450.375
  21356458.262    21356458.945          43.200          45.900          50.700
 111289173.301 6  86558165.922 7                  20848186.680    20848185.238
  20848190.355                          41.200          43.100
 124871124.198 4  97121999.315 5                  23351536.219    23351534.688
  23351539.754                          28.800          32.100
 129536857.352 5 100937814.26944  96732070.952 6  24650036.109
  24650044.422    24650044.672          30.300          25.400          39.700
 108196309.655 7  84152576.638 7                  20219036.992    20219036.941
  20219041.090                          43.100          44.000
 109673999.828 7  85460269.44846                  20870261.203
  20870265.875                          43.800          36.500
 118040103.171 6  91979303.79043                  22462283.484
  22462288.098                          37.600          22.300
 125940063.755 5  98135192.27842                  23965613.938
  23965618.422                          31.600          17.400
 117824230.060 6  91641093.528 6                  22080207.227    22080205.988
  22080212.227                          38.100          38.500
 124200774.493 5  96779863.49045  92747367.346 7  23634627.039
  23634635.180    23634635.992          34.300          30.600          44.700
 110491018.322 7  86096970.53645  82509589.098 8  21025752.117
  21025760.355    21025758.844          42.600          33.800          50.500
 123323901.222 5  95918609.927 5                  23135256.906    23135255.297
  23135262.070                          33.900          35.800
 113769971.700 7  88651930.68345                  21649698.039
  21649700.844                          42.600          33.600
 113272917.500 5  88101090.548 6                  21204907.680    21204908.328
  21204911.949                          34.100          36.800
 107688041.686 7  83757275.007 7                  20152322.797    20152321.797
  20152326.426                          44.000          44.300
 130048047.377 7                  97113819.998 7  24747321.117
                  24747326.988          43.400                          46.800
 128154001.598 7                  95699430.680 8  24386896.391
                  24386901.297          44.900                          48.500
 114439443.837 6                  85458044.691 7  21777100.781
                  21777104.801          37.900                          43.300
 138209002.534 6                 103208047.644 6  26300299.219
                  26300305.109          36.400                          41.900
 120419796.278 7                  89923902.720 8  22915122.336
                  22915127.441          45.600                          49.100
 20  8 16  0 30  6.0000000  0 23R01G17G08G03R18R24G06R17G28G11G19R02
                                G30G01R14G22R16R15E36E02E14E15E30
 123408828.657 5  95984791.495 5                  23086201.078    23086200.566
  23086207.621                          30.500          31.200
 118547814.972 6  92374826.41846                  22558866.461
  22558871.191                          39.600          38.500
 128068438.570 5  99793633.25442  95635524.839 6  24370612.758
  24370624.043    24370622.410          30.500          14.800          40.200
 112227214.285 7  87449880.84247  83806137.897 8  21356141.336
  21356149.012    21356149.648          43.200          46.000          50.700
 111287932.231 6  86557200.646 7                  20847952.891    20847952.891
  20847957.984                          41.100          42.600
 124873907.693 4  97124164.304 5                  23352057.563    23352054.867
  23352060.293                          29.900          31.700
 129533779.483 5 100935415.92144  96729772.514 6  24649449.781
  24649458.449    24649459.137          30.500          26.000          39.600
 108197506.058 7  84153507.195 7                  20219261.344    20219260.625
  20219264.738                          43.400          44.000
 109672687.969 7  85459247.22046                  20870011.789
  20870016.316                          43.800          36.600
 118042757.268 6  91981371.91443                  22462788.164
  22462793.070                          36.800          22.600
 125937313.171 5  98133048.99843                  23965090.383
  23965094.965                          31.800          18.300
 117821575.797 6  91639029.086 6                  22079709.117    22079708.629
  22079714.750                          38.300          38.600
 124203488.642 5  96781978.41545  92749394.133 7  23635143.328
  23635151.742    23635152.535          34.300          30.400          44.300
 110493311.650 7  86098757.55645  82511301.642 8  21026188.734
  21026196.910    21026195.160          42.700          33.900          50.200
 123328364.805 5  95922081.601 5                  23136094.375    23136092.586
  23136099.457                          34.300          35.400
 113770275.625 7  88652167.51145                  21649755.688
  21649758.598                          43.000          34.000
 113271094.410 5  88099672.591 6                  21204566.914    21204566.660
  21204570.664                          33.800          36.800
 107690346.013 7  83759067.282 7                  20152753.391    20152752.730
  20152757.758                          44.000          44.200
 130049796.954 7                  97115126.478 7  24747654.070
                  24747659.879          43.900                          46.900
 128156210.760 7                  95701080.378 8  24387316.859
                  24387321.598          45.100                          48.600
 114433567.124 6                  85453656.230 7  21775981.891
                  21775986.352          37.900                          43.400
 138207128.809 6                 103206648.435 6  26299942.813
                  26299948.898          36.000                          41.200
 120419321.393 7                  89923548.103 8  22915031.953
                  22915037.102          45.800                          49.100
 20  8 16  0 30  7.0000000  0 23R01G17G08G03R18R24G06R17G28G11G19R02
                                G30G01R14G22R16R15E36E02E14E15E30
 123410094.856 5  95985776.292 5                  23086437.984    23086437.480
  23086444.316                          30.400          31.400
 118545891.333 6  92373327.47446                  22558500.172
  22558505.211                          39.600          39.100
 128070946.685 5  99795587.65542  95637397.808 6  24371090.664
  24371101.379    24371099.906          30.800          14.800          40.200
 112225589.242 7  87448614.57747  83804924.390 8  21355831.984
  21355839.762    21355840.246          43.500          46.200          50.200
 111286691.342 6  86556235.522 7                  20847720.945    20847720.566
  20847725.313                          40.500          42.700
 124876691.173 4  97126329.232 5                  23352576.563    23352575.367
  23352580.797                          29.200          31.400
 129530701.747 5 100933017.68844  96727474.190 6  24648864.695
  24648872.734    24648873.555          30.300          26.200          39.400
 108198702.664 7  84154437.870 7                  20219485.297    20219484.156
  20219488.313                          43.200          43.500
 109671376.530 7  85458225.32046                  20869762.445
  20869766.852                          44.100          36.200
 118045411.472 6  91983440.12643                  22463293.258
  22463298.277                          37.000          22.000
 125934562.533 5  98130905.62342                  23964566.539
  23964571.484                          31.500          17.800
 117818921.993 6  91636965.021 6                  22079212.703    22079211.348
  22079217.488                          38.500          38.900
 124206202.923 5  96784093.43345  92751421.045 7  23635659.859
  23635668.488    23635668.980          34.400          30.100          44.100
 110495605.263 7  86100544.78645  82513014.410 8  21026624.492
  21026633.398    21026631.559          43.200          33.800          50.400
 123332828.507 5  95925553.319 5                  23136931.008    23136930.043
  23136936.836                          34.800          35.800
 113770580.167 7  88652404.80845                  21649813.609
  21649816.551                          42.900          34.200
 113269272.047 5  88098255.184 6                  21204226.500    21204225.453
  21204229.379                          34.200          36.900
 107692651.118 7  83760860.109 7                  20153184.766    20153184.289
  20153189.039                          44.300          44.200
 130051546.500 7                  97116433.001 7  24747986.883
                  24747992.730          44.300                          46.900
 128158420.204 7                  95702730.301 8  24387737.188
                  24387742.035          45.100                          48.300
 114427690.611 6                  85449267.942 7  21774864.016
                  21774867.969          37.600                          43.300
 138205255.204 6                 103205249.328 6  26299586.219
                  26299592.379          36.700                          41.400
 120418846.927 7                  89923193.796 8  22914941.703
                  22914946.852          45.900                          49.300
 20  8 16  0 30  8.0000000  0 23R01G17G08G03R18R24G06R17G28G11G19R02
                                G30G01R14G22R16R15E36E02E14E15E30
 123411361.822 5  95986761.674 5                  23086673.594    23086674.004
  23086681.352                          30.600          30.400
 118543967.803 6  92371828.62446                  22558134.188
  22558139.078                          39.200          38.700
 128073454.969 5  99797542.16842  95639270.904 6  24371569.031
  24371578.520    24371577.402          31.000          14.800          40.700
 112223964.831 7  87447348.80447  83803711.358 8  21355523.039
  21355530.609    21355531.309          43.100          45.900          50.800
 111285450.758 6  86555270.636 7                  20847488.914    20847488.121
  20847493.039                          40.400          42.400
 124879474.68514  97128494.143 5                  23353097.625    23353096.148
  23353101.176                          29.300          31.900
 129527624.196 5 100930619.60444  96725176.061 6  24648279.438
  24648287.063    24648287.820          30.500          25.500          39.400
 108199899.471 7  84155368.717 7                  20219707.867    20219707.875
  20219711.941                          43.500          43.600
 109670065.596 7  85457203.80746                  20869513.156
  20869517.254                          44.100          36.300
 118048065.844 6  91985508.47543                  22463798.992
  22463803.363                          37.300          22.800
 125931811.994 5  98128762.33342                  23964042.852
  23964048.020                          31.600          17.800
 117816268.741 6  91634901.426 6                  22078714.789    22078714.523
  22078720.215                          38.600          38.600
 124208917.444 5  96786208.64445  92753448.084 7  23636177.273
  23636184.941    23636185.688          33.900          30.400          44.500
 110497899.240 7  86102332.29145  82514727.445 8  21027061.117
  21027069.910    21027068.063          43.000          34.100          50.200
 123337292.255 5  95929025.156 5                  23137768.344    23137767.496
  23137774.160                          34.500          35.800
 113770885.345 7  88652642.61545                  21649871.266
  21649874.633                          42.500          34.600
 113267450.528 5  88096838.443 6                  21203886.766    21203884.586
  21203888.434                          34.500          36.700
 107694956.982 7  83762653.578 7                  20153616.563    20153615.910
  20153620.559                          44.600          44.400
 130053296.187 7                  97117739.561 7  24748319.773
                  24748325.590          44.000                          47.100
 128160630.047 7                  95704380.490 8  24388157.664
                  24388162.426          44.900                          48.400
 114421814.417 6                  85444879.882 7  21773745.547
                  21773749.797          38.100                          43.000
 138203381.788 6                 103203850.350 6  26299229.523
                  26299235.664          36.500                          41.500
 120418372.990 7                  89922839.867 8  22914851.406
                  22914856.637          45.700                          49.500
 20  8 16  0 30  9.0000000  0 23R01G17G08G03R18R24G06R17G28G11G19R02
                                G30G01R14G22R16R15E36E02E14E15E30
 123412629.533 4  95987747.717 5                  23086910.969    23086911.230
  23086918.527                          29.500          30.100
 118542044.345 6  92370329.83146                  22557768.641
  22557773.230                          39.600          38.800
 128075963.44715  99799496.76752  95641144.030 6  24372045.734
  24372055.820    24372054.734          30.500          15.600          40.600
 112222341.019 7  87446083.49847  83802498.763 8  21355213.352
  21355221.695    21355222.281          42.400          46.100          50.600
 111284210.447 6  86554305.926 7                  20847255.992    20847255.352
  20847260.617                          40.600          42.600
 124882258.112 4  97130659.054 5                  23353617.477    23353616.465
  23353621.758                          28.200          32.300
 129524546.901 5 100928221.70444  96722878.063 6  24647693.625
  24647701.625    24647702.238          30.500          24.700          39.600
 108201096.475 7  84156299.712 7                  20219932.242    20219931.223
  20219935.586                          43.000          44.200
 109668755.133 7  85456182.67345                  20869263.734
  20869267.973                          44.100          35.600
 118050720.420 6  91987576.97343                  22464303.953
  22464308.633                          37.300          22.200
 125929061.472 5  98126619.10342                  23963517.984
  23963524.594                          31.000          17.800
 117813616.038 6  91632838.181 6                  22078217.633    22078217.359
  22078223.023                          38.400          38.900
 124211632.110 5  96788323.95245  92755475.278 7  23636693.086
  23636701.477    23636702.066          34.100          30.900          44.400
 110500193.540 7  86104120.05545  82516440.723 8  21027497.695
  21027506.246    21027504.660          42.600          34.800          50.400
 123341756.149 5  95932497.072 5                  23138605.609    23138604.539
  23138611.703                          34.200          35.600
 113771191.192 7  88652880.93845                  21649929.250
  21649932.902                          42.900          34.300
 113265629.871 5  88095422.375 5                  21203545.492    21203543.449
  21203547.559                          34.100          35.900
 107697263.632 7  83764447.635 7                  20154047.836    20154047.422
  20154052.285                          44.200          44.500
 130055045.925 7                  97119046.187 7  24748652.859
                  24748658.711          44.600                          46.600
 128162840.211 7                  95706030.949 8  24388578.398
                  24388583.086          44.800                          48.600
 114415938.446 6                  85440492.000 7  21772627.375
                  21772631.797          38.300                          43.200
 138201508.542 6                 103202451.517 6  26298873.398
                  26298879.305          36.900                          41.400
 120417899.487 7                  89922486.287 8  22914761.422
                  22914766.660          45.600                          49.300
 20  8 16  0 30 10.0000000  0 23R01G17G08G03R18R24G06R17G28G11G19R02
                                G30G01R14G22R16R15E36E02E14E15E30
 123413898.064 4  95988734.377 5                  23087147.414    23087148.484
  23087155.867                          29.900          30.300
 118540120.890 6  92368831.03446                  22557401.664
  22557407.332                          39.400          38.800
 128078471.871 5  99801451.39342  95643017.244 6  24372522.695
  24372533.457    24372531.941          30.500          16.300          40.900
 112220717.783 7  87444818.63247  83801286.595 8  21354904.750
  21354912.785    21354913.348          42.400          46.100          50.700
 111282970.331 6  86553341.396 7                  20847023.766    20847023.414
  20847028.391                          40.600          42.600
 124885041.402 4  97132823.837 5                  23354138.898    23354136.676
  23354142.387                          28.100          32.500
 129521469.75215 100925823.93654  96720580.162 6  24647107.539
  24647116.109    24647116.652          30.100          25.300          39.400
 108202293.609 7  84157230.817 7                  20220156.172    20220155.102
  20220159.352                          43.000          43.900
 109667445.077 7  85455161.85145                  20869014.266
  20869018.773                          43.700          35.800
 118053375.075 6  91989645.52543                  22464808.828
  22464813.668                          37.300          22.300
 125926311.018 5  98124475.86642                  23962995.289
  23963001.148                          31.800          17.800
 117810963.792 6  91630775.338 6                  22077721.078    22077720.422
  22077725.879                          38.300          38.900
 124214346.881 5  96790439.37045  92757502.551 7  23637210.609
  23637217.918    23637218.832          34.300          30.400          44.600
 110502488.097 7  86105908.02845  82518154.196 8  21027934.672
  21027942.813    21027941.457          42.600          35.200          50.300
 123346220.074 5  95935968.989 5                  23139443.234    23139442.215
  23139449.105                          34.300          35.500
 113771497.596 7  88653119.69945                  21649988.164
  21649991.375                          43.000          34.500
 113263809.972 5  88094006.897 6                  21203203.477    21203202.672
  21203206.977                          34.300          36.800
 107699570.986 7  83766242.248 7                  20154479.320    20154479.301
  20154484.105                          44.400          44.400
 130056795.681 7                  97120352.818 7  24748985.891
                  24748991.656          43.600                          46.800
 128165050.696 7                  95707681.617 8  24388999.078
                  24389003.680          44.900                          48.900
 114410062.741 6                  85436104.267 7  21771509.258
                  21771513.590          38.000                          43.300
 138199635.410 6                 103201052.715 6  26298516.695
                  26298522.727          36.200                          41.400
 120417426.411 7                  89922133.025 8  22914671.438
                  22914676.508          45.100                          48.900
 20  8 16  0 30 11.0000000  0 23R01G17G08G03R18R24G06R17G28G11G19R02
                                G30G01R14G22R16R15E36E02E14E15E30
 123415167.448 4  95989721.615 5                  23087387.211    23087385.613
  23087393.258                          29.800          30.700
 118538197.504 6  92367332.29546                  22557035.836
  22557041.234                          39.400          38.100
 128080980.475 5  99803406.12642  95644890.527 6  24373000.273
  24373010.719    24373009.777          30.700          16.300          40.800
 112219095.134 7  87443554.23247  83800074.896 8  21354595.875
  21354603.914    21354604.504          42.600          46.000          50.600
 111281730.547 6  86552377.113 7                  20846792.109    20846790.883
  20846796.113                          40.500          42.800
 124887824.706 4  97134988.634 5                  23354658.992    23354656.672
  23354663.027                          27.200          32.000
 129518392.707 5 100923426.24044  96718282.405 6  24646521.578
  24646530.598    24646531.055          30.800          25.400          39.600
 108203490.954 7  84158162.106 7                  20220380.094    20220378.879
  20220383.133                          43.100          44.000
 109666135.524 7  85454141.42046                  20868765.070
  20868769.637                          43.700          36.200
 118056029.874 6  91991714.21243                  22465313.305
  22465318.754                          37.400          22.600
 125923560.520 5  98122332.64142                  23962473.094
  23962477.688                          31.500          17.800
 117808312.099 6  91628712.909 6                  22077224.297    22077223.324
  22077228.859                          37.900          39.200
 124217061.873 5  96792554.95645  92759529.988 7  23637727.664
  23637734.512    23637735.539          34.100          30.500          44.500
 110504783.015 7  86107696.27245  82519867.925 8  21028371.805
  21028379.574    21028378.035          42.600          34.700          50.500
 123350684.027 5  95939440.956 5                  23140281.727    23140279.625
  23140286.492                          34.200          35.800
 113771804.658 7  88653358.96545                  21650047.211
  21650049.828                          42.900          34.400
 113261990.868 5  88092592.049 6                  21202863.133    21202862.141
  21202866.371                          33.900          36.200
 107701879.132 7  83768037.470 7                  20154911.648    20154911.266
  20154916.047                          44.400          44.600
 130058545.526 7                  97121659.521 7  24749318.867
                  24749324.598          43.600                          46.600
 128167261.531 7                  95709332.568 8  24389419.656
                  24389424.305          45.300                          48.800
 114404187.278 6                  85431716.744 7  21770391.289
                  21770395.484          38.400                          43.500
 138197762.434 6                 103199654.089 6  26298160.000
                  26298166.133          36.800                          41.400
 120416953.840 7                  89921780.132 8  22914581.578
                  22914586.500          45.300                          49.200
 20  8 16  0 30 12.0000000  0 23R01G17G08G03R18R24G06R17G28G11G19R02
                                G30G01R14G22R16R15E36E02E14E15E30
 123416437.551 4  95990709.526 5                  23087625.734    23087623.410
  23087630.980                          29.600          30.800
 118536274.208 6  92365833.62046                  22556670.180
  22556675.141                          39.600          38.600
 128083489.161 5  99805360.95142  95646763.890 6  24373477.055
  24373488.230    24373487.043          30.300          15.600          40.700
 112217473.106 7  87442290.32047  83798863.642 8  21354287.367
  21354295.223    21354295.910          43.100          45.900          50.300
 111280491.020 6  86551413.053 7                  20846559.594    20846558.645
  20846563.824                          40.900          43.100
 124890607.913 4  97137153.321 5                  23355179.406    23355177.102
  23355183.500                          27.900          32.500
 129515315.935 5 100921028.75644  96715984.825 6  24645936.664
  24645945.047    24645945.676          30.300          26.400          39.600
 108204688.522 7  84159093.526 7                  20220603.852    20220602.574
  20220606.898                          43.200          44.100
 109664826.422 7  85453121.33746                  20868515.836
  20868520.352                          43.200          36.100
 118058684.793 6  91993782.95443                  22465818.852
  22465823.984                          37.300          21.800
 125920810.077 5  98120189.39443                  23961950.023
  23961954.191                          31.000          19.000
 117805661.001 6  91626650.930 6                  22076727.922    22076726.391
  22076731.984                          37.900          39.200
 124219777.009 5  96794670.63744  92761557.521 7  23638243.992
  23638251.184    23638251.883          33.700          29.700          44.100
 110507078.235 7  86109484.75945  82521581.890 8  21028808.133
  21028816.301    21028814.836          42.300          35.100          50.900
 123355148.085 5  95942913.012 5                  23141119.469    23141117.074
  23141123.875                          33.900          35.000
 113772112.367 7  88653598.74345                  21650105.148
  21650108.457                          43.000          34.500
 113260172.533 5  88091177.785 6                  21202522.867    21202521.488
  21202525.910                          34.200          36.200
 107704188.036 7  83769833.284 7                  20155343.852    20155343.438
  20155348.070                          43.700          44.600
 130060295.412 7                  97122966.253 7  24749651.609
                  24749657.660          43.500                          46.600
 128169472.697 7                  95710983.758 8  24389840.508
                  24389845.184          45.200                          48.600
 114398312.102 6                  85427329.436 7  21769273.633
                  21769277.500          37.800                          43.700
 138195889.639 6                 103198255.551 6  26297803.594
                  26297809.934          37.100                          41.500
 120416481.720 7                  89921427.573 8  22914491.633
                  22914496.801          45.100                          49.400
 20  8 16  0 30 13.0000000  0 23R01G17G08G03R18R24G06R17G28G11G19R02
                                G30G01R14G22R16R15E36E02E14E15E30
 123417708.473 5  95991698.013 5                  23087861.992    23087861.754
  23087868.738                          30.500          30.400
 118534350.939 6  92364334.96546                  22556304.328
  22556309.277                          39.800          38.900
 128085998.015 5  99807315.92842  95648637.342 6  24373955.773
  24373965.594    24373964.668          31.500          14.800          41.100
 112215851.665 7  87441026.85647  83797652.836 8  21353979.289
  21353986.758    21353987.363          43.100          46.000          50.500
 111279251.789 6  86550449.202 7                  20846326.461    20846326.715
  20846331.707                          40.900          43.400
 124893391.114 4  97139318.083 5                  23355697.836    23355697.719
  23355704.004                          28.900          32.600
 129512239.371 5 100918631.44444  96713687.380 6  24645351.781
  24645359.590    24645360.105          30.300          24.700          39.800
 108205886.234 7  84160025.095 7                  20220827.539    20220826.578
  20220830.777                          43.400          43.900
 109663517.786 7  85452101.62746                  20868266.516
  20868271.266                          43.800          36.000
 118061339.913 6  91995851.88843                  22466324.516
  22466329.047                          37.400          22.200
 125918059.667 5  98118046.18543                  23961427.500
  23961430.801                          31.900          18.300
 117803010.387 6  91624589.356 6                  22076230.211    22076229.555
  22076235.152                          37.600          38.600
 124222492.387 5  96796786.51445  92763585.215 7  23638759.695
  23638768.086    23638768.500          33.700          30.500          44.400
 110509373.773 7  86111273.48645  82523296.085 8  21029244.297
  21029253.242    21029251.594          42.400          34.700          51.000
 123359612.296 5  95946385.138 5                  23141956.438    23141954.605
  23141961.176                          34.100          35.600
 113772420.705 7  88653839.00545                  21650163.641
  21650167.180                          43.000          34.400
 113258355.001 5  88089764.128 6                  21202181.047    21202181.500
  21202185.512                          33.900          36.500
 107706497.675 7  83771629.672 7                  20155776.266    20155775.566
  20155780.277                          44.100          44.600
 130062045.381 7                  97124273.036 7  24749984.836
                  24749990.574          43.600                          46.800
 128171684.200 7                  95712635.205 8  24390261.352
                  24390265.918          45.300                          48.500
 114392437.155 6                  85422942.299 7  21768155.492
                  21768159.637          37.900                          43.700
 138194016.996 6                 103196857.158 6  26297447.852
                  26297453.508          37.300                          41.600
 120416010.068 7                  89921075.365 8  22914402.016
                  22914406.910          45.400                          49.100
 20  8 16  0 30 14.0000000  0 23R01G17G08G03R18R24G06R17G28G11G19R02
                                G30G01R14G22R16R15E36E02E14E15E30
 123418980.196 5  95992687.087 5                  23088099.578    23088100.039
  23088106.590                          30.700          30.900
 118532427.738 6  92362836.37246                  22555938.180
  22555943.414                          39.500          38.800
 128088506.830 5  99809270.83642  95650510.863 6  24374433.680
  24374443.020    24374442.152          31.300          15.600          41.300
 112214230.837 7  87439763.87347  83796442.447 8  21353670.531
  21353678.262    21353678.941          43.500          46.000          50.500
 111278012.771 6  86549485.527 7                  20846095.422    20846094.289
  20846099.535                          41.100          42.800
 124896174.248 4  97141482.737 5                  23356219.148    23356217.883
  23356224.402                          27.200          32.900
 129509162.949 5 100916234.23344  96711390.074 6  24644766.102
  24644774.156    24644774.625          30.500          25.700          39.700
 108207084.122 7  84160956.787 7                  20221051.273    20221050.414
  20221054.633                          43.100          43.800
 109662209.573 7  85451082.23546                  20868018.250
  20868022.453                          43.600          36.000
 118063995.096 6  91997920.86243                  22466829.391
  22466834.336                          37.200          22.300
 125915309.233 5  98115903.01443                  23960904.047
  23960907.395                          31.800          18.300
 117800360.248 6  91622528.143 6                  22075733.508    22075733.047
  22075738.578                          37.700          38.900
 124225207.801 5  96798902.41345  92765612.991 7  23639276.031
  23639284.762    23639285.371          33.700          30.400          44.200
 110511669.629 7  86113062.47145  82525010.519 8  21029681.469
  21029690.152    21029688.438          42.300          34.700          50.800
 123364076.513 5  95949857.342 5                  23142793.109    23142791.941
  23142798.773                          33.800          35.600
 113772729.639 7  88654079.73845                  21650222.977
  21650225.918                          42.900          34.300
 113256538.235 5  88088351.092 6                  21201841.984    21201841.902
  21201845.332                          33.900          36.800
 107708808.084 7  83773426.654 7                  20156208.273    20156207.957
  20156212.563                          44.100          44.600
 130063795.340 7                  97125579.848 7  24750318.086
                  24750323.547          44.000                          47.000
 128173896.022 7                  95714286.898 8  24390681.977
                  24390686.773          45.100                          48.500
 114386562.441 6                  85418555.356 7  21767037.883
                  21767041.629          38.600                          43.500
 138192144.474 6                 103195458.851 6  26297091.242
                  26297097.219          37.000                          41.900
 120415538.869 7                  89920723.481 8  22914312.508
                  22914317.332          45.100                          49.100
 20  8 16  0 30 15.0000000  0 23R01G17G08G03R18R24G06R17G28G11G19R02
                                G30G01R14G22R16R15E36E02E14E15E30
 123420252.693 5  95993676.801 5                  23088339.813    23088338.145
  23088344.637                          30.100          30.700
 118530504.618 6  92361337.83146                  22555572.781
  22555577.227                          39.300          39.000
 128091015.816 5  99811225.84542  95652384.469 6  24374910.086
  24374920.332    24374919.633          31.200          16.300          41.100
 112212610.580 7  87438501.33647  83795232.532 8  21353362.156
  21353369.965    21353370.625          43.200          46.200          50.600
 111276774.000 6  86548522.043 7                  20845862.641    20845862.477
  20845867.465                          41.000          42.500
 124898957.360 4  97143647.377 5                  23356739.492    23356738.375
  23356744.848                          28.400          31.400
 129506086.771 5 100913837.21544  96709092.909 6  24644180.875
  24644188.922    24644189.145          30.500          26.800          39.500
 108208282.227 7  84161888.650 7                  20221275.328    20221274.324
  20221278.430                          43.200          44.000
 109660901.874 7  85450063.25046                  20867768.758
  20867773.695                          43.400          36.600
 118066650.461 6  91999989.98243                  22467335.008
  22467339.762                          37.500          23.000
 125912558.888 5  98113759.93842                  23960379.672
  23960383.977                          31.900          17.400
 117797710.647 6  91620467.355 6                  22075237.219    22075236.480
  22075242.055                          36.900          38.600
 124227923.527 5  96801018.56945  92767640.946 7  23639793.750
  23639801.586    23639802.359          32.500          30.600          44.100
 110513965.814 7  86114851.70745  82526725.196 8  21030118.586
  21030127.020    21030125.488          42.300          34.600          50.700
 123368540.840 5  95953329.599 5                  23143630.836    23143629.289
  23143636.223                          34.100          35.800
 113773039.238 7  88654320.98145                  21650281.156
  21650284.629                          42.600          34.200
 113254722.288 5  88086938.679 6                  21201502.570    21201501.563
  21201505.363                          33.900          36.400
 107711119.277 7  83775224.252 7                  20156640.906    20156640.387
  20156645.094                          44.300          44.700
 130065545.412 7                  97126886.719 7  24750650.820
                  24750656.566          44.200                          46.500
 128176108.201 7                  95715938.849 8  24391103.016
                  24391107.828          45.500                          48.500
 114380687.994 6                  85414168.597 7  21765919.789
                  21765923.613          38.500                          43.600
 138190272.149 6                 103194060.676 7  26296734.984
                  26296740.934          37.300                          42.000
 120415068.135 7                  89920371.971 8  22914222.758
                  22914227.680          45.200                          49.000
 20  8 16  0 30 16.0000000  0 23R01G17G08G03R18R24G06R17G28G11G19R02
                                G30G01R14G22R16R15E36E02E14E15E30
 123421525.932 5  95994667.129 5                  23088578.156    23088576.543
  23088582.805                          30.300          32.400
 118528581.523 6  92359839.32546                  22555206.406
  22555211.488                          39.600          38.500
 128093524.961 4  99813181.06142  95654258.145 6  24375387.555
  24375397.594    24375397.070          29.400          14.800          40.900
 112210990.961 7  87437239.29747  83794023.065 8  21353054.281
  21353061.852    21353062.320          43.200          46.100          50.900
 111275535.459 6  86547558.738 7                  20845631.703    20845630.215
  20845635.566                          41.200          42.100
 124901740.511 4  97145811.984 5                  23357259.727    23357258.875
  23357265.387                          28.100          31.600
 129503010.673 5 100911440.24844  96706795.849 6  24643594.859
  24643603.582    24643603.980          30.800          25.800          39.400
 108209480.541 7  84162820.668 7                  20221499.133    20221498.270
  20221502.488                          43.000          44.200
 109659594.616 7  85449044.60845                  20867520.141
  20867524.855                          43.600          35.900
 118069305.948 6  92002059.20743                  22467840.016
  22467844.965                          37.200          21.800
 125909808.52415  98111616.78152                  23959856.758
  23959860.637                          32.200          16.900
 117795061.617 6  91618406.981 6                  22074742.492    22074740.031
  22074745.676                          36.900          39.000
 124230639.366 5  96803134.79945  92769668.992 7  23640310.344
  23640318.191    23640319.082          33.700          30.200          44.300
 110516262.296 7  86116641.16645  82528440.112 8  21030555.211
  21030564.113    21030562.477          42.200          35.000          50.800
 123373005.264 5  95956801.880 6                  23144467.930    23144466.797
  23144473.629                          33.800          36.200
 113773349.455 7  88654562.71545                  21650340.641
  21650343.641                          42.700          34.100
 113252907.125 5  88085526.901 6                  21201163.375    21201161.492
  21201165.574                          34.600          36.500
 107713431.193 7  83777022.410 7                  20157073.398    20157073.117
  20157077.805                          44.100          44.600
 130067295.522 7                  97128193.621 7  24750983.969
                  24750989.586          44.400                          46.800
 128178320.701 7                  95717591.053 8  24391524.234
                  24391528.773          45.300                          48.300
 114374813.818 6                  85409782.037 7  21764802.008
                  21764806.082          38.700                          43.700
 138188399.957 6                 103192662.599 6  26296378.438
                  26296384.715          37.500                          41.900
 120414597.873 7                  89920020.794 8  22914133.578
                  22914138.199          45.300                          49.300
 20  8 16  0 30 17.0000000  0 23R01G17G08G03R18R24G06R17G28G11G19R02
                                G30G01R14G22R16R15E36E02E14E15E30
 123422799.997 4  95995658.062 5                  23088816.086    23088814.453
  23088821.328                          29.500          30.700
 118526658.502 6  92358340.86046                  22554841.242
  22554845.445                          39.800          38.700
 128096034.129 5  99815136.28042  95656131.905 6  24375864.664
  24375875.066    24375874.391          30.500          15.600          40.900
 112209371.892 7  87435977.68547  83792814.029 8  21352746.047
  21352753.594    21352754.277          43.400          46.100          50.700
 111274297.205 6  86546595.635 7                  20845399.094    20845398.195
  20845403.484                          40.800          42.300
 124904523.459 4  97147976.557 5                  23357781.172    23357779.430
  23357785.766                          27.900          32.000
 129499934.898 5 100909043.53244  96704498.953 6  24643010.055
  24643018.230    24643018.672          30.500          25.300          40.200
 108210679.038 7  84163752.836 7                  20221722.453    20221722.375
  20221726.441                          43.400          44.400
 109658287.799 7  85448026.30946                  20867271.508
  20867276.141                          43.800          36.300
 118071961.604 6  92004128.50343                  22468344.766
  22468350.262                          37.200          21.100
 125907058.198 5  98109473.66542                  23959334.281
  23959336.977                          32.300          17.800
 117792413.122 6  91616347.026 6                  22074244.445    22074243.738
  22074249.391                          37.100          38.600
 124233355.35415  96805251.15155  92771697.179 7  23640828.141
  23640835.273    23640835.785          33.600          30.700          44.300
 110518559.087 7  86118430.87345  82530155.251 8  21030992.641
  21031001.258    21030999.629          42.400          34.800          50.700
 123377469.657 5  95960274.240 5                  23145305.969    23145304.016
  23145311.113                          34.000          35.300
 113773660.313 7  88654804.93345                  21650400.016
  21650402.949                          42.900          33.900
 113251092.799 5  88084115.765 6                  21200823.516    21200821.551
  21200825.902                          34.400          36.500
 107715743.879 7  83778821.170 7                  20157506.422    20157505.859
  20157510.547                          43.900          44.400
 130069045.698 7                  97129500.551 7  24751317.086
                  24751322.734          43.900                          46.600
 128180533.546 7                  95719243.492 8  24391944.977
                  24391949.723          45.500                          48.500
 114368939.901 6                  85405395.672 7  21763683.875
                  21763688.230          38.700                          43.600
 138186527.918 6                 103191264.647 6  26296022.320
                  26296028.621          37.600                          41.600
 120414128.063 7                  89919669.961 8  22914044.055
                  22914048.797          45.200                          49.300
 20  8 16  0 30 18.0000000  0 23R01G17G08G03R18R24G06R17G28G11G19R02
                                G30G01R14G22R16R15E36E02E14E15E30
 123424074.812 4  95996649.542 5                  23089055.805    23089053.191
  23089059.738                          29.700          32.000
 118524735.515 6  92356842.43046                  22554474.438
  22554479.668                          39.700          38.400
 128098543.435 5  99817091.57142  95658005.694 6  24376342.328
  24376352.508    24376351.914          30.800          14.800          41.100
 112207753.427 7  87434716.54547  83791605.445 8  21352437.914
  21352445.750    21352446.219          43.200          46.200          50.300
 111273059.179 6  86545632.724 7                  20845166.047    20845166.313
  20845171.516                          40.800          42.600
 124907306.423 4  97150141.023 5                  23358301.680    23358299.949
  23358306.320                          27.300          31.700
 129496859.202 5 100906646.89944  96702202.183 6  24642424.344
  24642432.922    24642433.480          30.300          25.600          40.000
 108211877.709 7  84164685.138 7                  20221946.227    20221945.852
  20221950.543                          43.600          44.200
 109656981.442 7  85447008.36746                  20867023.305
  20867027.512                          43.600          36.400
 118074617.366 6  92006197.95243                  22468850.336
  22468855.699                          37.000          21.300
 125904307.877 5  98107330.62442                  23958810.383
  23958813.648                          31.900          17.800
 117789765.119 6  91614287.508 6                  22073749.188    22073747.410
  22073753.164                          37.200          38.600
 124236071.468 5  96807367.60345  92773725.472 7  23641343.727
  23641351.977    23641352.438          33.700          30.000          44.300
 110520856.203 7  86120220.83045  82531870.619 8  21031429.938
  21031438.551    21031436.668          42.200          34.200          50.400
 123381934.169 5  95963746.629 6                  23146142.453    23146141.422
  23146148.578                          33.600          36.300
 113773971.760 7  88655047.62045                  21650458.883
  21650462.203                          42.700          33.900
 113249279.303 5  88082705.228 6                  21200483.281    21200482.254
  21200486.496                          34.500          36.500
 107718057.308 7  83780620.489 7                  20157939.328    20157938.617
  20157943.387                          43.900          44.700
 130070795.905 7                  97130807.530 7  24751650.078
                  24751655.758          43.800                          46.900
 128182746.706 7                  95720896.167 8  24392366.406
                  24392370.902          45.300                          48.500
 114363066.210 6                  85401009.471 7  21762566.250
                  21762570.520          38.800                          43.500
 138184656.010 6                 103189866.826 6  26295666.000
                  26295672.570          36.800                          41.900
 120413658.693 7                  89919319.467 8  22913954.688
                  22913959.633          45.300                          49.200
 20  8 16  0 30 19.0000000  0 23R01G17G08G03R18R24G06R17G28G11G19R02
                                G30G01R14G22R16R15E36E02E14E15E30
 123425350.439 5  95997641.726 5                  23089292.180    23089292.195
  23089298.480                          30.100          32.600
 118522812.609 6  92355344.06046                  22554109.047
  22554113.672                          39.500          38.600
 128101052.841 5  99819046.89542  95659879.593 6  24376820.148
  24376829.902    24376829.402          30.300          14.800          40.900
 112206135.591 7  87433455.89247  83790397.306 8  21352130.195
  21352137.941    21352138.422          43.000          46.000          50.300
 111271821.473 6  86544670.078 7                  20844936.133    20844934.316
  20844939.609                          40.600          42.800
 124910089.280 4  97152305.515 5                  23358821.125    23358820.582
  23358826.910                          28.100          32.400
 129493783.721 5 100904250.42144  96699905.578 6  24641840.156
  24641847.715    24641848.141          30.100          27.400          39.900
 108213076.597 7  84165617.593 7                  20222170.977    20222170.102
  20222174.617                          43.100          44.300
 109655675.546 7  85445990.78745                  20866774.328
  20866779.070                          43.500          35.800
 118077273.299 6  92008267.51343                  22469355.602
  22469361.207                          37.300          21.800
 125901557.593 5  98105187.49342                  23958285.695
  23958290.230                          32.200          17.800
 117787117.654 6  91612228.353 6                  22073252.688    22073251.105
  22073256.906                          37.500          38.700
 124238787.877 5  96809484.29045  92775753.910 7  23641860.430
  23641868.859    23641869.441          33.400          30.600          44.500
 110523153.647 7  86122011.05445  82533586.253 8  21031866.531
  21031875.621    21031873.887          42.100          34.200          50.500
 123386398.826 5  95967219.110 5                  23146980.133    23146978.934
  23146986.063                          34.000          35.600
 113774283.879 7  88655290.82545                  21650518.414
  21650521.684                          42.700          34.300
 113247466.610 5  88081295.383 6                  21200144.570    21200142.777
  21200147.254                          34.900          36.700
 107720371.511 7  83782420.438 7                  20158372.008    20158371.957
  20158376.465                          43.900          44.600
 130072546.203 7                  97132114.571 7  24751983.117
                  24751988.809          43.800                          47.100
 128184960.233 7                  95722549.135 8  24392787.750
                  24392792.145          45.300                          48.600
 114357192.811 6                  85396623.474 7  21761448.695
                  21761452.836          39.200                          43.400
 138182784.275 6                 103188469.081 6  26295309.594
                  26295316.195          37.000                          41.500
 120413189.823 7                  89918969.329 8  22913865.633
                  22913870.320          45.400                          49.400
 20  8 16  0 30 20.0000000  0 23R01G17G08G03R18R24G06R17G28G11G19R02
                                G30G01R14G22R16R15E36E02E14E15E30
 123426626.815 5  95998634.475 5                  23089532.563    23089530.777
  23089537.254                          30.400          31.500
 118520889.767 6  92353845.74246                  22553742.906
  22553747.723                          39.400          38.800
 128103562.297 5  99821002.32242  95661753.557 6  24377297.445
  24377307.473    24377306.801          30.300          16.300          41.300
 112204518.318 7  87432195.68147  83789189.615 8  21351822.070
  21351830.121    21351830.691          42.800          45.900          50.600
 111270584.011 6  86543707.611 7                  20844703.914    20844702.629
  20844707.703                          40.400          42.500
 124912872.101 4  97154469.968 5                  23359341.586    23359341.152
  23359347.262                          27.800          32.300
 129490708.443 5 100901854.10344  96697609.118 6  24641254.984
  24641262.652    24641262.379          30.500          25.300          39.600
 108214275.616 7  84166550.173 7                  20222395.297    20222394.176
  20222398.770                          43.200          44.400
 109654370.110 7  85444973.56346                  20866525.781
  20866530.594                          43.300          36.000
 118079929.333 6  92010337.13943                  22469861.523
  22469866.633                          37.300          22.200
 125898807.322 5  98103044.40842                  23957762.258
  23957766.828                          32.300          17.400
 117784470.691 6  91610169.587 6                  22072756.938    22072755.191
  22072760.730                          37.500          38.300
 124241504.295 5  96811600.97445  92777782.453 7  23642377.398
  23642385.680    23642385.938          33.700          30.100          44.300
 110525451.387 7  86123801.49945  82535302.094 8  21032304.469
  21032312.633    21032311.207          42.400          34.300          50.300
 123390863.520 5  95970691.646 5                  23147818.383    23147816.457
  23147823.563                          33.700          35.600
 113774596.613 7  88655534.52945                  21650578.031
  21650581.063                          42.800          33.800
 113245654.633 5  88079886.060 6                  21199804.906    21199804.137
  21199808.078                          35.000          36.200
 107722686.473 7  83784220.960 7                  20158805.547    20158805.211
  20158809.613                          43.900          44.600
 130074296.512 7                  97133421.629 7  24752316.086
                  24752321.906          44.000                          47.400
 128187174.069 7                  95724202.331 8  24393209.078
                  24393213.348          45.400                          48.800
 114351319.641 6                  85392237.685 7  21760330.867
                  21760335.371          39.000                          43.700
 138180912.692 6                 103187071.467 6  26294953.656
                  26294959.898          37.300                          40.900
 120412721.397 7                  89918619.524 8  22913776.125
                  22913781.145          45.600                          49.500
 20  8 16  0 30 21.0000000  0 23R01G17G08G03R18R24G06R17G28G11G19R02
                                G30G01R14G22R16R15E36E02E14E15E30
 123427904.062 4  95999627.853 5                  23089770.234    23089769.301
  23089776.156                          29.800          32.000
 118518966.952 6  92352347.44946                  22553376.227
  22553381.766                          39.200          38.700
 128106071.845 5  99822957.85342  95663627.600 6  24377775.063
  24377784.828    24377784.238          31.600          14.800          41.500
 112202901.660 7  87430935.94847  83787982.364 8  21351514.711
  21351522.504    21351523.051          42.800          46.000          50.500
 111269346.822 6  86542745.339 7                  20844471.953    20844470.613
  20844475.988                          40.000          43.000
 124915654.971 4  97156634.282 5                  23359862.602    23359861.465
  23359867.594                          27.500          32.200
 129487633.345 5 100899457.91544  96695312.786 6  24640668.844
  24640677.527    24640677.434          30.800          25.700          39.800
 108215474.865 7  84167482.904 7                  20222618.773    20222618.285
  20222622.738                          43.300          44.300
 109653065.157 7  85443956.71546                  20866277.828
  20866282.309                          42.900          36.200
 118082585.551 6  92012406.94943                  22470366.852
  22470372.305                          37.100          21.300
 125896057.151 5  98100901.43143                  23957238.672
  23957243.324                          32.000          18.300
 117781824.222 6  91608111.219 6                  22072259.484    22072259.102
  22072264.785                          37.700          38.600
 124244221.030 5  96813717.91445  92779811.143 7  23642894.688
  23642902.699    23642902.984          33.600          30.900          44.100
 110527749.437 7  86125592.17845  82537018.176 8  21032741.898
  21032750.016    21032748.465          42.200          34.000          50.300
 123395328.240 5  95974164.262 5                  23148654.609    23148654.516
  23148661.203                          34.200          35.200
 113774909.980 7  88655778.70245                  21650637.898
  21650640.488                          42.700          34.400
 113243843.414 5  88078477.348 6                  21199465.820    21199465.180
  21199469.008                          34.600          37.000
 107725002.215 7  83786022.095 7                  20159238.969    20159238.707
  20159243.031                          44.100          44.300
 130076046.908 7                  97134728.734 7  24752649.164
                  24752654.906          44.200                          47.300
 128189388.252 7                  95725855.776 8  24393630.273
                  24393634.559          45.500                          48.800
 114345446.714 6                  85387852.054 7  21759213.172
                  21759217.668          38.600                          43.800
 138179041.278 6                 103185673.973 6  26294597.602
                  26294603.824          37.800                          40.900
 120412253.437 7                  89918270.061 8  22913687.117
                  22913692.117          45.500                          49.600
 20  8 16  0 30 22.0000000  0 23R01G17G08G03R18R24G06R17G28G11G19R02
                                G30G01R14G22R16R15E36E02E14E15E30
 123429182.041 5  96000621.859 5                  23090009.945    23090008.082
  23090015.355                          30.400          32.500
 118517044.207 6  92350849.20746                  22553010.391
  22553015.941                          39.500          38.700
 128108581.552 5  99824913.51842  95665501.713 6  24378254.219
  24378262.336    24378262.047          30.500          14.800          41.500
 112201285.612 7  87429676.68847  83786775.574 8  21351207.172
  21351214.973    21351215.488          42.800          46.200          50.600
 111268109.901 6  86541783.293 7                  20844240.703    20844238.992
  20844244.336                          40.100          42.700
 124918437.641 4  97158798.712 5                  23360382.797    23360382.168
  23360387.918                          28.100          31.700
 129484558.491 5 100897061.93344  96693016.602 6  24640083.891
  24640092.465    24640092.605          30.500          25.400          40.000
 108216674.263 7  84168415.794 7                  20222843.906    20222842.324
  20222846.848                          43.200          44.100
 109651760.649 7  85442940.21046                  20866029.469
  20866034.137                          43.100          36.300
 118085241.909 6  92014476.82343                  22470872.656
  22470877.770                          37.300          21.700
 125893306.859 5  98098758.34043                  23956715.602
  23956719.906                          31.500          18.300
 117779178.264 6  91606053.263 6                  22071764.898    22071763.176
  22071769.020                          37.700          38.800
 124246937.832 5  96815834.89645  92781839.952 7  23643411.656
  23643419.570    23643420.250          33.100          30.200          44.000
 110530047.828 7  86127383.13345  82538734.505 8  21033179.148
  21033187.387    21033185.828          42.200          34.400          50.200
 123399793.147 5  95977636.890 5                  23149493.266    23149491.863
  23149498.734                          34.500          35.300
 113775223.985 7  88656023.38245                  21650697.414
  21650700.211                          42.700          34.800
 113242033.028 5  88077069.271 6                  21199126.781    21199126.160
  21199130.051                          34.300          37.000
 107727318.707 7  83787823.805 7                  20159672.445    20159671.957
  20159676.574                          44.300          44.600
 130077797.369 7                  97136035.894 7  24752982.305
                  24752988.031          43.700                          47.000
 128191602.768 7                  95727509.475 8  24394051.766
                  24394056.012          45.300                          48.500
 114339574.067 6                  85383466.654 7  21758095.781
                  21758100.480          38.600                          43.700
 138177170.008 6                 103184276.579 6  26294241.602
                  26294247.969          37.900                          40.900
 120411785.941 7                  89917920.979 8  22913598.281
                  22913603.051          45.600                          49.200
 20  8 16  0 30 23.0000000  0 23R01G17G08G03R18R24G06R17G28G11G19R02
                                G30G01R14G22R16R15E36E02E14E15E30
 123430460.794 5  96001616.493 5                  23090250.508    23090247.172
  23090254.770                          30.500          32.300
 118515121.509 6  92349351.00446                  22552645.016
  22552650.117                          39.800          39.100
 128111091.306 5  99826869.04242  95667375.909 6  24378730.750
  24378740.035    24378739.746          30.100          13.900          41.600
 112199670.150 7  87428417.88647  83785569.223 8  21350900.000
  21350907.523    21350908.211          43.100          46.000          50.500
 111266873.194 6  86540821.405 7                  20844008.305    20844007.371
  20844012.750                          40.500          42.500
 124921220.45414  97160963.063 5                  23360904.820    23360902.531
  23360908.297                          28.200          33.100
 129481483.729 5 100894665.98244  96690720.529 6  24639497.969
  24639507.258    24639507.645          30.100          25.400          40.200
 108217873.880 7  84169348.814 7                  20223068.219    20223066.340
  20223070.902                          43.800          44.000
 109650456.593 7  85441924.06546                  20865781.555
  20865785.934                          43.000          36.000
 118087898.371 6  92016546.81643                  22471378.391
  22471383.238                          37.300          22.200
 125890556.726 5  98096615.39542                  23956193.008
  23956196.738                          32.200          17.800
 117776532.825 6  91603995.722 6                  22071268.344    22071266.957
  22071273.211                          37.900          38.700
 124249654.833 5  96817952.03945  92783868.878 7  23643928.219
  23643936.711    23643936.922          33.500          30.200          44.100
 110532346.515 7  86129174.32445  82540451.052 8  21033616.313
  21033624.824    21033623.328          42.400          34.000          50.200
 123404258.054 5  95981109.623 5                  23150330.164    23150329.160
  23150336.301                          33.500          35.100
 113775538.625 7  88656268.55845                  21650757.906
  21650760.160                          43.200          34.400
 113240223.519 5  88075661.853 6                  21198788.125    21198787.469
  21198791.242                          34.400          36.700
 107729635.943 7  83789626.092 7                  20160105.969    20160105.734
  20160110.207                          44.200          44.800
 130079547.858 7                  97137343.083 7  24753315.453
                  24753321.125          44.100                          46.800
 128193817.619 7                  95729163.413 8  24394473.273
                  24394477.523          45.700                          48.600
 114333701.704 6                  85379081.415 7  21756978.117
                  21756982.684          38.400                          43.800
 138175298.865 6                 103182879.322 6  26293885.477
                  26293891.863          37.500                          41.100
 120411318.899 7                  89917572.217 8  22913509.094
                  22913514.254          45.900                          49.200
 20  8 16  0 30 24.0000000  0 23R01G17G08G03R18R24G06R17G28G11G19R02
                                G30G01R14G22R16R15E36E02E14E15E30
 123431740.424 5  96002611.708 5                  23090489.375    23090486.551
  23090494.121                          30.500          32.900
 118513198.919 6  92347852.88246                  22552278.688
  22552284.215                          39.400          38.400
 128113601.212 5  99828824.76742  95669250.218 6  24379208.398
  24379217.555    24379217.398          30.800          14.800          41.300
 112198055.306 7  87427159.56247  83784363.327 8  21350592.383
  21350600.203    21350600.840          43.500          46.100          50.500
 111265636.782 6  86539859.760 7                  20843775.945    20843775.773
  20843781.188                          40.700          42.800
 124924003.11514  97163127.331 5                  23361426.203    23361423.469
  23361428.871                          28.300          32.200
 129478409.197 4 100892270.26444  96688424.639 6  24638912.438
  24638922.355    24638922.531          29.900          26.900          40.200
 108219073.698 7  84170282.016 7                  20223291.313    20223290.578
  20223295.164                          43.600          43.800
 109649153.035 7  85440908.31246                  20865533.336
  20865537.836                          43.300          36.000
 118090555.053 6  92018616.93543                  22471883.008
  22471888.855                          36.000          21.800
 125887806.538 5  98094472.41042                  23955670.000
  23955673.285                          32.200          17.400
 117773887.982 6  91601938.616 6                  22070771.266    22070771.410
  22070777.438                          37.200          38.600
 124252372.074 5  96820069.35845  92785897.955 7  23644445.938
  23644453.789    23644454.133          33.700          30.500          44.100
 110534645.560 7  86130965.79245  82542167.864 8  21034053.664
  21034062.293    21034060.809          42.600          34.500          50.300
 123408723.051 5  95984582.408 5                  23151167.039    23151167.098
  23151173.813                          33.200          34.900
 113775853.927 7  88656514.24645                  21650817.094
  21650820.020                          43.300          33.800
 113238414.825 5  88074255.100 6                  21198449.000    21198448.715
  21198452.715                          34.500          37.300
 107731953.929 7  83791428.978 7                  20160539.859    20160539.113
  20160544.082                          44.300          44.600
 130081298.433 7                  97138650.340 7  24753648.484
                  24753654.266          44.000                          46.200
 128196032.817 7                  95730817.629 8  24394894.641
                  24394899.051          45.700                          48.700
 114327829.569 6                  85374696.403 7  21755860.992
                  21755865.293          38.500                          43.600
 138173427.902 6                 103181482.175 6  26293529.102
                  26293535.742          37.400                          41.200
 120410852.357 7                  89917223.816 8  22913420.484
                  22913425.426          45.700                          49.500
 20  8 16  0 30 25.0000000  0 23R01G17G08G03R18R24G06R17G28G11G19R02
                                G30G01R14G22R16R15E36E02E14E15E30
 123433020.696 5  96003607.489 5                  23090729.258    23090726.152
  23090733.723                          30.100          32.100
 118511276.291 6  92346354.73446                  22551912.977
  22551918.375                          39.100          38.500
 128116111.197 5  99830780.74542  95671124.509 6  24379685.773
  24379694.961    24379695.418          30.300          14.800          41.100
 112196441.002 7  87425901.67247  83783157.844 8  21350284.633
  21350293.105    21350293.641          43.300          45.900          50.400
 111264400.566 6  86538898.248 7                  20843544.609    20843544.121
  20843549.555                          40.600          42.800
 124926785.711 4  97165291.570 5                  23361947.742    23361944.023
  23361949.230                          27.200          32.800
 129475334.859 4 100889874.69344  96686128.837 6  24638327.914
  24638337.262    24638337.563          29.400          24.900          40.400
 108220273.659 7  84171215.320 7                  20223515.414    20223514.852
  20223519.418                          43.500          44.200
 109647849.867 7  85439892.85746                  20865285.367
  20865289.898                          43.500          36.000
 118093211.774 6  92020687.09243                  22472388.828
  22472394.406                          36.400          22.000
 125885056.400 5  98092329.39442                  23955146.961
  23955149.918                          32.300          17.800
 117771243.563 6  91599881.862 6                  22070277.320    22070275.895
  22070281.820                          37.300          38.700
 124255089.352 5  96822186.72845  92787927.116 7  23644962.906
  23644970.773    23644971.098          33.600          30.900          43.900
 110536944.844 7  86132757.43345  82543884.872 8  21034491.133
  21034499.918    21034498.352          42.800          34.300          50.600
 123413188.085 5  95988055.214 5                  23152004.188    23152004.625
  23152011.539                          32.800          34.900
 113776169.791 7  88656760.38145                  21650877.516
  21650880.133                          43.000          33.800
 113236606.866 5  88072848.907 6                  21198110.648    21198110.133
  21198114.332                          34.600          36.600
 107734272.649 7  83793232.422 7                  20160972.969    20160973.188
  20160977.934                          44.600          44.600
 130083049.014 7                  97139957.577 7  24753981.453
                  24753987.402          44.000                          46.700
 128198248.302 7                  95732472.041 8  24395316.273
                  24395320.602          45.500                          49.000
 114321957.659 6                  85370311.519 7  21754743.688
                  21754747.941          38.100                          43.200
 138171557.082 6                 103180085.119 6  26293173.031
                  26293179.930          37.300                          41.200
 120410386.186 7                  89916875.710 8  22913331.680
                  22913336.891          45.500                          49.100
 20  8 16  0 30 26.0000000  0 23R01G17G08G03R18R24G06R17G28G11G19R02
                                G30G01R14G22R16R15E36E02E14E15E30
 123434301.83314  96004603.951 5                  23090967.828    23090965.813
  23090973.461                          29.900          32.000
 118509353.808 6  92344856.69646                  22551547.930
  22551552.492                          39.400          38.400
 128118621.327 5  99832736.64142  95672998.943 6  24380162.977
  24380172.504    24380173.082          30.500          14.800          41.400
 112194827.339 7  87424644.27547  83781952.850 8  21349977.773
  21349985.977    21349986.660          43.100          45.900          50.500
 111263164.653 6  86537936.991 7                  20843313.422    20843312.648
  20843318.188                          40.500          42.800
 124929568.258 4  97167455.815 5                  23362466.633    23362464.277
  23362469.648                          27.500          32.400
 129472260.712 4 100887479.25344  96683833.210 6  24637743.711
  24637752.184    24637752.398          29.900          25.000          39.400
 108221473.876 7  84172148.805 7                  20223740.820    20223739.477
  20223743.770                          43.700          43.600
 109646547.246 7  85438877.82646                  20865037.320
  20865042.004                          43.900          36.000
 118095868.740 6  92022757.46943                  22472894.359
  22472899.883                          36.400          22.500
 125882306.341 5  98090186.50442                  23954623.031
  23954626.633                          31.800          17.400
 117768599.756 6  91597825.541 6                  22069781.695    22069780.402
  22069786.617                          37.400          38.800
 124257806.900 5  96824304.28045  92789956.435 7  23645480.117
  23645487.945    23645488.332          33.700          30.900          43.600
 110539244.510 7  86134549.38645  82545602.160 8  21034928.805
  21034937.445    21034935.875          42.700          34.100          50.600
 123417653.275 5  95991528.107 5                  23152842.523    23152842.547
  23152849.141                          32.900          35.500
 113776486.350 7  88657007.04645                  21650937.523
  21650940.289                          43.200          34.000
 113234799.722 5  88071443.394 6                  21197771.734    21197771.938
  21197776.152                          34.300          36.500
 107736592.189 7  83795036.501 7                  20161407.656    20161407.332
  20161412.051                          44.500          44.700
 130084799.704 7                  97141264.921 7  24754314.820
                  24754320.531          43.900                          46.300
 128200464.172 7                  95734126.759 8  24395738.031
                  24395742.176          45.600                          48.400
 114316086.051 6                  85365926.886 7  21753626.406
                  21753630.469          38.500                          43.500
 138169686.407 6                 103178688.213 6  26292816.953
                  26292824.164          37.200                          41.400
 120409920.555 7                  89916528.001 8  22913243.273
                  22913248.063          45.600                          49.300
 20  8 16  0 30 27.0000000  0 23R01G17G08G03R18R24G06R17G28G11G19R02
                                G30G01R14G22R16R15E36E02E14E15E30
 123435583.770 5  96005600.999 5                  23091206.906    23091205.469
  23091213.285                          30.400          31.700
 118507431.338 6  92343358.66146                  22551181.938
  22551186.750                          39.400          38.600
 128121131.524 5  99834692.71442  95674873.444 6  24380640.977
  24380650.348    24380650.773          31.200          14.800          41.600
 112193214.276 7  87423387.33747  83780748.281 8  21349671.367
  21349679.074    21349679.586          43.300          46.200          50.800
 111261929.001 6  86536975.941 7                  20843082.375    20843081.137
  20843086.660                          40.500          43.500
 124932350.686 4  97169619.948 5                  23362986.656    23362984.773
  23362990.027                          26.900          32.600
 129469186.707 4 100885083.92944  96681537.724 6  24637157.703
  24637167.191    24637167.191          29.400          24.100          39.600
 108222674.215 7  84173082.402 7                  20223965.273    20223963.605
  20223968.047                          43.900          43.600
 109645245.059 7  85437863.13146                  20864789.234
  20864794.180                          43.900          36.600
 118098525.730 6  92024827.85043                  22473400.047
  22473405.402                          37.100          22.500
 125879556.252 5  98088043.55142                  23954099.016
  23954103.324                          31.900          16.900
 117765956.439 6  91595769.637 6                  22069286.727    22069285.063
  22069291.453                          37.400          38.400
 124260524.588 5  96826421.97245  92791985.862 7  23645997.641
  23646005.070    23646005.293          33.700          30.400          43.100
 110541544.448 7  86136341.54045  82547319.643 8  21035366.852
  21035375.250    21035373.578          42.900          34.100          50.500
 123422118.507 5  95995001.077 5                  23153680.516    23153680.402
  23153686.875                          33.100          35.000
 113776803.500 7  88657254.17245                  21650997.703
  21651000.605                          43.000          34.100
 113232993.357 5  88070038.430 6                  21197434.914    21197434.172
  21197438.035                          34.700          36.400
 107738912.471 7  83796841.182 7                  20161842.375    20161841.652
  20161846.254                          44.500          44.800
 130086550.418 7                  97142572.270 7  24754648.109
                  24754653.648          44.300                          46.400
 128202680.357 7                  95735781.691 8  24396159.758
                  24396164.063          45.600                          48.100
 114310214.663 6                  85361542.410 7  21752508.828
                  21752513.121          38.300                          43.200
 138167815.906 6                 103177291.391 6  26292461.359
                  26292468.227          37.600                          41.400
 120409455.355 7                  89916180.612 8  22913154.664
                  22913159.555          45.900                          49.400
 20  8 16  0 30 28.0000000  0 22R01G17G08G03R18G06R17G28G11G19R02G30
                                G01R14G22R16R15E36E02E14E15E30
 123436866.508 5  96006598.650 5                  23091445.883    23091445.289
  23091453.211                          30.200          31.900
 118505508.962 6  92341860.71546                  22550815.945
  22550820.902                          39.200          38.800
 128123641.878 5  99836648.76542  95676748.028 6  24381119.195
  24381128.043    24381128.441          30.300          14.800          41.600
 112191601.823 7  87422130.88147  83779544.178 8  21349364.508
  21349372.199    21349372.777          43.100          46.100          50.800
 111260693.685 6  86536015.119 7                  20842851.320    20842849.820
  20842855.285                          40.600          43.200
 129466112.975 4 100882688.82244  96679242.395 6  24636571.609
  24636582.309    24636582.309          29.400          25.600          39.900
 108223874.762 7  84174016.173 7                  20224188.898    20224187.891
  20224192.535                          43.700          43.900
 109643943.340 7  85436848.81246                  20864541.961
  20864546.414                          44.100          36.600
 118101182.928 6  92026898.39443                  22473906.492
  22473911.043                          36.800          22.600
 125876806.209 5  98085900.68642                  23953575.836
  23953579.945                          32.400          16.900
 117763313.669 6  91593714.164 6                  22068791.922    22068789.688
  22068796.133                          37.400          38.400
 124263242.429 5  96828539.76645  92794015.457 7  23646514.531
  23646522.379    23646522.410          33.900          30.300          43.400
 110543844.751 7  86138133.98945  82549037.412 8  21035804.398
  21035812.914    21035811.250          42.800          34.200          50.500
 123426583.796 5  95998474.102 5                  23154517.898    23154518.211
  23154524.441                          32.900          34.700
 113777121.321 7  88657501.83245                  21651058.477
  21651061.305                          43.000          33.800
 113231187.801 5  88068634.118 6                  21197097.148    21197095.742
  21197100.047                          34.400          36.500
 107741233.505 7  83798646.419 7                  20162276.047    20162275.887
  20162280.652                          44.300          45.000
 130088301.249 7                  97143879.702 7  24754981.164
                  24754986.852          44.100                          46.200
 128204896.909 7                  95737436.908 8  24396581.367
                  24396585.688          45.300                          48.200
 114304343.592 6                  85357158.153 7  21751391.641
                  21751396.012          38.300                          43.000
 138165945.560 6                 103175894.723 6  26292105.359
                  26292112.141          37.600                          41.500
 120408990.677 7                  89915833.606 8  22913066.258
                  22913071.121          45.600                          49.700
 20  8 16  0 30 29.0000000  0 22R01G17G08G03R18G06R17G28G11G19R02G30
                                G01R14G22R16R15E36E02E14E15E30
 123438149.939 5  96007596.890 5                  23091687.180    23091685.641
  23091693.281                          30.100          31.800
 118503586.582 6  92340362.75146                  22550450.203
  22550455.047                          39.100          38.500
 128126152.188 5  99838604.91742  95678622.655 6  24381596.695
  24381605.680    24381606.355          30.300          13.900          41.000
 112189989.915 7  87420874.85147  83778340.488 8  21349057.281
  21349065.547    21349066.094          43.100          46.000          50.900
 111259458.526 6  86535054.455 7                  20842620.039    20842618.102
  20842623.891                          40.500          43.100
 129463039.346 4 100880293.76644  96676947.161 6  24635987.711
  24635997.328    24635997.727          29.400          25.100          40.200
 108225075.480 7  84174950.058 7                  20224413.438    20224412.270
  20224416.957                          43.900          43.500
 109642642.034 7  85435834.80846                  20864293.859
  20864298.832                          43.800          36.500
 118103840.251 6  92028969.02743                  22474412.414
  22474416.648                          37.300          22.300
 125874056.178 5  98083757.82742                  23953053.367
  23953056.711                          32.300          17.800
 117760671.411 6  91591659.052 6                  22068295.727    22068294.637
  22068300.953                          37.300          38.500
 124265960.412 5  96830657.67344  92796045.097 7  23647031.680
  23647039.516    23647039.613          33.700          29.700          43.200
 110546145.300 7  86139926.62645  82550755.350 8  21036242.000
  21036250.676    21036249.141          42.900          34.600          50.300
 123431049.128 5  96001947.130 5                  23155356.000    23155355.609
  23155362.133                          33.200          35.300
 113777439.695 7  88657749.91045                  21651118.500
  21651121.781                          42.600          34.200
 113229382.963 5  88067230.359 6                  21196759.047    21196758.441
  21196762.191                          34.500          36.700
 107743555.195 7  83800452.179 7                  20162711.164    20162710.449
  20162715.266                          44.200          44.800
 130090052.034 7                  97145187.121 7  24755314.195
                  24755320.004          44.000                          46.600
 128207113.740 7                  95739092.339 8  24397003.219
                  24397007.527          45.600                          48.200
 114298472.702 6                  85352774.065 7  21750274.750
                  21750278.871          38.700                          43.400
 138164075.342 6                 103174498.122 6  26291749.641
                  26291756.480          37.300                          41.400
 120408526.390 7                  89915486.891 8  22912977.867
                  22912982.813          45.900                          49.600
 20  8 16  0 30 30.0000000  0 22R01G17G08G03R18G06R17G28G11G19R02G30
                                G01R14G22R16R15E36E02E14E15E30
 123439434.221 5  96008595.799 5                  23091926.727    23091925.797
  23091933.512                          30.200          31.400
 118501664.304 6  92338864.87646                  22550084.492
  22550089.348                          39.000          38.600
 128128662.738 5  99840561.13042  95680497.417 6  24382074.750
  24382083.367    24382084.039          31.000          14.800          40.900
 112188378.652 7  87419619.32647  83777137.278 8  21348750.961
  21348758.738    21348759.484          43.100          46.000          51.100
 111258223.663 6  86534094.006 7                  20842387.742    20842386.949
  20842392.559                          40.200          43.400
 129459965.970 4 100877898.92444  96674652.103 6  24635403.383
  24635412.520    24635413.383          29.400          25.300          40.800
 108226276.437 7  84175884.165 7                  20224637.352    20224636.957
  20224641.301                          43.800          43.300
 109641341.216 7  85434821.18945                  20864047.023
  20864051.340                          43.700          35.900
 118106497.716 6  92031039.77543                  22474917.609
  22474922.500                          37.000          22.200
 125871306.203 5  98081614.95843                  23952530.039
  23952533.352                          33.000          19.000
 117758029.656 6  91589604.386 6                  22067801.258    22067799.645
  22067805.918                          37.100          38.500
 124268678.642 5  96832775.76945  92798074.920 7  23647548.188
  23647556.930    23647556.770          33.500          30.600          43.700
 110548446.227 7  86141719.55945  82552473.566 8  21036679.914
  21036688.566    21036687.063          42.700          34.100          50.500
 123435514.610 5  96005420.245 5                  23156194.281    23156193.461
  23156199.832                          33.400          35.500
 113777758.757 7  88657998.53845                  21651180.008
  21651182.508                          42.700          34.200
 113227579.015 5  88065827.227 6                  21196420.750    21196420.547
  21196424.492                          34.100          36.600
 107745877.710 7  83802258.594 7                  20163145.867    20163144.938
  20163149.789                          44.100          44.900
 130091802.929 7                  97146494.607 7  24755647.344
                  24755653.188          43.900                          46.700
 128209330.936 7                  95740748.039 8  24397425.242
                  24397429.414          45.900                          48.200
 114292602.144 6                  85348390.182 7  21749157.555
                  21749161.824          38.600                          43.600
 138162205.286 6                 103173101.651 6  26291393.578
                  26291400.668          37.700                          41.300
 120408062.602 7                  89915140.558 8  22912889.547
                  22912894.516          45.000                          49.500
 20  8 16  0 30 31.0000000  0 22R01G17G08G03R18G06R17G28G11G19R02G30
                                G01R14G22R16R15E36E02E14E15E30
 123440719.263 4  96009595.312 5                  23092167.898    23092166.242
  23092173.953                          29.700          31.600
 118499742.125 6  92337367.07046                  22549718.797
  22549723.340                          38.600          38.400
 128131173.416 5  99842517.47142  95682372.232 6  24382551.844
  24382561.074    24382561.781          30.300          13.900          41.100
 112186768.023 7  87418364.28947  83775934.520 8  21348444.430
  21348452.418    21348453.012          43.200          46.000          50.700
 111256989.055 6  86533133.747 7                  20842157.070    20842155.480
  20842161.172                          40.500          43.300
 129456892.791 4 100875504.24344  96672357.216 6  24634818.133
  24634827.773    24634828.746          28.900          24.400          40.800
 108227477.639 7  84176818.411 7                  20224861.914    20224861.250
  20224865.766                          43.500          43.500
 109640040.897 7  85433807.94746                  20863799.570
  20863803.980                          43.900          36.000
 118109155.343 6  92033110.65843                  22475423.391
  22475428.359                          37.300          21.500
 125868556.267 5  98079472.15143                  23952006.633
  23952010.016                          32.800          18.300
 117755388.470 6  91587550.123 6                  22067306.320    22067304.957
  22067310.840                          37.400          38.400
 124271396.953 5  96834893.94245  92800104.871 7  23648065.711
  23648074.203    23648074.145          33.100          30.400          43.400
 110550747.475 7  86143512.73545  82554192.030 8  21037118.203
  21037126.520    21037124.875          43.000          34.400          50.700
 123439980.234 5  96008893.482 5                  23157033.258    23157030.844
  23157037.641                          33.200          35.300
 113778078.455 7  88658247.65345                  21651240.820
  21651243.305                          42.900          33.700
 113225775.859 5  88064424.811 6                  21196083.672    21196082.938
  21196086.793                          34.500          36.900
 107748201.046 7  83804065.639 7                  20163579.977    20163579.988
  20163584.613                          44.400          44.600
 130093553.922 7                  97147802.164 7  24755980.672
                  24755986.457          43.400                          46.700
 128211548.500 7                  95742404.005 8  24397847.070
                  24397851.418          45.900                          48.300
 114286731.833 6                  85344006.525 7  21748040.477
                  21748044.570          38.600                          43.200
 138160335.444 6                 103171705.315 6  26291037.773
                  26291044.828          37.900                          41.400
 120407599.288 7                  89914794.577 8  22912801.289
                  22912806.383          44.900                          49.000
 20  8 16  0 30 32.0000000  0 22R01G17G08G03R18G06R17G28G11G19R02G30
                                G01R14G22R16R15E36E02E14E15E30
 123442005.113 4  96010595.386 5                  23092408.914    23092406.684
  23092414.512                          29.800          31.200
 118497819.958 6  92335869.28046                  22549352.219
  22549357.613                          38.700          38.100
 128133684.142 5  99844473.99142  95684247.125 6  24383029.203
  24383038.859    24383039.246          30.300          14.800          40.900
 112185157.954 7  87417109.68547  83774732.187 8  21348138.180
  21348145.855    21348146.723          43.200          45.900          50.400
 111255754.638 6  86532173.636 7                  20841925.078    20841924.137
  20841929.918                          40.200          42.800
 129453819.771 4 100873109.69644  96670062.398 6  24634233.797
  24634242.922    24634243.910          29.600          24.700          40.900
 108228678.938 7  84177752.751 7                  20225086.289    20225085.809
  20225090.230                          43.500          43.800
 109638740.989 7  85432795.02546                  20863552.211
  20863556.629                          43.400          36.500
 118111813.109 6  92035181.62343                  22475929.188
  22475934.063                          37.500          21.800
 125865806.316 5  98077329.34143                  23951482.984
  23951486.688                          32.200          18.300
 117752747.781 6  91585496.251 6                  22066812.086    22066809.813
  22066816.012                          37.800          38.400
 124274115.504 5  96837012.28345  92802134.922 7  23648583.109
  23648591.391    23648591.203          32.900          30.000          43.200
 110553049.005 7  86145306.13345  82555910.705 8  21037556.039
  21037564.473    21037562.820          43.200          34.200          50.700
 123444445.862 5  96012366.771 5                  23157869.633    23157868.656
  23157875.398                          32.900          35.000
 113778398.748 7  88658497.23145                  21651301.516
  21651304.172                          42.600          33.900
 113223973.520 5  88063022.977 6                  21195746.656    21195745.262
  21195749.332                          34.700          36.500
 107750525.125 7  83805873.248 7                  20164015.859    20164014.723
  20164019.574                          44.100          44.700
 130095304.919 7                  97149109.720 7  24756313.719
                  24756319.641          43.300                          46.500
 128213766.361 7                  95744060.196 8  24398269.172
                  24398273.418          45.900                          48.300
 114280861.723 6                  85339623.026 7  21746923.539
                  21746927.590          38.000                          43.500
 138158465.681 6                 103170309.092 6  26290682.070
                  26290689.090          37.700                          41.200
 120407136.400 7                  89914448.925 8  22912713.211
                  22912718.336          45.300                          49.300
 20  8 16  0 30 33.0000000  0 22R01G17G08G03R18G06R17G28G11G19R02G30
                                G01R14G22R16R15E36E02E14E15E30
 123443291.767 4  96011596.073 5                  23092649.523    23092647.875
  23092655.063                          29.700          30.900
 118495897.860 6  92334371.54446                  22548986.828
  22548991.883                          39.000          38.400
 128136194.965 5  99846430.43842  95686122.087 6  24383506.633
  24383516.762    24383517.117          31.200          13.900          41.100
 112183548.491 7  87415855.55947  83773530.331 8  21347832.102
  21347839.676    21347840.418          42.900          45.800          50.700
 111254520.495 6  86531213.773 7                  20841694.000    20841693.285
  20841698.754                          40.600          42.300
 129450746.953 5 100870715.29844  96667767.785 6  24633648.828
  24633658.055    24633659.480          30.100          25.100          40.900
 108229880.457 7  84178687.259 7                  20225311.305    20225310.480
  20225314.820                          43.200          43.500
 109637441.568 7  85431782.49946                  20863304.625
  20863309.242                          43.600          36.000
 118114471.022 6  92037252.74643                  22476434.328
  22476439.703                          37.100          22.000
 125863056.346 5  98075186.47842                  23950958.844
  23950963.336                          32.400          17.400
 117750107.658 6  91583442.813 6                  22066315.492    22066315.297
  22066321.238                          38.100          38.200
 124276834.189 5  96839130.73445  92804165.141 7  23649100.727
  23649108.664    23649108.695          32.900          30.400          43.400
 110555350.868 7  86147099.79445  82557629.635 8  21037994.258
  21038002.504    21038000.813          43.100          34.700          50.600
 123448911.572 5  96015840.114 5                  23158707.828    23158706.273
  23158713.262                          33.300          35.500
 113778719.700 7  88658747.33045                  21651362.461
  21651365.348                          42.800          34.200
 113222172.020 5  88061621.808 6                  21195409.000    21195407.801
  21195412.137                          34.400          36.400
 107752849.992 7  83807681.470 7                  20164450.531    20164449.961
  20164454.625                          44.100          45.000
 130097056.016 7                  97150417.348 7  24756647.227
                  24756652.770          43.300                          47.000
 128215984.575 7                  95745716.664 8  24398691.352
                  24398695.578          45.900                          48.200
 114274991.940 6                  85335239.736 7  21745806.359
                  21745810.527          38.500                          43.500
 138156596.112 6                 103168912.979 6  26290326.367
                  26290333.387          37.600                          41.500
 120406674.021 7                  89914103.633 8  22912625.297
                  22912630.348          45.600                          49.000
 20  8 16  0 30 34.0000000  0 22R01G17G08G03R18G06R17G28G11G19R02G30
                                G01R14G22R16R15E36E02E14E15E30
 123444579.170 4  96012597.375 5                  23092889.797    23092888.320
  23092895.766                          29.800          31.000
 118493975.783 6  92332873.82146                  22548621.336
  22548626.117                          39.200          38.700
 128138705.891 5  99848387.05142  95687997.110 6  24383983.969
  24383994.453    24383994.789          31.200          14.800          41.000
 112181939.592 7  87414601.87647  83772328.877 8  21347526.234
  21347533.609    21347534.180          42.900          46.000          50.900
 111253286.594 6  86530254.064 7                  20841463.047    20841461.867
  20841467.648                          40.200          42.100
 129447674.258 4 100868320.98444  96665473.264 6  24633064.195
  24633073.340    24633074.879          29.600          25.200          40.800
 108231082.151 7  84179621.912 7                  20225535.953    20225534.789
  20225539.352                          43.200          43.300
 109636142.578 7  85430770.29145                  20863057.516
  20863062.145                          43.400          35.700
 118117129.023 6  92039323.91443                  22476940.414
  22476945.477                          37.100          21.300
 125860306.507 5  98073043.76342                  23950436.070
  23950440.055                          33.000          17.800
 117747467.956 6  91581389.740 6                  22065820.500    22065820.520
  22065826.664                          38.200          38.000
 124279553.012 5  96841249.29444  92806195.413 7  23649618.281
  23649625.957    23649626.113          33.500          29.600          43.400
 110557653.002 7  86148893.66845  82559348.764 8  21038432.328
  21038440.605    21038438.953          42.900          34.700          50.100
 123453377.255 5  96019313.432 5                  23159546.078    23159544.242
  23159551.172                          33.800          35.500
 113779041.232 7  88658997.87645                  21651424.094
  21651426.527                          42.900          34.700
 113220371.199 5  88060221.194 6                  21195071.125    21195071.113
  21195074.996                          34.700          36.700
 107755175.524 7  83809490.218 7                  20164885.102    20164884.758
  20164889.832                          44.000          44.400
 130098807.099 7                  97151724.985 7  24756980.406
                  24756986.117          43.300                          47.000
 128218203.090 7                  95747373.342 8  24399113.398
                  24399117.703          45.700                          48.200
 114269122.359 6                  85330856.600 7  21744689.555
                  21744693.727          38.300                          43.300
 138154726.659 6                 103167516.960 6  26289970.625
                  26289977.676          37.900                          40.900
 120406212.056 7                  89913758.659 8  22912537.695
                  22912542.355          45.300                          49.200
 20  8 16  0 30 35.0000000  0 22R01G17G08G03R18G06R17G28G11G19R02G30
                                G01R14G22R16R15E36E02E14E15E30
 123445867.325 5  96013599.344 5                  23093130.578    23093129.480
  23093136.738                          30.100          30.900
 118492053.810 6  92331376.17746                  22548254.828
  22548260.355                          39.200          38.600
 128141216.916 5  99850343.66242  95689872.260 6  24384461.891
  24384472.148    24384472.711          31.200          15.600          40.800
 112180331.325 7  87413348.67947  83771127.899 8  21347219.000
  21347227.516    21347228.188          43.000          45.900          50.500
 111252053.012 6  86529294.610 7                  20841231.547    20841230.938
  20841236.750                          40.800          42.400
 129444601.889 5 100865926.93644  96663178.917 6  24632480.125
  24632488.625    24632490.211          30.300          25.700          41.200
 108232284.053 7  84180556.747 7                  20225760.000    20225759.266
  20225764.094                          43.100          43.700
 109634844.070 7  85429758.47345                  20862810.320
  20862815.105                          43.200          35.700
 118119787.197 6  92041395.21543                  22477445.836
  22477451.238                          36.900          21.700
 125857556.596 5  98070900.99542                  23949912.438
  23949916.789                          32.300          17.800
 117744828.846 6  91579337.063 6                  22065326.195    22065326.199
  22065331.895                          38.100          38.100
 124282272.036 5  96843368.01944  92808225.858 7  23650135.891
  23650143.359    23650143.520          33.100          29.400          43.300
 110559955.486 7  86150687.81345  82561068.147 8  21038870.266
  21038878.715    21038877.043          42.600          35.000          50.200
 123457843.075 5  96022786.857 5                  23160384.219    23160382.543
  23160388.953                          33.400          35.300
 113779363.446 7  88659248.94545                  21651485.375
  21651487.781                          42.900          33.600
 113218571.231 5  88058821.231 6                  21194733.781    21194733.770
  21194738.078                          34.500          36.900
 107757501.832 7  83811299.567 7                  20165320.797    20165320.309
  20165325.148                          43.700          44.500
 130100558.281 7                  97153032.694 7  24757313.555
                  24757319.348          43.600                          46.500
 128220421.971 7                  95749030.300 8  24399535.742
                  24399540.035          45.800                          48.300
 114263253.069 6                  85326473.690 7  21743572.789
                  21743576.668          38.700                          43.100
 138152857.401 6                 103166121.073 6  26289614.977
                  26289621.949          37.900                          41.200
 120405750.585 7                  89913414.045 8  22912449.680
                  22912454.594          45.300                          49.000
 20  8 16  0 30 36.0000000  0 22R01G17G08G03R18G06R17G28G11G19R02G30
                                G01R14G22R16R15E36E02E14E15E30
 123447156.305 4  96014601.833 5                  23093371.633    23093370.480
  23093377.754                          29.800          30.200
 118490131.887 6  92329878.58046                  22547890.008
  22547894.715                          39.400          38.600
 128143728.037 5  99852300.40842  95691747.425 6  24384940.609
  24384950.000    24384950.504          31.200          13.900          40.900
 112178723.662 7  87412095.95347  83769927.376 8  21346913.469
  21346921.648    21346922.313          43.100          46.000          50.500
 111250819.691 6  86528335.363 7                  20841001.188    20840999.781
  20841005.613                          40.500          42.700
 129441529.595 5 100863532.93244  96660884.695 6  24631895.453
  24631903.938    24631905.531          30.300          25.500          41.400
 108233486.149 7  84181491.699 7                  20225984.930    20225984.051
  20225988.598                          43.200          44.100
 109633546.023 7  85428747.00445                  20862563.539
  20862568.121                          43.500          35.900
 118122445.555 6  92043466.64643                  22477952.453
  22477957.188                          37.100          21.800
 125854806.741 5  98068758.28242                  23949389.594
  23949393.410                          31.800          16.900
 117742190.246 6  91577284.839 6                  22064831.203    22064831.527
  22064837.438                          37.900          38.300
 124284991.221 5  96845486.85345  92810256.415 7  23650652.586
  23650660.734    23650660.734          34.000          30.900          43.500
 110562258.306 7  86152482.21045  82562787.776 8  21039308.727
  21039316.930    21039315.195          42.900          35.000          50.700
 123462308.998 5  96026260.353 5                  23161220.125    23161219.836
  23161226.699                          33.500          35.400
 113779686.278 7  88659500.51145                  21651546.695
  21651549.266                          42.900          33.900
 113216772.018 5  88057421.841 6                  21194397.883    21194397.418
  21194401.496                          34.300          37.200
 107759828.885 7  83813109.501 7                  20165755.742    20165755.898
  20165760.574                          43.900          44.400
 130102309.501 7                  97154340.417 7  24757646.867
                  24757652.691          44.000                          46.200
 128222641.184 7                  95750687.508 8  24399958.180
                  24399962.148          45.500                          48.400
 114257384.039 6                  85322090.965 7  21742455.477
                  21742459.719          38.500                          43.300
 138150988.263 6                 103164725.307 6  26289259.688
                  26289266.195          37.600                          41.400
 120405289.559 7                  89913069.794 8  22912361.984
                  22912366.816          45.300                          49.100
 20  8 16  0 30 37.0000000  0 22R01G17G08G03R18G06R17G28G11G19R02G30
                                G01R14G22R16R15E36E02E14E15E30
 123448446.088 5  96015605.021 5                  23093613.172    23093612.258
  23093619.082                          30.600          30.300
 118488210.023 6  92328381.02246                  22547523.789
  22547528.898                          39.100          38.600
 128146239.271 5  99854257.06042  95693622.705 6  24385418.922
  24385427.906    24385428.523          31.200          14.800          40.600
 112177116.608 7  87410843.70647  83768727.305 8  21346608.078
  21346615.758    21346616.523          43.200          46.300          50.500
 111249586.660 6  86527376.337 7                  20840770.828    20840768.773
  20840774.492                          40.900          42.700
 129438457.563 4 100861139.14744  96658590.619 6  24631310.758
  24631319.375    24631321.000          29.600          26.100          41.500
 108234688.428 7  84182426.797 7                  20226209.500    20226208.797
  20226213.238                          42.600          44.200
 109632248.444 7  85427735.90445                  20862316.133
  20862320.895                          43.100          35.800
 118125104.004 6  92045538.16443                  22478458.727
  22478463.094                          37.000          22.200
 125852056.925 5  98066615.55442                  23948866.727
  23948870.234                          32.900          16.300
 117739552.176 6  91575232.990 6                  22064339.031    22064336.582
  22064342.977                          37.700          38.400
 124287710.643 5  96847605.88745  92812287.129 7  23651171.234
  23651178.355    23651178.188          34.400          31.300          43.500
 110564561.423 7  86154276.85045  82564507.648 8  21039747.172
  21039755.250    21039753.492          43.200          34.700          50.900
 123466775.018 5  96029733.923 5                  23162058.367    23162057.344
  23162064.422                          33.400          35.900
 113780009.744 7  88659752.55945                  21651608.234
  21651611.047                          42.600          33.700
 113214973.645 5  88056023.074 6                  21194061.773    21194061.121
  21194064.863                          34.200          36.700
 107762156.732 7  83814920.042 7                  20166191.203    20166191.699
  20166196.184                          44.100          44.700
 130104060.827 7                  97155648.228 7  24757980.383
                  24757985.871          43.600                          46.500
 128224860.746 7                  95752344.970 8  24400380.617
                  24400384.688          45.400                          48.600
 114251515.269 6                  85317708.447 7  21741338.820
                  21741343.090          38.400                          43.200
 138149119.315 6                 103163329.666 6  26288903.711
                  26288910.852          37.400                          41.800
 120404829.036 7                  89912725.888 8  22912274.258
                  22912279.195          45.500                          49.100
 20  8 16  0 30 38.0000000  0 22R01G17G08G03R18G06R17G28G11G19R02G30
                                G01R14G22R16R15E36E02E14E15E30
 123449736.579 5  96016608.747 5                  23093852.805    23093853.586
  23093860.523                          30.700          30.000
 118486288.180 6  92326883.48546                  22547157.930
  22547163.215                          39.200          38.700
 128148750.618 5                  95695498.048 6  24385897.336
                  24385906.113          31.800                          41.100
 112175510.110 7  87409591.88847  83767527.649 8  21346302.008
  21346310.121    21346310.801          43.200          46.200          50.800
 111248353.840 6  86526417.478 7                  20840539.398    20840537.816
  20840543.566                          40.400          42.400
 129435385.66414 100858745.46854  96656296.676 6  24630726.969
  24630734.727    24630736.055          29.400          26.200          40.700
 108235890.840 7  84183362.003 7                  20226434.664    20226433.113
  20226438.012                          42.700          44.500
 109630951.311 7  85426725.15146                  20862069.609
  20862074.180                          43.400          36.100
 118127762.614 6  92047609.81843                  22478964.188
  22478969.125                          37.600          21.700
 125849307.119 5  98064472.84742                  23948343.602
  23948347.113                          32.400          17.800
 117736914.629 6  91573181.576 6                  22063843.602    22063842.680
  22063848.613                          37.600          38.300
 124290430.098 5  96849724.93745  92814317.903 7  23651687.648
  23651695.953    23651695.816          34.300          30.500          43.700
 110566864.825 7  86156071.71045  82566227.718 8  21040184.922
  21040193.496    21040191.875          42.700          35.000          50.800
 123471241.156 5  96033207.569 5                  23162896.234    23162895.328
  23162902.199                          33.700          35.400
 113780333.824 7  88660005.09445                  21651670.359
  21651672.816                          42.200          33.700
 113213176.026 5  88054624.941 6                  21193725.688    21193724.301
  21193728.406                          34.800          36.800
 107764485.291 7  83816731.146 7                  20166627.961    20166627.281
  20166632.039                          44.300          44.600
 130105812.154 7                  97156956.043 7  24758313.391
                  24758319.125          43.400                          46.600
 128227080.617 7                  95754002.661 8  24400802.852
                  24400807.133          45.100                          48.800
 114245646.749 6                  85313326.105 7  21740222.109
                  21740226.340          38.900                          43.100
 138147250.492 6                 103161934.114 7  26288548.094
                  26288555.148          37.400                          42.000
 120404368.931 7                  89912382.297 8  22912186.773
                  22912191.582          45.400                          49.400
 20  8 16  0 30 39.0000000  0 22R01G17G08G03R18G06R17G28G11G19R02G30
                                G01R14G22R16R15E36E02E14E15E30
 123451027.975 5  96017613.119 4                  23094094.563    23094095.508
  23094102.082                          30.300          29.800
 118484366.415 6  92325386.00546                  22546792.359
  22546797.531                          38.800          37.800
 128151262.08015                  95697373.471 6  24386374.273
                  24386383.980          31.000                          41.200
 112173904.243 7  87408340.56647  83766328.464 8  21345996.063
  21346004.555    21346005.207          42.900          45.900          50.900
 111247121.288 6  86525458.808 7                  20840307.789    20840306.953
  20840312.750                          40.800          42.800
 129432313.967 4 100856351.92744  96654002.894 6  24630142.148
  24630150.090    24630151.672          29.900          24.700          40.800
 108237093.510 7  84184297.427 7                  20226659.188    20226658.262
  20226662.824                          42.800          44.400
 109629654.659 7  85425714.77246                  20861822.703
  20861827.543                          43.200          36.000
 118130421.375 6  92049681.57243                  22479470.609
  22479475.000                          38.100          22.000
 125846557.351 5  98062330.16243                  23947820.117
  23947824.035                          31.900          18.300
 117734277.669 6  91571130.588 6                  22063349.938    22063348.555
  22063354.402                          37.400          38.500
 124293149.828 5  96851844.20745  92816348.858 7  23652205.203
  23652213.512    23652213.227          33.800          30.400          43.800
 110569168.569 7  86157866.83945  82567948.043 8  21040623.867
  21040631.773    21040630.328          42.500          34.900          50.700
 123475707.337 5  96036681.230 5                  23163734.227    23163733.617
  23163739.988                          33.100          35.300
 113780658.546 7  88660258.11845                  21651731.203
  21651734.551                          42.200          34.200
 113211379.320 5  88053227.454 6                  21193389.063    21193387.633
  21193392.117                          34.600          36.500
 107766814.677 7  83818542.888 7                  20167062.750    20167063.305
  20167067.996                          44.800          44.600
 130107563.566 7                  97158263.911 7  24758646.898
                  24758652.535          43.500                          46.500
 128229300.826 7                  95755660.614 8  24401225.281
                  24401229.508          45.200                          48.800
 114239778.503 6                  85308943.987 7  21739105.445
                  21739109.598          38.600                          43.200
 138145381.842 6                 103160538.694 7  26288192.398
                  26288199.586          37.700                          42.000
 120403909.310 7                  89912039.078 8  22912099.273
                  22912104.070          45.300                          49.300
 20  8 16  0 30 40.0000000  0 22R01G17G08G03R18G06R17G28G11G19R02G30
                                G01R14G22R16R15E36E02E14E15E30
 123452320.040 5  96018618.092 5                  23094337.695    23094336.980
  23094343.605                          30.300          30.900
 118482444.691 6  92323888.55946                  22546426.852
  22546431.738                          39.000          38.100
 128153773.559 5                  95699248.952 6  24386852.938
                  24386862.145          31.600                          41.300
 112172298.972 7  87407089.70147  83765129.714 8  21345691.078
  21345698.910    21345699.723          43.000          46.000          50.900
 111245888.966 6  86524500.366 7                  20840077.148    20840076.059
  20840081.859                          40.900          42.700
 129429242.454 5 100853958.55644  96651709.215 6  24629558.477
  24629565.566    24629567.090          30.100          26.000          40.600
 108238296.358 7  84185232.982 7                  20226884.188    20226882.766
  20226887.570                          42.900          44.600
 109628358.431 7  85424704.72646                  20861576.266
  20861580.730                          43.500          36.200
 118133080.217 6  92051753.39443                  22479976.586
  22479981.055                          37.700          21.700
 125843807.62415  98060187.52852                  23947296.906
  23947300.816                          32.200          16.900
 117731641.185 6  91569080.043 6                  22062856.469    22062854.340
  22062860.289                          37.300          38.600
 124295869.647 5  96853963.54445  92818379.915 7  23652723.586
  23652731.129    23652730.992          34.400          30.900          43.700
 110571472.606 7  86159662.19145  82569668.603 8  21041061.781
  21041070.250    21041068.711          42.300          34.900          50.900
 123480173.556 5  96040154.952 5                  23164571.648    23164571.109
  23164577.828                          32.900          35.700
 113780983.883 7  88660511.62945                  21651793.047
  21651796.281                          42.500          34.400
 113209583.273 5  88051830.553 5                  21193052.484    21193051.625
  21193055.836                          34.200          35.900
 107769144.749 7  83820355.190 7                  20167499.242    20167499.227
  20167503.938                          44.500          44.900
 130109315.001 7                  97159571.799 7  24758980.234
                  24758985.586          43.700                          46.700
 128231521.363 7                  95757318.805 8  24401647.969
                  24401652.121          45.500                          48.200
 114233910.443 6                  85304562.023 7  21737989.023
                  21737993.055          38.800                          43.200
 138143513.309 6                 103159143.364 6  26287837.281
                  26287844.004          37.500                          41.700
 120403450.139 7                  89911696.182 8  22912011.914
                  22912016.789          45.400                          49.100
 20  8 16  0 30 41.0000000  0 22R01G17G08G03R18G06R17G28G11G19R02G30
                                G01R14G22R16R15E36E02E14E15E30
 123453612.913 5  96019623.659 5                  23094580.438    23094579.617
  23094585.566                          30.600          30.300
 118480523.029 6  92322391.16646                  22546061.055
  22546065.988                          39.200          38.300
 128156285.185 5                  95701124.513 6  24387331.227
                  24387340.063          30.700                          41.300
 112170694.270 7  87405839.28347  83763931.390 8  21345386.133
  21345393.566    21345394.242          43.200          46.000          51.300
 111244656.899 6  86523542.066 7                  20839847.188    20839845.430
  20839850.961                          41.200          42.800
 129426171.125 5 100851565.31944  96649415.701 6  24628973.305
  24628981.289    24628982.680          31.200          26.000          41.000
 108239499.357 7  84186168.620 7                  20227108.609    20227107.508
  20227112.488                          42.800          44.200
 109627062.661 7  85423695.03045                  20861329.672
  20861334.160                          43.700          34.800
 118135739.227 6  92053825.35343                  22480482.922
  22480486.875                          37.900          21.800
 125841057.854 5  98058044.86642                  23946773.383
  23946777.711                          32.900          16.300
 117729005.297 6  91567029.831 6                  22062362.359    22062360.723
  22062366.402                          36.700          38.800
 124298589.638 5  96856083.01445  92820411.057 7  23653240.883
  23653248.648    23653248.824          34.000          31.300          44.100
 110573776.970 7  86161457.80145  82571389.380 8  21041500.508
  21041508.762    21041507.270          42.200          34.400          50.900
 123484639.805 5  96043628.718 5                  23165408.023    23165409.289
  23165415.727                          33.100          35.400
 113781309.847 7  88660765.62345                  21651855.164
  21651858.281                          43.100          34.500
 113207788.074 5  88050434.305 6                  21192716.477    21192716.078
  21192719.598                          34.200          36.000
 107771475.587 7  83822168.038 7                  20167935.555    20167935.570
  20167940.211                          44.400          44.900
 130111066.481 7                  97160879.718 7  24759313.320
                  24759318.906          43.600                          46.900
 128233742.221 7                  95758977.240 8  24402070.695
                  24402074.824          45.200                          48.300
 114228042.720 6                  85300180.245 7  21736872.047
                  21736876.438          39.100                          43.300
 138141644.939 6                 103157748.141 7  26287481.547
                  26287488.414          37.300                          42.000
 120402991.415 7                  89911353.625 8  22911924.484
                  22911929.492          45.100                          49.300
 20  8 16  0 30 42.0000000  0 22R01G17G08G03R18G06R17G28G11G19R02G30
                                G01R14G22R16R15E36E02E14E15E30
 123454906.655 5  96020629.879 5                  23094822.063    23094821.566
  23094827.531                          30.100          30.400
 118478601.454 6  92320893.82646                  22545695.375
  22545700.418                          39.500          38.500
 128158796.960 5                  95703000.163 6  24387809.297
                  24387818.063          30.500                          40.900
 112169090.182 7  87404589.35047  83762733.535 8  21345080.523
  21345088.418    21345089.078          43.000          46.100          51.000
 111243425.091 6  86522584.021 7                  20839615.516    20839614.680
  20839620.148                          41.200          43.100
 129423099.927 5 100849172.15344  96647122.295 6  24628388.305
  24628396.797    24628398.156          30.500          26.300          40.700
 108240702.512 7  84187104.422 7                  20227333.023    20227332.758
  20227337.223                          43.000          44.000
 109625767.379 7  85422685.72345                  20861082.984
  20861087.805                          43.800          35.600
 118138398.378 6  92055897.42043                  22480988.422
  22480992.785                          37.600          21.800
 125838308.160 5  98055902.21942                  23946251.133
  23946254.480                          33.200          17.800
 117726369.853 6  91564980.070 6                  22061867.703    22061866.926
  22061872.699                          36.900          38.700
 124301309.814 5  96858202.63145  92822442.342 7  23653758.102
  23653766.121    23653766.195          33.600          31.300          43.400
 110576081.637 7  86163253.64645  82573110.396 8  21041939.195
  21041947.496    21041945.742          42.600          34.700          51.100
 123489106.143 5  96047102.514 5                  23166248.234    23166246.809
  23166253.750                          33.000          35.700
 113781636.437 7  88661020.11445                  21651917.367
  21651920.523                          43.000          33.800
 113205993.681 5  88049038.671 6                  21192380.609    21192379.902
  21192383.684                          34.600          36.700
 107773807.147 7  83823981.482 7                  20168371.703    20168371.555
  20168376.508                          44.300          44.900
 130112818.029 7                  97162187.707 7  24759646.695
                  24759652.355          43.700                          47.300
 128235963.412 7                  95760635.928 8  24402493.289
                  24402497.547          45.100                          48.500
 114222175.203 6                  85295798.670 7  21735755.516
                  21735760.008          39.100                          43.900
 138139776.695 6                 103156353.039 7  26287126.047
                  26287133.055          37.700                          42.200
 120402533.146 7                  89911011.417 8  22911837.422
                  22911842.324          45.200                          49.400
 20  8 16  0 30 43.0000000  0 22R01G17G08G03R18G06R17G28G11G19R02G30
                                G01R14G22R16R15E36E02E14E15E30
 123456201.101 4  96021636.659 5                  23095063.289    23095063.082
  23095069.664                          29.200          30.800
 118476679.891 6  92319396.51146                  22545329.523
  22545334.738                          39.000          38.400
 128161308.803 5                  95704875.893 6  24388286.766
                  24388295.977          30.700                          41.100
 112167486.677 7  87403339.86347  83761536.134 8  21344775.375
  21344783.254    21344783.898          42.600          46.000          50.900
 111242193.551 6  86521626.158 7                  20839385.781    20839384.141
  20839389.551                          41.000          42.900
 129420029.048 5 100846779.25544  96644829.062 6  24627804.563
  24627812.426    24627813.816          30.100          26.600          40.400
 108241905.866 7  84188040.357 7                  20227558.469    20227557.270
  20227562.066                          43.100          43.800
 109624472.530 7  85421676.75545                  20860836.531
  20860841.352                          43.800          35.200
 118141057.651 6  92057969.56843                  22481494.859
  22481498.793                          37.700          21.300
 125835558.457 5  98053759.55142                  23945728.016
  23945731.230                          32.600          16.900
 117723734.898 6  91562930.666 6                  22061375.188    22061373.180
  22061378.996                          37.200          38.700
 124304030.108 5  96860322.35245  92824473.758 7  23654275.172
  23654283.578    23654284.055          33.600          30.400          43.400
 110578386.595 7  86165049.71045  82574831.649 8  21042377.734
  21042386.066    21042384.461          42.500          34.700          51.000
 123493572.549 5  96050576.392 5                  23167085.820    23167084.781
  23167091.664                          33.500          35.900
 113781963.653 7  88661275.07745                  21651979.781
  21651982.750                          43.000          33.500
 113204200.103 5  88047643.661 6                  21192045.789    21192044.859
  21192047.910                          34.700          36.400
 107776139.460 7  83825795.505 7                  20168808.594    20168808.219
  20168813.059                          43.700          44.900
 130114569.641 7                  97163495.712 7  24759980.047
                  24759985.555          43.800                          47.300
 128238184.958 7                  95762294.864 8  24402916.039
                  24402920.219          44.900                          48.400
 114216307.948 6                  85291417.307 7  21734639.070
                  21734643.449          38.700                          43.600
 138137908.648 6                 103154958.060 7  26286770.516
                  26286777.863          37.500                          42.300
 120402075.364 7                  89910669.566 8  22911750.320
                  22911755.086          45.500                          49.600
 20  8 16  0 30 44.0000000  0 22R01G17G08G03R18G06R17G28G11G19R02G30
                                G01R14G22R16R15E36E02E14E15E30
 123457496.277 5  96022644.130 5                  23095306.000    23095305.742
  23095311.953                          30.400          30.400
 118474758.439 6  92317899.27946                  22544963.938
  22544969.035                          39.000          38.200
 128163820.770 5                  95706751.725 6  24388765.531
                  24388773.891          30.500                          40.900
 112165883.819 7  87402090.88547  83760339.188 8  21344470.109
  21344478.207    21344478.777          42.800          45.800          50.900
 111240962.301 6  86520668.521 7                  20839154.766    20839153.344
  20839158.855                          40.800          42.700
 129416958.302 5 100844386.46844  96642535.975 6  24627219.984
  24627228.137    24627229.297          30.300          25.400          40.400
 108243109.445 7  84188976.478 7                  20227782.664    20227782.523
  20227787.016                          43.400          43.500
 109623178.202 7  85420668.17746                  20860590.250
  20860595.020                          43.900          36.000
 118143717.109 6  92060041.87443                  22482001.242
  22482004.852                          38.000          21.100
 125832808.871 5  98051617.05642                  23945204.406
  23945208.016                          32.600          17.800
 117721100.472 6  91560881.698 6                  22060880.750    22060878.930
  22060885.410                          37.200          38.800
 124306750.641 5  96862442.24645  92826505.332 7  23654793.523
  23654801.359    23654801.613          33.700          30.800          43.100
 110580691.925 7  86166846.07445  82576553.147 8  21042816.422
  21042824.738    21042823.086          42.800          34.900          50.900
 123498039.060 5  96054050.335 6                  23167923.914    23167922.969
  23167929.492                          33.800          36.000
 113782291.536 7  88661530.57745                  21652042.219
  21652045.242                          43.600          34.100
 113202407.355 5  88046249.316 6                  21191709.164    21191709.137
  21191712.207                          34.500          36.400
 107778472.606 7  83827610.156 7                  20169245.469    20169244.711
  20169249.527                          43.700          44.400
 130116321.333 7                  97164803.798 7  24760313.141
                  24760319.055          43.800                          47.200
 128240406.861 7                  95763954.076 8  24403338.703
                  24403343.137          44.800                          48.800
 114210441.034 6                  85287036.133 7  21733522.867
                  21733527.070          38.500                          43.600
 138136040.740 6                 103153563.224 7  26286414.969
                  26286422.262          37.900                          42.200
 120401618.070 7                  89910328.072 8  22911663.266
                  22911668.133          45.500                          49.200
 20  8 16  0 30 45.0000000  0 22R01G17G08G03R18G06R17G28G11G19R02G30
                                G01R14G22R16R15E36E02E14E15E30
 123458792.316 5  96023652.111 5                  23095549.625    23095548.230
  23095554.281                          30.400          30.400
 118472837.021 6  92316402.07046                  22544598.477
  22544603.621                          39.500          38.600
 128166332.810 5                  95708627.589 6  24389241.789
                  24389251.926          30.100                          40.900
 112164281.545 7  87400842.35447  83759142.684 8  21344165.234
  21344173.297    21344174.020          43.000          45.800          50.600
 111239731.286 6  86519711.058 7                  20838923.867    20838922.844
  20838928.234                          40.900          43.200
 129413887.705 5 100841993.80944  96640243.015 6  24626635.211
  24626643.805    24626644.754          30.500          25.600          41.000
 108244313.241 7  84189912.760 7                  20228008.813    20228007.285
  20228011.844                          43.600          43.800
 109621884.302 7  85419659.95145                  20860343.773
  20860348.746                          43.100          35.900
 118146376.701 6  92062114.28443                  22482507.820
  22482511.055                          37.700          21.700
 125830059.213 5  98049474.46742                  23944681.000
  23944684.754                          32.600          17.400
 117718466.547 6  91558833.090 6                  22060386.539    22060385.250
  22060392.051                          37.100          38.900
 124309471.303 5  96864562.24145  92828536.993 7  23655310.820
  23655319.273    23655319.414          33.700          30.700          43.200
 110582997.542 7  86168642.65745  82578274.873 8  21043254.883
  21043263.363    21043261.820          42.600          34.500          51.000
 123502505.686 5  96057524.370 5                  23168762.055    23168760.809
  23168767.387                          33.400          35.300
 113782620.036 7  88661786.55045                  21652104.500
  21652107.797                          43.500          34.000
 113200615.444 5  88044855.575 6                  21191375.359    21191373.414
  21191376.750                          34.600          36.200
 107780806.495 7  83829425.406 7                  20169682.086    20169681.391
  20169686.332                          43.700          44.400
 130118073.059 7                  97166111.904 7  24760646.641
                  24760652.211          43.600                          47.200
 128242629.075 7                  95765613.529 8  24403761.453
                  24403765.977          45.400                          48.900
 114204574.331 6                  85282655.146 7  21732406.438
                  21732410.691          38.900                          43.300
 138134172.994 6                 103152168.449 7  26286059.586
                  26286066.727          37.500                          42.300
 120401161.205 7                  89909986.921 8  22911576.500
                  22911581.195          45.400                          49.500
 20  8 16  0 30 46.0000000  0 22R01G17G08G03R18G06R17G28G11G19R02G30
                                G01R14G22R16R15E36E02E14E15E30
 123460089.212 5  96024660.775 5                  23095793.211    23095790.426
  23095796.863                          30.500          31.500
 118470915.679 6  92314904.91746                  22544233.180
  22544238.051                          39.700          38.700
 128168844.886 5                  95710503.547 6  24389720.016
                  24389729.996          30.800                          40.400
 112162679.858 7  87399594.29147  83757946.616 8  21343860.523
  21343868.402    21343869.203          42.900          46.000          50.800
 111238500.521 6  86518753.800 7                  20838693.414    20838692.246
  20838697.719                          41.100          43.100
 129410817.339 5 100839601.32644  96637950.208 6  24626051.594
  24626059.547    24626060.918          31.200          26.400          41.000
 108245517.192 7  84190849.166 7                  20228233.063    20228232.457
  20228236.816                          44.000          44.100
 109620590.860 7  85418652.07345                  20860097.977
  20860102.641                          42.600          35.600
 118149036.410 6  92064186.80043                  22483013.422
  22483017.297                          38.000          21.300
 125827309.615 5  98047331.94242                  23944158.031
  23944161.438                          32.900          17.800
 117715833.215 6  91556784.902 6                  22059892.531    22059891.512
  22059898.418                          37.300          38.700
 124312192.135 5  96866682.36345  92830568.772 7  23655829.594
  23655837.047    23655837.172          34.100          31.200          43.200
 110585303.498 7  86170439.51245  82579996.848 8  21043693.359
  21043702.246    21043700.664          42.900          34.400          50.900
 123506972.259 5  96060998.412 5                  23169601.063    23169598.746
  23169605.152                          33.100          35.700
 113782949.142 7  88662042.99645                  21652167.492
  21652170.367                          43.700          34.200
 113198824.275 5  88043462.451 6                  21191040.570    21191038.277
  21191041.410                          35.000          36.400
 107783141.132 7  83831241.240 7                  20170119.016    20170118.465
  20170123.188                          43.800          44.000
 130119824.848 7                  97167420.056 7  24760979.938
                  24760985.582          43.600                          46.600
 128244851.619 7                  95767273.226 8  24404184.586
                  24404188.965          45.700                          48.700
 114198707.895 6                  85278274.388 7  21731290.297
                  21731294.598          39.100                          43.500
 138132305.398 6                 103150773.814 7  26285704.328
                  26285711.438          37.500                          42.100
 120400704.812 7                  89909646.111 8  22911489.484
                  22911494.367          45.700                          49.600
 20  8 16  0 30 47.0000000  0 22R01G17G08G03R18G06R17G28G11G19R02G30
                                G01R14G22R16R15E36E02E14E15E30
 123461386.745 5  96025669.964 5                  23096034.375    23096033.879
  23096039.699                          30.800          30.700
 118468994.376 6  92313407.79846                  22543866.656
  22543872.344                          39.700          38.000
 128171357.168 5                  95712379.549 6  24390198.117
                  24390207.781          31.500                          40.400
 112161078.779 7  87398346.69847  83756751.012 8  21343555.836
  21343563.887    21343564.527          43.000          46.000          50.400
 111237270.008 6  86517796.717 7                  20838462.164    20838461.914
  20838467.277                          40.900          42.700
 129407747.171 4 100837208.98244  96635657.537 6  24625467.336
  24625475.434    24625476.949          29.600          25.700          40.900
 108246721.322 7  84191785.721 7                  20228458.578    20228457.430
  20228461.859                          43.900          44.100
 109619297.909 7  85417644.57745                  20859851.836
  20859856.617                          42.800          35.800
 118151696.253 6  92066259.41143                  22483518.430
  22483523.402                          37.900          21.500
 125824560.043 5  98045189.40142                  23943633.891
  23943638.176                          32.900          17.400
 117713200.350 6  91554737.139 6                  22059399.289    22059398.020
  22059405.020                          37.100          38.700
 124314913.174 5  96868802.66145  92832600.693 7  23656346.422
  23656354.797    23656355.152          33.400          30.200          43.200
 110587609.722 7  86172236.57145  82581719.041 8  21044132.344
  21044141.066    21044139.605          43.000          34.300          51.000
 123511439.021 5  96064472.556 5                  23170439.156    23170436.992
  23170443.184                          33.200          35.500
 113783278.883 7  88662299.93045                  21652230.086
  21652233.051                          43.700          34.200
 113197033.930 5  88042069.959 6                  21190704.742    21190703.266
  21190706.223                          34.600          36.700
 107785476.505 7  83833057.644 7                  20170555.891    20170555.457
  20170560.270                          43.900          43.700
 130121576.671 7                  97168728.236 7  24761313.313
                  24761319.074          43.700                          46.800
 128247074.493 7                  95768933.162 8  24404607.617
                  24404611.863          45.700                          48.500
 114192841.696 6                  85273893.789 7  21730174.086
                  21730178.250          39.300                          43.300
 138130437.972 6                 103149379.297 7  26285348.867
                  26285356.105          37.900                          42.000
 120400248.892 7                  89909305.633 8  22911402.703
                  22911407.688          45.800                          49.500
 20  8 16  0 30 48.0000000  0 22R01G17G08G03R18G06R17G28G11G19R02G30
                                G01R14G22R16R15E36E02E14E15E30
 123462685.12715  96026679.858 5                  23096278.063    23096277.289
  23096282.570                          31.000          30.500
 118467073.133 6  92311910.73246                  22543501.352
  22543506.738                          39.500          38.100
 128173869.497 5                  95714255.648 6  24390676.867
                  24390685.887          30.800                          40.500
 112159478.307 7  87397099.57847  83755555.844 8  21343251.109
  21343259.258    21343259.887          42.900          45.900          50.500
 111236039.765 6  86516839.873 7                  20838231.906    20838231.320
  20838236.887                          40.900          42.700
 129404677.185 4 100834816.78044  96633365.028 6  24624883.859
  24624891.320    24624892.715          29.600          26.400          41.400
 108247925.668 7  84192722.421 7                  20228682.898    20228682.594
  20228686.805                          43.600          44.000
 109618005.393 7  85416637.42645                  20859605.930
  20859610.555                          43.000          35.500
 118154356.269 6  92068332.14443                  22484025.133
  22484029.559                          37.800          21.500
 125821810.484 5  98043046.86742                  23943111.563
  23943114.898                          32.600          17.400
 117710568.086 6  91552689.827 6                  22058906.484    22058905.402
  22058911.609                          37.300          38.400
 124317634.310 5  96870923.01845  92834632.749 7  23656864.781
  23656872.652    23656872.883          33.200          30.400          43.900
 110589916.282 7  86174033.88545  82583441.468 8  21044571.281
  21044579.977    21044578.504          42.500          34.400          50.800
 123515905.847 5  96067946.750 5                  23171275.281    23171274.922
  23171281.020                          32.900          35.100
 113783609.269 7  88662557.37745                  21652293.117
  21652295.945                          43.800          33.800
 113195244.363 5  88040678.054 6                  21190367.977    21190367.738
  21190371.262                          34.700          36.800
 107787812.634 7  83834874.630 7                  20170992.875    20170992.660
  20170997.395                          43.700          44.000
 130123328.581 7                  97170036.478 7  24761646.414
                  24761652.246          43.900                          46.800
 128249297.718 7                  95770593.366 8  24405030.656
                  24405035.000          45.600                          48.900
 114186975.805 6                  85269513.393 7  21729057.602
                  21729061.887          39.100                          43.600
 138128570.687 6                 103147984.915 6  26284993.500
                  26285000.500          37.200                          41.500
 120399793.413 7                  89908965.522 8  22911315.953
                  22911320.926          46.000                          49.500
 20  8 16  0 30 49.0000000  0 22R01G17G08G03R18G06R17G28G11G19R02G30
                                G01R14G22R16R15E36E02E14E15E30
 123463984.324 5  96027690.292 5                  23096521.359    23096520.336
  23096525.797                          30.900          30.700
 118465151.925 6  92310413.68946                  22543135.609
  22543141.180                          39.700          38.700
 128176381.932 5                  95716131.814 6  24391155.578
                  24391163.773          30.500                          40.500
 112157878.397 7  87395852.89747  83754361.128 8  21342946.930
  21342954.875    21342955.484          42.600          46.000          50.400
 111234809.764 6  86515883.215 7                  20838001.039    20838000.820
  20838006.664                          40.600          42.700
 129401607.356 4 100832424.70944  96631072.594 6  24624298.828
  24624307.137    24624308.426          29.900          26.700          40.900
 108249130.168 7  84193659.276 7                  20228908.234    20228907.508
  20228911.938                          43.600          43.700
 109616713.327 7  85415630.61645                  20859360.195
  20859364.746                          43.400          35.400
 118157016.382 6  92070404.96843                  22484531.859
  22484535.766                          37.900          21.800
 125819060.979 5  98040904.42142                  23942587.609
  23942591.797                          32.800          17.800
 117707936.342 6  91550642.913 6                  22058413.000    22058411.891
  22058418.449                          37.300          38.100
 124320355.657 5  96873043.54945  92836664.895 7  23657382.172
  23657390.543    23657390.629          34.000          30.500          43.800
 110592223.138 7  86175831.43045  82585164.111 8  21045010.594
  21045018.941    21045017.609          42.900          34.700          50.900
 123520372.723 5  96071421.000 5                  23172113.703    23172112.598
  23172118.988                          33.400          35.500
 113783940.252 7  88662815.28745                  21652356.188
  21652358.906                          43.400          34.600
 113193455.511 5  88039286.787 6                  21190034.125    21190032.723
  21190036.457                          34.500          36.400
 107790149.474 7  83836692.182 7                  20171430.133    20171429.742
  20171434.793                          43.800          44.400
 130125080.510 7                  97171344.742 7  24761980.109
                  24761985.867          44.000                          46.500
 128251521.262 7                  95772253.792 8  24405453.727
                  24405458.055          45.400                          48.800
 114181110.126 6                  85265133.191 7  21727941.391
                  21727945.859          39.100                          43.700
 138126703.512 6                 103146590.608 6  26284638.180
                  26284645.230          37.600                          41.600
 120399338.398 7                  89908625.725 8  22911229.359
                  22911234.387          46.100                          49.500
 20  8 16  0 30 50.0000000  0 22R01G17G08G03R18G06R17G28G11G19R02G30
                                G01R14G22R16R15E36E02E14E15E30
 123465284.279 5  96028701.372 5                  23096764.711    23096762.969
  23096768.977                          30.100          30.800
 118463230.770 6  92308916.68346                  22542770.523
  22542775.508                          39.400          38.600
 128178894.502 5                  95718008.082 6  24391632.906
                  24391642.094          31.000                          40.500
 112156279.112 7  87394606.70347  83753166.841 8  21342642.703
  21342650.441    21342651.113          42.400          46.100          50.300
 111233580.024 6  86514926.762 7                  20837771.375    20837770.438
  20837776.254                          40.600          43.100
 129398537.740 5 100830032.80644  96628780.351 6  24623715.188
  24623722.996    24623724.250          30.100          26.000          40.600
 108250334.867 7  84194596.247 7                  20229134.672    20229132.664
  20229137.074                          43.800          43.500
 109615421.707 7  85414624.15345                  20859114.477
  20859118.965                          43.700          35.500
 118159676.649 6  92072477.87843                  22485036.930
  22485041.961                          37.700          21.800
 125816311.432 5  98038761.90543                  23942064.477
  23942068.539                          32.200          18.300
 117705305.136 6  91548596.459 6                  22057920.273    22057919.141
  22057925.520                          37.400          38.400
 124323077.147 5  96875164.19245  92838697.165 7  23657899.648
  23657908.262    23657908.766          34.600          31.000          44.100
 110594530.312 7  86177629.23145  82586887.002 8  21045449.555
  21045457.957    21045456.559          42.600          34.500          50.900
 123524839.705 5  96074895.276 5                  23172952.555    23172950.402
  23172956.988                          33.400          35.900
 113784271.862 7  88663073.68145                  21652418.914
  21652422.027                          43.400          34.800
 113191667.601 5  88037896.135 6                  21189698.203    21189698.012
  21189701.684                          34.500          36.500
 107792487.101 7  83838510.327 7                  20171868.297    20171867.453
  20171872.262                          44.100          44.600
 130126832.468 7                  97172653.035 7  24762313.406
                  24762319.176          43.700                          46.900
 128253745.132 7                  95773914.472 8  24405876.969
                  24405881.359          45.000                          48.600
 114175244.698 6                  85260753.185 7  21726824.953
                  21726829.469          39.000                          43.500
 138124836.523 6                 103145196.430 6  26284283.203
                  26284290.008          37.000                          41.600
 120398883.849 7                  89908286.287 8  22911143.086
                  22911147.871          46.000                          49.700
 20  8 16  0 30 51.0000000  0 22R01G17G08G03R18G06R17G28G11G19R02G30
                                G01R14G22R16R15E36E02E14E15E30
 123466584.958 5  96029713.054 5                  23097006.648    23097006.141
  23097012.254                          31.200          31.400
 118461309.691 6  92307419.73546                  22542404.445
  22542409.969                          39.300          38.800
 128181407.127 5                  95719884.403 6  24392111.094
                  24392120.277          31.200                          40.600
 112154680.439 7  87393360.98147  83751973.018 8  21342338.672
  21342346.211    21342346.859          42.500          45.900          50.800
 111232350.545 6  86513970.467 7                  20837540.344    20837540.098
  20837545.996                          40.600          43.100
 129395468.244 4 100827641.00044  96626488.234 6  24623129.898
  24623138.863    24623140.176          29.600          25.300          40.700
 108251539.732 7  84195533.368 7                  20229359.180    20229358.207
  20229362.359                          43.800          44.000
 109614130.565 7  85413618.08045                  20858868.891
  20858873.289                          43.800          35.800
 118162337.070 6  92074550.94943                  22485543.109
  22485548.285                          37.500          21.800
 125813561.899 5  98036619.42542                  23941541.086
  23941545.211                          32.000          17.400
 117702674.509 6  91546550.368 6                  22057428.055    22057426.367
  22057432.566                          37.100          38.800
 124325798.777 5  96877284.94145  92840729.565 7  23658417.961
  23658426.406    23658426.406          34.800          31.400          44.100
 110596837.800 7  86179427.27345  82588610.127 8  21045888.586
  21045897.090    21045895.676          42.500          34.600          50.500
 123529306.745 5  96078369.646 5                  23173789.898    23173788.184
  23173795.168                          33.900          35.500
 113784604.122 7  88663332.58745                  21652481.883
  21652485.270                          43.500          34.300
 113189880.406 5  88036506.113 6                  21189364.367    21189363.293
  21189367.051                          34.600          36.900
 107794825.498 7  83840329.068 7                  20172304.922    20172305.066
  20172309.871                          44.500          44.800
 130128584.530 7                  97173961.378 7  24762647.125
                  24762652.648          43.600                          46.700
 128255969.338 7                  95775575.404 8  24406300.125
                  24406304.676          45.100                          48.800
 114169379.547 6                  85256373.353 7  21725708.469
                  21725713.520          39.600                          43.500
 138122969.654 6                 103143802.351 7  26283927.977
                  26283934.543          37.100                          42.000
 120398429.743 7                  89907947.186 8  22911056.477
                  22911061.457          46.300                          49.500
 20  8 16  0 30 52.0000000  0 22R01G17G08G03R18G06R17G28G11G19R02G30
                                G01R14G22R16R15E36E02E14E15E30
 123467886.528 5  96030725.377 5                  23097250.781    23097249.461
  23097255.719                          31.400          30.600
 118459388.701 6  92305922.86246                  22542038.914
  22542044.461                          39.500          38.600
 128183919.831 5                  95721760.825 6  24392588.375
                  24392598.328          30.700                          40.100
 112153082.336 7  87392115.71347  83750779.651 8  21342034.422
  21342042.215    21342042.797          42.500          45.900          50.800
 111231121.301 6  86513014.420 7                  20837310.438    20837310.008
  20837315.715                          40.700          42.500
 129392399.032 5 100825249.39544  96624196.292 6  24622546.180
  24622554.672    24622555.730          30.500          26.800          40.600
 108252744.830 7  84196470.662 7                  20229583.688    20229582.891
  20229587.531                          43.600          43.700
 109612839.903 7  85412612.35845                  20858622.719
  20858627.742                          43.600          35.700
 118164997.629 6  92076624.11643                  22486049.297
  22486054.480                          37.300          22.300
 125810812.458 5  98034477.03142                  23941017.117
  23941022.074                          32.500          16.900
 117700044.412 6  91544504.740 6                  22056934.117    22056933.367
  22056939.809                          37.200          39.200
 124328520.630 5  96879405.85845  92842762.117 7  23658936.047
  23658944.398    23658944.496          34.600          30.500          43.600
 110599145.619 7  86181225.57645  82590333.499 8  21046327.789
  21046336.180    21046334.801          42.700          34.900          50.500
 123533773.812 5  96081844.042 5                  23174627.719    23174626.563
  23174633.125                          33.400          35.300
 113784937.031 7  88663592.00245                  21652545.609
  21652548.719                          43.200          34.100
 113188094.036 5  88035116.760 6                  21189029.922    21189029.098
  21189032.543                          34.500          36.900
 107797164.673 7  83842148.431 7                  20172742.523    20172742.910
  20172747.523                          44.700          44.700
 130130336.645 7                  97175269.782 7  24762980.313
                  24762986.148          43.800                          46.600
 128258193.901 7                  95777236.600 8  24406723.344
                  24406727.949          45.100                          48.900
 114163514.684 6                  85251993.761 7  21724592.938
                  21724597.559          39.400                          43.600
 138121103.001 6                 103142408.417 7  26283572.648
                  26283579.324          37.500                          42.100
 120397976.128 7                  89907608.457 8  22910970.281
                  22910975.234          46.000                          49.000
 20  8 16  0 30 53.0000000  0 22R01G17G08G03R18G06R17G28G11G19R02G30
                                G01R14G22R16R15E36E02E14E15E30
 123469188.819 5  96031738.264 5                  23097493.906    23097492.637
  23097499.328                          30.700          30.800
 118457467.698 6  92304425.97446                  22541673.313
  22541678.754                          39.500          38.400
 128186432.784 4                  95723637.287 6  24393067.477
                  24393076.445          29.900                          39.900
 112151484.835 7  87390870.90847  83749586.707 8  21341730.547
  21341738.148    21341738.789          42.900          46.000          50.500
 111229892.301 6  86512058.535 7                  20837080.422    20837079.961
  20837085.234                          40.900          42.700
 129389329.949 4 100822857.90244  96621904.459 6  24621963.617
  24621970.672    24621972.289          29.900          26.400          40.900
 108253950.071 7  84197408.067 7                  20229809.891    20229808.387
  20229812.648                          43.600          43.600
 109611549.666 7  85411606.98545                  20858377.422
  20858382.027                          43.300          35.800
 118167658.307 6  92078697.36343                  22486556.125
  22486560.844                          37.800          21.100
 125808062.953 5  98032334.53242                  23940493.867
  23940498.609                          32.500          16.900
 117697414.769 6  91542459.479 6                  22056442.016    22056440.469
  22056447.152                          37.600          38.900
 124331242.608 5  96881526.87345  92844794.751 7  23659455.133
  23659462.520    23659462.375          34.600          31.000          43.500
 110601453.715 7  86183024.08845  82592057.079 8  21046766.391
  21046775.426    21046774.105          42.800          34.500          50.500
 123538240.977 5  96085318.499 5                  23175466.055    23175464.848
  23175471.020                          33.200          35.500
 113785270.511 7  88663851.84845                  21652608.891
  21652612.320                          43.200          34.200
 113186308.523 5  88033727.966 6                  21188696.008    21188695.293
  21188698.277                          34.400          36.900
 107799504.542 7  83843968.334 7                  20173181.414    20173180.715
  20173185.473                          44.800          44.900
 130132088.780 7                  97176578.208 7  24763313.813
                  24763319.574          43.800                          46.700
 128260418.766 7                  95778898.031 8  24407146.828
                  24407151.320          45.100                          49.000
 114157650.064 6                  85247614.316 7  21723476.727
                  21723481.555          39.300                          43.600
 138119236.463 6                 103141014.541 6  26283217.453
                  26283224.113          37.400                          41.800
 120397522.959 7                  89907270.044 8  22910884.133
                  22910888.930          45.800                          49.500
 20  8 16  0 30 54.0000000  0 22R01G17G08G03R18G06R17G28G11G19R02G30
                                G01R14G22R16R15E36E02E14E15E30
 123470491.964 5  96032751.788 5                  23097738.477    23097736.539
  23097743.199                          30.800          31.200
 118455546.796 6  92302929.17046                  22541307.625
  22541313.176                          39.700          38.000
 128188945.715 4                  95725513.858 6  24393545.570
                  24393554.543          29.900                          40.000
 112149887.940 7  87389626.57047  83748394.224 8  21341426.570
  21341434.293    21341434.848          43.200          46.000          50.600
 111228663.594 6  86511102.858 7                  20836850.516    20836849.375
  20836855.094                          40.900          42.600
 129386261.114 5 100820466.59844  96619612.770 6  24621378.695
  24621386.625    24621387.902          30.300          26.400          40.300
 108255155.463 7  84198345.605 7                  20230035.531    20230033.852
  20230038.004                          43.800          43.600
 109610259.900 7  85410601.96945                  20858131.648
  20858136.617                          43.300          35.700
 118170319.110 6  92080770.70443                  22487062.094
  22487067.160                          37.400          21.100
 125805313.559 5  98030192.16642                  23939972.602
  23939975.160                          32.300          17.400
 117694785.641 6  91540414.648 6                  22055949.750    22055948.234
  22055954.566                          37.300          38.700
 124333964.712 5  96883648.00145  92846827.508 7  23659972.828
  23659980.535    23659980.488          34.600          30.700          43.700
 110603762.125 7  86184822.84445  82593780.894 8  21047205.789
  21047214.711    21047213.355          42.700          34.300          50.300
 123542708.229 5  96088793.031 5                  23176303.906    23176303.453
  23176309.004                          33.200          35.300
 113785604.671 7  88664112.23745                  21652672.719
  21652675.797                          43.400          34.800
 113184523.770 5  88032339.842 6                  21188361.859    21188360.801
  21188364.238                          34.900          37.000
 107801845.163 7  83845788.806 7                  20173619.773    20173618.672
  20173623.406                          44.700          44.900
 130133840.975 7                  97177886.662 7  24763646.961
                  24763652.844          43.800                          46.600
 128262643.964 7                  95780559.702 8  24407570.461
                  24407574.836          44.900                          48.800
 114151785.664 6                  85243235.087 7  21722360.836
                  21722365.742          38.900                          43.900
 138117370.067 6                 103139620.826 7  26282862.313
                  26282869.035          38.000                          42.400
 120397070.250 7                  89906931.984 8  22910797.984
                  22910802.777          46.100                          49.100
 20  8 16  0 30 55.0000000  0 22R01G17G08G03R18G06R17G28G11G19R02G30
                                G01R14G22R16R15E36E02E14E15E30
 123471795.773 5  96033765.852 5                  23097981.648    23097980.656
  23097987.141                          30.400          30.900
 118453625.958 6  92301432.41346                  22540942.391
  22540947.672                          39.800          38.400
 128191458.798 5                  95727390.533 6  24394025.555
                  24394032.824          30.300                          40.100
 112148291.657 7  87388382.72247  83747202.200 8  21341122.742
  21341130.512    21341131.066          43.200          46.000          50.700
 111227435.156 6  86510147.410 7                  20836620.750    20836619.137
  20836624.992                          40.700          42.800
 129383192.373 4 100818075.38444  96617321.199 6  24620794.242
  24620802.676    24620804.016          29.900          25.800          40.500
 108256361.107 7  84199283.327 7                  20230260.125    20230259.020
  20230263.391                          43.400          43.400
 109608970.581 7  85409597.30745                  20857886.445
  20857891.262                          43.500          35.800
 118172980.098 6  92082844.20143                  22487569.141
  22487573.441                          37.600          22.000
 125802564.181 5  98028049.80142                  23939448.750
  23939451.863                          31.500          17.400
 117692157.028 6  91538370.131 6                  22055456.742    22055455.203
  22055462.000                          37.600          39.100
 124336687.024 5  96885769.29345  92848860.419 7  23660491.258
  23660498.613    23660498.605          34.600          31.300          43.700
 110606070.862 7  86186621.85945  82595504.954 8  21047645.781
  21047654.199    21047652.801          42.700          34.900          50.700
 123547175.532 5  96092267.590 5                  23177143.570    23177141.465
  23177147.063                          33.000          35.500
 113785939.422 7  88664373.08545                  21652736.531
  21652739.625                          43.300          33.900
 113182739.785 5  88030952.303 6                  21188028.180    21188026.867
  21188030.297                          34.800          36.700
 107804186.561 7  83847609.899 7                  20174056.586    20174056.852
  20174061.551                          44.500          44.800
 130135593.264 7                  97179195.186 7  24763980.453
                  24763986.328          43.900                          46.800
 128264869.501 7                  95782221.632 8  24407993.805
                  24407998.449          44.800                          48.500
 114145921.579 6                  85238856.034 7  21721244.680
                  21721249.805          39.100                          43.800
 138115503.828 6                 103138227.207 7  26282506.758
                  26282513.625          37.500                          42.100
 120396618.020 7                  89906594.266 8  22910711.727
                  22910716.656          45.600                          49.200
 20  8 16  0 30 56.0000000  0 22R01G17G08G03R18G06R17G28G11G19R02G30
                                G01R14G22R16R15E36E02E14E15E30
 123473100.380 5  96034780.615 5                  23098226.680    23098225.145
  23098230.988                          31.000          31.400
 118451705.138 6  92299935.66946                  22540576.750
  22540582.160                          39.300          38.300
 128193971.999 5                  95729267.251 6  24394502.695
                  24394510.836          31.500                          39.800
 112146695.969 7  87387139.32547  83746010.613 8  21340818.758
  21340826.910    21340827.492          43.100          46.000          50.600
 111226206.933 6  86509192.128 7                  20836390.164    20836388.973
  20836394.707                          40.500          42.900
 129380123.836 5 100815684.32944  96615029.809 6  24620210.625
  24620218.656    24620220.422          30.700          26.500          40.600
 108257566.944 7  84200221.201 7                  20230485.336    20230484.414
  20230488.801                          43.300          43.800
 109607681.746 7  85408593.02146                  20857641.547
  20857645.992                          43.700          36.000
 118175641.218 6  92084917.80243                  22488075.078
  22488079.832                          37.900          22.200
 125799814.818 5  98025907.43242                  23938925.789
  23938928.523                          31.900          17.400
 117689528.929 6  91536326.065 6                  22054963.844    22054962.871
  22054969.316                          37.100          38.800
 124339409.470 5  96887890.68345  92850893.417 7  23661009.289
  23661016.633    23661016.699          34.600          31.100          43.500
 110608379.934 7  86188421.13645  82597229.242 8  21048085.219
  21048093.738    21048092.137          43.000          34.800          50.800
 123551642.960 5  96095742.220 6                  23177980.734    23177979.215
  23177985.129                          33.300          36.200
 113786274.825 7  88664634.44245                  21652800.117
  21652803.352                          42.900          34.200
 113180956.597 5  88029565.364 6                  21187692.602    21187692.973
  21187696.434                          34.900          36.700
 107806528.688 7  83849431.553 7                  20174496.234    20174495.250
  20174499.820                          44.500          44.600
 130137345.572 7                  97180503.726 7  24764313.906
                  24764319.664          44.200                          46.400
 128267095.377 7                  95783883.803 8  24408417.305
                  24408422.008          45.100                          48.500
 114140057.743 6                  85234477.192 7  21720129.125
                  21720133.902          39.000                          43.600
 138113637.776 6                 103136833.710 7  26282151.703
                  26282158.617          38.300                          42.200
 120396166.245 7                  89906256.916 8  22910625.867
                  22910630.598          46.000                          49.300
 20  8 16  0 30 57.0000000  0 22R01G17G08G03R18G06R17G28G11G19R02G30
                                G01R14G22R16R15E36E02E14E15E30
 123474405.865 5  96035795.967 5                  23098470.258    23098469.363
  23098475.266                          30.600          30.400
 118449784.431 6  92298439.01846                  22540211.234
  22540216.555                          39.200          38.400
 128196485.292 5                  95731144.043 6  24394980.727
                  24394988.887          30.500                          39.700
 112145100.889 7  87385896.40347  83744819.474 8  21340515.641
  21340523.273    21340523.945          43.100          46.200          50.800
 111224978.986 6  86508237.056 7                  20836160.656    20836159.141
  20836164.578                          40.800          42.600
 129377055.562 5 100813293.44944  96612738.545 6  24619627.820
  24619634.641    24619636.266          30.800          25.100          40.600
 108258772.966 7  84201159.219 7                  20230710.602    20230709.590
  20230714.059                          43.100          44.000
 109606393.379 7  85407589.09546                  20857396.211
  20857400.871                          43.700          36.100
 118178302.452 6  92086991.51943                  22488581.273
  22488586.340                          37.500          21.700
 125797065.449 5  98023765.05642                  23938401.656
  23938405.336                          32.200          17.400
 117686901.365 6  91534282.401 6                  22054470.211    22054470.660
  22054476.852                          37.000          39.200
 124342132.127 5  96890012.21945  92852926.561 7  23661526.914
  23661534.711    23661535.012          34.900          31.800          43.700
 110610689.289 7  86190220.63245  82598953.761 8  21048524.563
  21048533.113    21048531.648          43.000          35.200          50.900
 123556110.380 5  96099216.890 5                  23178818.008    23178817.004
  23178823.246                          33.500          35.400
 113786610.849 7  88664896.27345                  21652863.992
  21652867.328                          43.100          33.600
 113179174.206 5  88028179.088 6                  21187359.930    21187359.453
  21187362.762                          34.900          36.500
 107808871.596 7  83851253.806 7                  20174933.773    20174934.078
  20174938.285                          44.600          44.200
 130139097.971 7                  97181812.317 7  24764647.375
                  24764653.102          44.300                          46.500
 128269321.591 7                  95785546.237 8  24408841.055
                  24408845.691          45.200                          48.800
 114134194.147 6                  85230098.582 7  21719013.523
                  21719018.051          39.000                          43.400
 138111771.854 6                 103135440.339 7  26281797.133
                  26281803.477          37.800                          42.400
 120395714.945 7                  89905919.901 8  22910539.977
                  22910544.746          45.700                          49.300
 20  8 16  0 30 58.0000000  0 22R01G17G08G03R18G06R17G28G11G19R02G30
                                G01R14G22R16R15E36E02E14E15E30
 123475712.018 5  96036811.856 5                  23098715.734    23098713.703
  23098719.680                          30.900          30.800
 118447863.743 6  92296942.37946                  22539846.094
  22539851.098                          38.800          38.000
 128198998.589 5                  95733020.870 6  24395459.188
                  24395467.008          31.000                          39.900
 112143506.387 7  87384653.93347  83743628.769 8  21340212.055
  21340219.883    21340220.441          43.300          45.900          50.700
 111223751.287 6  86507282.165 7                  20835930.383    20835928.914
  20835934.551                          40.800          43.200
 129373987.439 5 100810902.69944  96610447.385 6  24619043.977
  24619050.695    24619052.473          31.200          26.000          40.200
 108259979.127 7  84202097.340 7                  20230936.336    20230935.066
  20230939.406                          43.500          43.600
 109605105.425 7  85406585.49746                  20857151.117
  20857155.840                          43.800          36.000
 118180963.804 6  92089065.28543                  22489087.859
  22489092.750                          37.200          21.700
 125794316.132 5  98021622.74342                  23937878.172
  23937882.238                          31.800          17.400
 117684274.316 6  91532239.134 6                  22053978.570    22053978.273
  22053984.574                          37.100          39.300
 124344854.926 5  96892133.88045  92854959.805 7  23662044.945
  23662052.676    23662053.563          35.400          30.300          43.800
 110612998.923 7  86192020.35345  82600678.498 8  21048963.930
  21048972.582    21048971.148          42.400          35.400          50.900
 123560577.950 5  96102691.670 5                  23179654.688    23179654.828
  23179661.309                          33.000          35.500
 113786947.500 7  88665158.59445                  21652928.117
  21652931.336                          43.400          33.900
 113177392.616 5  88026793.397 6                  21187026.875    21187025.871
  21187029.316                          34.700          36.800
 107811215.222 7  83853076.641 7                  20175372.398    20175372.648
  20175376.809                          44.700          44.500
 130140850.353 7                  97183120.947 7  24764980.695
                  24764986.691          44.000                          46.900
 128271548.099 7                  95787208.889 8  24409264.766
                  24409269.410          45.300                          48.900
 114128330.835 6                  85225720.102 7  21717897.742
                  21717902.258          39.700                          42.800
 138109906.073 6                 103134047.041 7  26281442.180
                  26281448.461          38.100                          42.200
 120395264.065 7                  89905583.211 8  22910454.078
                  22910458.965          45.700                          49.400
 20  8 16  0 30 59.0000000  0 22R01G17G08G03R18G06R17G28G11G19R02G30
                                G01R14G22R16R15E36E02E14E15E30
 123477018.980 5  96037828.425 5                  23098959.266    23098957.863
  23098964.109                          30.500          30.600
 118445943.123 6  92295445.79046                  22539480.648
  22539485.738                          39.300          38.000
 128201512.102 5                  95734897.818 6  24395937.461
                  24395945.203          31.000                          39.500
 112141912.506 7  87383411.94747  83742438.537 8  21339908.547
  21339916.563    21339917.117          43.200          46.000          50.600
 111222523.820 6  86506327.503 7                  20835699.344    20835698.703
  20835704.547                          40.800          42.700
 129370919.502 5 100808512.09644  96608156.407 6  24618459.773
  24618467.086    24618468.988          30.300          26.300          40.900
 108261185.490 7  84203035.620 7                  20231162.289    20231160.723
  20231164.754                          43.400          44.000
 109603817.994 7  85405582.30146                  20856906.258
  20856910.859                          43.800          36.300
 118183625.356 6  92091139.21443                  22489594.164
  22489599.328                          37.500          21.500
 125791566.842 5  98019480.47342                  23937355.188
  23937359.035                          31.300          16.900
 117681647.860 6  91530196.369 6                  22053486.266    22053485.785
  22053492.488                          37.400          39.100
 124347577.889 5  96894255.67445  92856993.184 7  23662562.734
  23662570.785    23662571.438          34.400          30.900          43.300
 110615308.930 7  86193820.34945  82602403.502 8  21049403.523
  21049412.203    21049410.699          42.900          35.500          50.800
 123565045.513 5  96106166.470 6                  23180492.195    23180493.195
  23180499.453                          32.700          36.000
 113787284.784 7  88665421.42145                  21652992.258
  21652995.652                          43.000          34.000
 113175611.829 5  88025408.375 6                  21186694.156    21186692.180
  21186696.094                          34.700          36.800
 107813559.646 7  83854900.072 7                  20175811.813    20175811.211
  20175815.613                          44.600          44.300
 130142602.856 7                  97184429.609 7  24765314.391
                  24765320.254          43.500                          47.300
 128273774.969 7                  95788871.829 8  24409688.336
                  24409693.191          45.500                          48.900
 114122467.802 6                  85221341.858 7  21716782.094
                  21716786.480          39.700                          43.100
 138108040.470 6                 103132653.895 7  26281086.875
                  26281093.320          38.600                          42.000
 120394813.682 7                  89905246.878 8  22910368.445
                  22910373.320          45.900                          49.200
 20  8 16  0 31  0.0000000  0 22R01G17G08G03R18G06R17G28G11G19R02G30
                                G01R14G22R16R15E36E02E14E15E30
 123478326.770 5  96038845.590 5                  23099203.805    23099202.344
  23099208.770                          30.400          31.200
 118444022.565 6  92293949.25046                  22539115.211
  22539120.375                          39.000          38.300
 128204025.596 5                  95736774.809 6  24396415.500
                  24396423.426          31.000                          39.800
 112140319.198 7  87382170.41047  83741248.729 8  21339605.578
  21339613.313    21339614.008          43.300          45.900          50.600
 111221296.630 6  86505373.012 7                  20835470.031    20835469.035
  20835474.449                          40.600          42.800
 129367851.840 5 100806121.71144  96605865.560 6  24617874.891
  24617883.348    24617885.547          30.500          26.000          41.100
 108262392.039 7  84203974.044 7                  20231386.977    20231386.016
  20231390.352                          43.200          43.900
 109602530.988 7  85404579.43946                  20856661.414
  20856665.879                          43.700          36.000
 118186287.009 6  92093213.22543                  22490100.602
  22490106.023                          38.100          21.800
 125788817.515 5  98017338.10442                  23936831.844
  23936835.867                          31.600          16.900
 117679021.918 6  91528153.952 6                  22052995.453    22052994.008
  22053000.313                          37.300          39.600
 124350300.996 5  96896377.58545  92859026.681 7  23663081.375
  23663089.148    23663089.672          34.800          31.700          43.600
 110617619.191 7  86195620.55745  82604128.703 8  21049843.125
  21049851.699    21049850.328          43.000          34.900          50.900
 123569513.203 5  96109641.292 5                  23181330.430    23181330.934
  23181337.770                          33.200          35.900
 113787622.711 7  88665684.73045                  21653056.539
  21653059.777                          42.500          34.200
 113173831.909 5  88024023.938 6                  21186359.992    21186358.984
  21186362.891                          34.800          36.800
 107815904.810 7  83856724.089 7                  20176249.813    20176250.301
  20176254.398                          44.700          44.700
 130144355.378 7                  97185738.313 7  24765647.945
                  24765653.613          43.400                          47.300
 128276002.168 7                  95790534.980 8  24410112.234
                  24410117.031          45.300                          49.000
 114116604.985 6                  85216963.784 7  21715666.383
                  21715670.875          39.400                          43.200
 138106174.987 6                 103131260.856 6  26280731.633
                  26280738.328          38.600                          41.900
 120394363.768 7                  89904910.896 8  22910282.773
                  22910287.730          46.100                          49.400
 20  8 16  0 31  1.0000000  0 22R01G17G08G03R18G06R17G28G11G19R02G30
                                G01R14G22R16R15E36E02E14E15E30
 123479635.413 5  96039863.391 5                  23099448.570    23099447.230
  23099453.523                          30.600          31.200
 118442102.092 6  92292452.77846                  22538749.555
  22538754.773                          39.200          37.900
 128206539.310 5                  95738651.915 6  24396893.781
                  24396901.574          31.000                          39.900
 112138726.533 7  87380929.37247  83740059.404 8  21339302.398
  21339310.277    21339310.910          43.100          45.800          51.000
 111220069.755 6  86504418.772 7                  20835240.148    20835238.859
  20835244.648                          40.600          42.900
 129364784.267 5 100803731.38844  96603574.873 6  24617293.227
  24617299.773    24617301.145          30.500          25.100          40.900
 108263598.800 7  84204912.655 7                  20231612.250    20231611.793
  20231615.738                          43.400          44.300
 109601244.485 7  85403576.97746                  20856416.266
  20856420.977                          43.600          36.700
 118188948.818 6  92095287.35243                  22490607.977
  22490612.656                          37.800          22.000
 125786068.331 5  98015195.89342                  23936308.836
  23936312.664                          32.200          16.900
 117676396.605 6  91526112.016 6                  22052503.023    22052501.723
  22052508.457                          37.100          39.400
 124353024.320 5  96898499.65145  92861060.324 7  23663599.555
  23663607.492    23663607.961          34.700          31.400          43.800
 110619929.865 7  86197421.08045  82605854.180 8  21050282.727
  21050291.445    21050290.012          43.000          34.200          51.100
 123573980.942 5  96113116.236 5                  23182169.523    23182169.164
  23182175.977                          32.800          35.600
 113787961.282 7  88665948.56145                  21653121.391
  21653124.156                          42.300          34.100
 113172052.812 5  88022640.217 6                  21186025.977    21186025.832
  21186029.941                          34.400          36.500
 107818250.759 7  83858548.717 7                  20176689.008    20176689.129
  20176693.297                          45.000          44.500
 130146108.000 7                  97187047.078 7  24765981.711
                  24765987.301          43.000                          47.000
 128278229.749 7                  95792198.442 8  24410536.266
                  24410540.949          45.300                          48.800
 114110742.490 6                  85212585.961 7  21714550.664
                  21714555.156          39.000                          43.700
 138104309.700 6                 103129867.946 7  26280376.508
                  26280383.344          38.000                          42.000
 120393914.333 7                  89904575.287 8  22910197.352
                  22910202.355          45.900                          49.300
 20  8 16  0 31  2.0000000  0 22R01G17G08G03R18G06R17G28G11G19R02G30
                                G01R14G22R16R15E36E02E14E15E30
 123480944.706 5  96040881.750 5                  23099692.313    23099691.977
  23099698.391                          30.100          31.100
 118440181.614 6  92290956.30846                  22538384.195
  22538389.574                          39.000          38.300
 128209053.024 5                  95740529.057 6  24397373.023
                  24397380.199          31.200                          40.100
 112137134.429 7  87379688.77247  83738870.493 8  21338999.516
  21339007.156    21339007.992          42.800          45.900          50.800
 111218843.104 6  86503464.709 7                  20835010.414    20835009.188
  20835014.906                          40.700          43.000
 129361716.879 5 100801341.23144  96601284.309 6  24616708.609
  24616716.238    24616717.906          30.500          26.100          40.900
 108264805.725 7  84205851.368 7                  20231837.844    20231837.191
  20231841.352                          43.500          44.100
 109599958.390 7  85402574.81846                  20856171.750
  20856176.305                          43.700          36.100
 118191610.760 6  92097361.59243                  22491114.031
  22491119.121                          37.700          21.500
 125783319.018 5  98013053.57642                  23935785.859
  23935789.543                          31.800          17.400
 117673771.677 6  91524070.456 6                  22052010.523    22052009.770
  22052016.570                          37.100          39.700
 124355748.21015  96900622.28255  92863094.068 7  23664117.477
  23664125.906    23664125.988          34.200          31.500          43.500
 110622240.747 7  86199221.77045  82607579.856 8  21050722.641
  21050731.289    21050729.813          42.600          34.000          51.200
 123578448.773 5  96116591.179 5                  23183007.820    23183007.578
  23183014.063                          32.900          35.800
 113788300.426 7  88666212.83645                  21653185.891
  21653188.688                          42.600          34.200
 113170274.420 5  88021256.990 5                  21185692.328    21185692.934
  21185696.977                          34.300          35.900
 107820597.408 7  83860373.884 7                  20177128.008    20177128.355
  20177132.504                          45.100          44.600
 130147860.614 7                  97188355.860 7  24766314.852
                  24766320.684          42.900                          47.400
 128280457.595 7                  95793862.092 8  24410960.109
                  24410964.926          45.300                          49.100
 114104880.213 6                  85208208.278 7  21713435.625
                  21713439.793          39.400                          43.700
 138102444.490 6                 103128475.109 7  26280021.695
                  26280028.359          38.400                          42.400
 120393465.304 7                  89904239.974 8  22910111.930
                  22910116.793          45.800                          49.200
 20  8 16  0 31  3.0000000  0 22R01G17G08G03R18G06R17G28G11G19R02G30
                                G01R14G22R16R15E36E02E14E15E30
 123482254.922 5  96041900.775 5                  23099938.594    23099937.477
  23099943.320                          30.800          30.400
 118438261.255 6  92289459.92046                  22538018.430
  22538024.082                          38.800          38.500
 128211566.987 5                  95742406.325 6  24397850.820
                  24397858.586          31.300                          39.700
 112135542.964 7  87378448.67347  83737682.069 8  21338696.297
  21338704.484    21338705.152          42.700          45.900          51.000
 111217616.751 6  86502510.879 7                  20834780.555    20834779.859
  20834785.191                          40.800          43.300
 129358649.746 5 100798951.26744  96598993.903 6  24616124.391
  24616132.492    24616134.137          30.500          24.400          41.100
 108266012.889 7  84206790.261 7                  20232063.914    20232062.602
  20232066.859                          43.600          44.100
 109598672.811 7  85401573.07146                  20855926.977
  20855931.730                          43.600          36.600
 118194272.862 6  92099435.95343                  22491621.172
  22491625.734                          37.200          21.500
 125780569.878 5  98010911.37542                  23935262.953
  23935266.500                          31.500          17.400
 117671147.398 6  91522029.326 6                  22051519.266    22051518.090
  22051524.762                          36.900          39.600
 124358471.927 5  96902744.65744  92865127.955 7  23664636.133
  23664644.238    23664644.535          34.000          29.700          43.600
 110624552.010 7  86201022.74545  82609305.794 8  21051162.844
  21051171.094    21051169.660          42.900          34.400          51.100
 123582916.632 5  96120066.183 5                  23183845.367    23183845.637
  23183852.344                          32.800          35.900
 113788640.270 7  88666477.64345                  21653250.297
  21653253.414                          43.000          34.000
 113168496.894 5  88019874.469 6                  21185360.211    21185360.090
  21185364.324                          33.900          36.200
 107822944.867 7  83862199.695 7                  20177567.859    20177567.563
  20177571.754                          45.100          44.900
 130149613.344 7                  97189664.716 7  24766648.578
                  24766654.379          43.200                          47.000
 128282685.824 7                  95795526.023 8  24411384.266
                  24411389.043          45.300                          49.000
 114099018.255 6                  85203830.850 7  21712319.992
                  21712324.395          39.100                          43.400
 138100579.516 6                 103127082.415 7  26279666.406
                  26279673.656          37.600                          42.100
 120393016.786 7                  89903905.058 8  22910026.391
                  22910031.410          46.000                          49.400
 20  8 16  0 31  4.0000000  0 22R01G17G08G03R18G06R17G28G11G19R02G30
                                G01R14G22R16R15E36E02E14E15E30
 123483565.839 5  96042920.369 5                  23100183.164    23100182.523
  23100188.410                          30.700          30.900
 118436340.957 6  92287963.58146                  22537653.578
  22537658.820                          38.800          38.300
 128214080.958 5                  95744283.663 6  24398329.852
                  24398336.855          31.200                          39.400
 112133952.125 7  87377209.06047  83736494.094 8  21338393.969
  21338401.668    21338402.383          43.100          45.800          50.500
 111216390.643 6  86501557.251 7                  20834550.844    20834550.086
  20834555.543                          40.500          42.800
 129355582.755 4 100796561.38844  96596703.638 6  24615540.781
  24615548.895    24615550.844          29.900          24.100          41.300
 108267220.224 7  84207729.320 7                  20232289.914    20232288.535
  20232292.496                          43.700          43.700
 109597387.693 7  85400571.67746                  20855682.883
  20855687.082                          43.500          36.100
 118196935.119 6  92101510.46643                  22492127.555
  22492132.078                          37.500          21.800
 125777820.733 5  98008769.21642                  23934738.625
  23934743.563                          31.000          17.800
 117668523.602 6  91519988.596 6                  22051027.664    22051026.227
  22051033.176                          37.400          39.300
 124361195.675 5  96904867.06044  92867161.946 7  23665153.586
  23665162.648    23665162.816          33.700          29.700          43.800
 110626863.577 7  86202823.97545  82611031.973 8  21051601.906
  21051610.996    21051609.430          42.800          34.600          51.100
 123587384.647 5  96123541.306 5                  23184682.938    23184683.852
  23184690.500                          33.300          35.800
 113788980.718 7  88666742.93445                  21653315.195
  21653318.320                          43.000          33.500
 113166720.152 5  88018492.617 6                  21185026.914    21185027.375
  21185031.707                          34.000          36.300
 107825293.082 7  83864026.075 7                  20178007.648    20178007.105
  20178011.309                          44.800          44.000
 130151366.137 7                  97190973.625 7  24766982.305
                  24766988.020          43.200                          46.900
 128284914.388 7                  95797190.220 8  24411808.180
                  24411813.063          45.300                          48.800
 114093156.522 6                  85199453.595 7  21711204.227
                  21711208.918          39.100                          43.700
 138098714.684 6                 103125689.863 7  26279311.805
                  26279318.605          37.900                          42.300
 120392568.750 7                  89903570.481 8  22909941.195
                  22909946.043          45.400                          49.300
 20  8 16  0 31  5.0000000  0 22R01G17G08G03R18G06R17G28G11G19R02G30
                                G01R14G22R16R15E36E02E14E15E30
 123484877.524 4  96043940.566 5                  23100427.820    23100427.809
  23100433.797                          29.800          30.400
 118434420.696 6  92286467.28746                  22537287.508
  22537293.445                          39.000          37.900
 128216595.012 5                  95746161.076 6  24398807.742
                  24398815.250          32.400                          39.500
 112132361.841 7  87375969.87947  83735306.560 8  21338091.547
  21338099.063    21338099.809          43.300          46.000          50.600
 111215164.755 6  86500603.779 7                  20834321.266    20834320.684
  20834325.801                          40.600          43.000
 129352516.015 5 100794171.72344  96594413.518 6  24614956.742
  24614965.277    24614967.324          30.500          26.100          41.400
 108268427.703 7  84208668.474 7                  20232514.719    20232514.195
  20232518.371                          43.600          43.700
 109596103.010 7  85399570.62445                  20855438.344
  20855442.773                          43.400          35.700
 118199597.518 6  92103585.05543                  22492634.391
  22492638.707                          37.400          22.200
 125775071.530 5  98006626.93543                  23934215.992
  23934220.387                          31.000          18.600
 117665900.299 6  91517948.256 6                  22050536.359    22050534.453
  22050541.445                          37.300          39.300
 124363919.611 5  96906989.60144  92869196.058 7  23665672.664
  23665680.891    23665681.086          34.300          29.600          43.700
 110629175.446 7  86204625.42945  82612758.354 8  21052042.227
  21052050.879    21052049.445          42.900          34.400          50.900
 123591852.629 5  96127016.418 5                  23185522.680    23185521.879
  23185528.691                          32.600          35.800
 113789321.800 7  88667008.71545                  21653380.422
  21653383.199                          42.700          33.800
 113164944.260 5  88017111.304 6                  21184694.758    21184695.047
  21184699.277                          34.300          36.500
 107827642.005 7  83865853.020 7                  20178446.781    20178446.727
  20178450.859                          44.500          44.200
 130153118.948 7                  97192282.521 7  24767315.570
                  24767321.520          43.200                          46.900
 128287143.258 7                  95798854.623 8  24412232.383
                  24412237.203          44.600                          48.800
 114087295.043 6                  85195076.527 7  21710088.930
                  21710093.563          38.900                          43.700
 138096849.987 6                 103124297.394 7  26278956.922
                  26278964.117          37.300                          42.600
 120392121.159 7                  89903236.231 8  22909856.141
                  22909860.887          46.000                          49.300
 20  8 16  0 31  6.0000000  0 22R01G17G08G03R18G06R17G28G11G19R02G30
                                G01R14G22R16R15E36E02E14E15E30
 123486190.018 5  96044961.368 5                  23100674.375    23100673.426
  23100679.266                          30.100          30.300
 118432500.470 6  92284971.00246                  22536922.906
  22536927.973                          39.000          38.400
 128219109.193 5                  95748038.517 6  24399286.930
                  24399293.855          31.000                          39.900
 112130772.141 7  87374731.15147  83734119.441 8  21337789.180
  21337796.621    21337797.285          43.300          46.100          50.400
 111213939.099 6  86499650.479 7                  20834091.500    20834090.910
  20834096.254                          40.900          43.100
 129349449.409 5 100791782.15844  96592123.532 6  24614373.766
  24614381.813    24614383.676          30.300          25.000          40.900
 108269635.356 7  84209607.755 7                  20232740.367    20232739.699
  20232744.035                          43.700          44.200
 109594818.813 7  85398569.95045                  20855193.594
  20855198.309                          42.900          35.800
 118202260.018 6  92105659.72843                  22493140.297
  22493145.266                          37.000          22.500
 125772322.413 5  98004484.81442                  23933692.383
  23933697.156                          31.500          17.800
 117663277.525 6  91515908.308 6                  22050044.836    22050042.883
  22050049.805                          37.500          39.000
 124366643.737 5  96909112.28844  92871230.291 7  23666190.539
  23666199.414    23666199.301          33.900          29.600          43.800
 110631487.600 7  86206427.10445  82614484.970 8  21052481.750
  21052490.820    21052489.473          42.700          34.400          51.000
 123596320.732 5  96130491.598 5                  23186361.086    23186360.082
  23186366.898                          32.600          35.700
 113789663.492 7  88667274.96945                  21653445.305
  21653448.137                          42.600          34.000
 113163169.108 5  88015730.658 6                  21184362.125    21184362.648
  21184367.074                          34.100          36.400
 107829991.669 7  83867680.551 7                  20178885.602    20178886.477
  20178890.527                          44.600          44.200
 130154871.813 7                  97193591.483 7  24767649.055
                  24767654.895          43.400                          46.700
 128289372.476 7                  95800519.293 8  24412656.547
                  24412661.484          44.900                          48.800
 114081433.858 6                  85190699.642 7  21708973.680
                  21708978.199          38.900                          43.200
 138094985.437 6                 103122905.034 7  26278602.516
                  26278608.895          37.600                          42.200
 120391674.003 7                  89902902.335 8  22909771.008
                  22909775.820          45.700                          49.400
 20  8 16  0 31  7.0000000  0 22R01G17G08G03R18G06R17G28G11G19R02G30
                                G01R14G22R16R15E36E02E14E15E30
 123487503.270 5  96045982.787 5                  23100920.273    23100919.078
  23100924.859                          30.300          30.600
 118430580.338 6  92283474.79646                  22536556.906
  22536562.508                          39.200          38.700
 128221623.523 5                  95749916.063 6  24399765.242
                  24399772.527          31.200                          39.900
 112129183.106 7  87373492.94147  83732932.818 8  21337486.219
  21337494.172    21337494.953          43.300          46.000          50.300
 111212713.739 6  86498697.421 7                  20833862.539    20833861.457
  20833866.781                          40.900          43.200
 129346382.985 5 100789392.73744  96589833.686 6  24613790.563
  24613798.074    24613800.059          30.300          24.900          41.000
 108270843.252 7  84210547.212 7                  20232966.250    20232965.508
  20232969.773                          43.400          44.400
 109593535.053 7  85397569.63246                  20854949.891
  20854954.016                          43.300          36.200
 118204922.660 6  92107734.53043                  22493647.492
  22493651.941                          37.300          22.000
 125769573.297 5  98002342.63642                  23933169.734
  23933174.398                          30.500          16.900
 117660655.293 6  91513868.805 6                  22049552.891    22049551.586
  22049558.266                          37.600          39.000
 124369367.544 5  96911234.62645  92873264.671 7  23666708.398
  23666718.008    23666717.754          34.200          30.000          43.700
 110633800.093 7  86208229.05345  82616211.838 8  21052922.172
  21052931.059    21052929.402          42.600          34.500          50.900
 123600788.935 5  96133966.833 6                  23187198.961    23187199.031
  23187205.094                          32.100          36.100
 113790005.853 7  88667541.74045                  21653510.461
  21653513.398                          42.900          34.000
 113161394.737 5  88014350.606 6                  21184030.438    21184030.773
  21184034.918                          33.800          36.700
 107832342.135 7  83869508.677 7                  20179325.594    20179326.148
  20179330.352                          44.300          44.300
 130156624.732 7                  97194900.500 7  24767982.750
                  24767988.625          43.500                          46.700
 128291602.034 7                  95802184.220 8  24413080.836
                  24413085.871          45.200                          48.600
 114075572.938 6                  85186322.988 7  21707858.055
                  21707862.922          38.900                          43.500
 138093121.055 6                 103121512.807 6  26278247.578
                  26278254.168          37.900                          41.900
 120391227.350 7                  89902568.780 8  22909685.703
                  22909690.887          46.000                          49.600
 20  8 16  0 31  8.0000000  0 22R01G17G08G03R18G06R17G28G11G19R02G30
                                G01R14G22R16R15E36E02E14E15E30
 123488817.35015  96047004.884 5                  23101164.352    23101164.871
  23101170.680                          30.100          30.700
 118428660.207 6  92281978.59346                  22536191.531
  22536197.211                          39.200          38.400
 128224137.841 5                  95751793.681 6  24400243.859
                  24400250.836          31.300                          39.900
 112127594.620 7  87372255.16347  83731746.618 8  21337184.422
  21337191.973    21337192.656          43.200          46.400          50.500
 111211488.628 6  86497744.539 7                  20833631.930    20833632.051
  20833637.211                          40.300          42.700
 129343316.785 5 100787003.50644  96587543.953 6  24613206.617
  24613214.586    24613216.758          30.300          25.900          41.100
 108272051.306 7  84211486.816 7                  20233192.383    20233191.285
  20233195.523                          43.700          44.000
 109592251.774 7  85396569.66946                  20854705.367
  20854709.906                          43.400          36.000
 118207585.458 6  92109809.42043                  22494154.195
  22494158.617                          37.200          21.700
 125766824.279 5  98000200.57743                  23932646.227
  23932651.340                          30.500          18.300
 117658033.589 6  91511829.716 6                  22049062.648    22049060.293
  22049066.867                          37.700          39.100
 124372091.942 5  96913357.53345  92875299.142 7  23667227.336
  23667236.398    23667236.262          34.000          30.400          43.600
 110636112.880 7  86210031.22445  82617938.913 8  21053362.492
  21053371.328    21053369.574          43.000          34.900          50.900
 123605257.146 5  96137442.133 6                  23188036.711    23188036.676
  23188043.355                          31.900          36.100
 113790348.807 7  88667808.97745                  21653575.633
  21653578.590                          42.900          34.600
 113159621.142 5  88012971.149 6                  21183699.375    21183698.844
  21183702.746                          34.300          36.400
 107834693.340 7  83871337.404 7                  20179765.961    20179766.223
  20179770.367                          44.400          44.200
 130158377.709 7                  97196209.535 7  24768315.961
                  24768322.113          43.200                          46.800
 128293831.896 7                  95803849.381 8  24413505.211
                  24413510.086          45.300                          48.900
 114069712.268 6                  85181946.495 7  21706742.969
                  21706747.750          38.900                          43.700
 138091256.821 6                 103120120.680 7  26277892.570
                  26277899.547          37.200                          42.300
 120390781.128 7                  89902235.566 8  22909601.023
                  22909605.965          46.000                          49.600
 20  8 16  0 31  9.0000000  0 22R01G17G08G03R18G06R17G28G11G19R02G30
                                G01R14G22R16R15E36E02E14E15E30
 123490132.185 4  96048027.508 5                  23101409.742    23101410.586
  23101416.531                          29.700          31.300
 118426740.163 6  92280482.45646                  22535826.500
  22535831.785                          39.200          38.300
 128226652.277 5                  95753671.341 6  24400722.000
                  24400729.613          31.200                          39.900
 112126006.754 7  87371017.85647  83730560.867 8  21336881.891
  21336889.699    21336890.402          43.100          46.100          50.500
 111210263.795 6  86496791.885 7                  20833403.664    20833402.703
  20833407.871                          40.100          42.700
 129340250.777 5 100784614.39844  96585254.410 6  24612622.188
  24612631.176    24612633.160          31.000          24.700          40.900
 108273259.580 7  84212426.588 7                  20233417.836    20233417.137
  20233421.238                          44.100          44.000
 109590968.928 7  85395570.05245                  20854461.750
  20854465.762                          43.800          35.500
 118210248.356 6  92111884.39043                  22494660.867
  22494665.410                          37.300          20.900
 125764075.211 5  97998058.41342                  23932122.906
  23932128.234                          30.300          16.900
 117655412.416 6  91509791.026 6                  22048570.672    22048569.164
  22048575.695                          37.700          39.300
 124374816.556 5  96915480.60445  92877333.746 7  23667745.414
  23667754.828    23667754.578          33.700          30.000          43.500
 110638425.998 7  86211833.65845  82619666.243 8  21053802.313
  21053811.363    21053809.793          42.900          34.400          51.100
 123609725.473 5  96140917.483 5                  23188876.023    23188875.063
  23188881.648                          32.200          35.900
 113790692.406 7  88668076.71745                  21653641.078
  21653644.066                          43.000          34.800
 113157848.369 5  88011592.337 6                  21183367.500    21183366.750
  21183370.941                          34.500          36.600
 107837045.302 7  83873166.700 7                  20180205.492    20180206.172
  20180210.602                          44.500          44.100
 130160130.740 7                  97197518.616 7  24768649.961
                  24768655.758          43.100                          47.000
 128296062.108 7                  95805514.808 8  24413929.555
                  24413934.449          45.300                          48.700
 114063851.860 6                  85177570.242 7  21705627.805
                  21705632.258          38.900                          43.200
 138089392.739 6                 103118728.670 7  26277538.047
                  26277544.633          37.900                          42.400
 120390335.387 7                  89901902.705 8  22909516.203
                  22909521.008          46.100                          49.400
 20  8 16  0 31 10.0000000  0 22R01G17G08G03R18G06R17G28G11G19R02G30
                                G01R14G22R16R15E36E02E14E15E30
 123491447.818 5  96049050.796 5                  23101657.594    23101656.785
  23101662.727                          30.100          31.100
 118424820.171 6  92278986.35746                  22535461.078
  22535466.402                          39.100          38.200
 128229166.851 5                  95755549.091 6  24401200.641
                  24401208.293          30.800                          40.100
 112124419.476 7  87369781.01647  83729375.575 8  21336579.789
  21336587.652    21336588.434          43.200          46.100          50.500
 111209039.182 6  86495839.427 7                  20833173.734    20833173.418
  20833178.406                          40.200          42.600
 129337184.927 5 100782225.42944  96582964.982 6  24612038.883
  24612047.965    24612049.863          30.100          25.100          40.900
 108274468.008 7  84213366.472 7                  20233643.156    20233643.063
  20233646.941                          43.800          44.200
 109589686.564 7  85394570.80245                  20854217.148
  20854221.668                          43.400          35.800
 118212911.441 6  92113959.53343                  22495168.664
  22495172.105                          37.600          20.600
 125761326.190 5  97995916.32042                  23931600.305
  23931605.176                          30.500          17.400
 117652791.751 6  91507752.726 6                  22048079.422    22048078.000
  22048084.676                          37.200          38.600
 124377541.316 5  96917603.78544  92879368.472 7  23668263.797
  23668273.348    23668273.363          33.400          29.400          43.500
 110640739.404 7  86213636.30445  82621393.778 8  21054242.641
  21054251.469    21054249.938          42.500          34.400          51.100
 123614193.837 5  96144392.885 6                  23189715.070    23189714.020
  23189719.867                          32.700          36.000
 113791036.635 7  88668344.95145                  21653706.805
  21653709.602                          42.700          34.100
 113156076.420 5  88010214.135 5                  21183035.570    21183035.223
  21183039.168                          34.100          35.800
 107839397.983 7  83874996.566 7                  20180646.695    20180646.383
  20180650.973                          44.600          44.400
 130161883.841 7                  97198827.734 7  24768983.555
                  24768989.574          43.200                          47.400
 128298292.649 7                  95807180.463 8  24414353.938
                  24414359.020          45.100                          48.800
 114057991.725 6                  85173194.151 7  21704512.727
                  21704517.195          39.100                          43.500
 138087528.803 6                 103117336.771 6  26277183.766
                  26277189.824          37.600                          41.900
 120389890.111 7                  89901570.192 8  22909431.594
                  22909436.391          45.600                          49.700
 20  8 16  0 31 11.0000000  0 22R01G17G08G03R18G06R17G28G11G19R02G30
                                G01R14G22R16R15E36E02E14E15E30
 123492764.310 5  96050074.678 5                  23101903.352    23101902.723
  23101909.031                          30.100          31.200
 118422900.271 6  92277490.33346                  22535095.992
  22535101.164                          39.600          38.700
 128231681.559 5                  95757426.946 6  24401679.023
                  24401686.699          31.200                          40.200
 112122832.831 7  87368544.67447  83728190.730 8  21336277.984
  21336285.730    21336286.418          42.800          46.200          50.700
 111207814.866 6  86494887.187 7                  20832944.711    20832944.148
  20832949.063                          40.300          42.700
 129334119.310 5 100779836.62244  96580675.719 6  24611456.094
  24611464.590    24611466.352          31.200          24.700          40.500
 108275676.626 7  84214306.517 7                  20233869.492    20233868.723
  20233872.883                          43.800          44.200
 109588404.682 7  85393571.93546                  20853973.242
  20853977.641                          43.700          36.300
 118215574.648 6  92116034.75043                  22495674.266
  22495678.984                          37.500          20.600
 125758577.232 5  97993774.27942                  23931076.398
  23931082.039                          31.200          16.900
 117650171.623 6  91505714.832 6                  22047588.141    22047587.105
  22047593.539                          37.000          38.900
 124380266.254 5  96919727.10545  92881403.330 7  23668782.234
  23668791.902    23668791.691          33.500          30.600          43.800
 110643053.156 7  86215439.22845  82623121.590 8  21054682.891
  21054691.707    21054690.301          42.200          33.900          51.200
 123618662.305 5  96147868.315 5                  23190553.148    23190552.191
  23190558.129                          32.400          35.700
 113791381.511 7  88668613.68045                  21653772.016
  21653775.117                          43.200          34.300
 113154305.291 5  88008836.615 5                  21182704.070    21182703.297
  21182707.598                          34.400          35.900
 107841751.435 7  83876827.030 7                  20181086.914    20181087.094
  20181091.348                          44.500          44.600
 130163637.004 7                  97200136.920 7  24769317.055
                  24769322.973          42.700                          47.300
 128300523.554 7                  95808846.387 8  24414778.695
                  24414783.547          44.900                          48.800
 114052131.863 6                  85168818.282 7  21703397.242
                  21703402.387          39.400                          43.800
 138085665.035 6                 103115944.998 6  26276829.070
                  26276835.238          37.800                          41.900
 120389445.309 7                  89901238.042 8  22909346.969
                  22909351.676          45.600                          49.700
 20  8 16  0 31 12.0000000  0 22R01G17G08G03R18G06R17G28G11G19R02G30
                                G01R14G22R16R15E36E02E14E15E30
 123494081.446 5  96051099.165 5                  23102149.633    23102149.461
  23102155.676                          30.400          30.700
 118420980.401 6  92275994.33646                  22534730.672
  22534736.012                          40.000          39.200
 128234196.292 5                  95759304.844 6  24402157.555
                  24402165.551          30.100                          39.600
 112121246.746 7  87367308.76147  83727006.322 8  21335976.039
  21335983.949    21335984.641          42.800          46.000          50.900
 111206590.778 6  86493935.114 7                  20832715.313    20832714.664
  20832719.852                          40.200          42.900
 129331053.823 4 100777447.95344  96578386.558 6  24610872.555
  24610881.246    24610882.805          29.900          25.600          40.800
 108276885.435 7  84215246.697 7                  20234094.906    20234094.758
  20234098.723                          43.800          44.000
 109587123.223 7  85392573.39146                  20853729.703
  20853733.969                          43.600          36.400
 118218237.984 6  92118110.09843                  22496181.438
  22496185.742                          38.100          21.100
 125755828.164 4  97991632.13142                  23930553.016
  23930558.852                          29.900          16.300
 117647552.007 6  91503677.368 6                  22047097.516    22047095.527
  22047102.523                          37.100          38.600
 124382991.312 5  96921850.53544  92883438.270 7  23669302.023
  23669310.520    23669310.398          33.100          29.300          43.700
 110645367.184 7  86217242.37045  82624849.600 8  21055123.555
  21055132.035    21055130.539          42.400          33.700          50.900
 123623130.738 5  96151343.813 6                  23191391.617    23191390.676
  23191396.453                          32.700          36.400
 113791726.973 7  88668882.87445                  21653838.117
  21653840.949                          43.000          34.600
 113152534.991 5  88007459.678 6                  21182372.898    21182372.035
  21182376.031                          34.900          36.500
 107844105.602 7  83878658.055 7                  20181527.859    20181527.359
  20181531.805                          44.600          44.900
 130165390.166 7                  97201446.111 7  24769650.734
                  24769656.598          43.000                          47.400
 128302754.731 7                  95810512.527 8  24415203.133
                  24415207.977          44.700                          48.800
 114046272.237 6                  85164442.583 7  21702282.531
                  21702287.363          39.100                          43.300
 138083801.385 6                 103114553.314 6  26276474.352
                  26276480.500          37.900                          41.800
 120389000.931 7                  89900906.209 8  22909262.641
                  22909267.156          45.500                          49.900
 20  8 16  0 31 13.0000000  0 22R01G17G08G03R18G06R17G28G11G19R02G30
                                G01R14G22R16R15E36E02E14E15E30
 123495399.380 5  96052124.247 5                  23102395.555    23102395.762
  23102402.340                          30.400          30.000
 118419060.569 6  92274498.35446                  22534365.352
  22534370.477                          38.800          39.200
 128236711.165 5                  95761182.832 6  24402635.586
                  24402644.289          30.500                          40.200
 112119661.285 7  87366073.34247  83725822.375 8  21335674.438
  21335682.266    21335682.953          43.100          45.800          50.500
 111205366.939 6  86492983.236 7                  20832485.391    20832485.441
  20832490.570                          40.200          42.600
 129327988.590 4 100775059.44344  96576097.579 6  24610289.031
  24610297.844    24610299.680          29.900          25.000          40.800
 108278094.444 7  84216187.030 7                  20234321.375    20234320.793
  20234324.578                          43.200          43.700
 109585842.236 7  85391575.22845                  20853485.359
  20853490.133                          43.600          35.900
 118220901.447 6  92120185.52043                  22496688.391
  22496692.648                          37.600          20.900
 125753079.245 5  97989490.13642                  23930030.773
  23930035.852                          30.300          17.400
 117644932.915 6  91501640.305 6                  22046606.281    22046604.801
  22046611.656                          36.700          38.700
 124385716.570 5  96923974.11345  92885473.352 7  23669820.727
  23669829.027    23669829.258          33.300          30.300          43.600
 110647681.534 7  86219045.76045  82626577.855 8  21055563.938
  21055572.406    21055570.957          42.500          34.400          50.900
 123627599.314 5  96154819.345 6                  23192229.039    23192228.313
  23192234.836                          33.400          36.200
 113792073.081 7  88669152.56545                  21653903.422
  21653906.797                          42.700          34.100
 113150765.451 5  88006083.407 6                  21182040.813    21182040.938
  21182044.648                          35.200          36.400
 107846460.562 7  83880489.685 7                  20181967.742    20181967.867
  20181972.504                          44.500          44.800
 130167143.414 7                  97202755.361 7  24769984.375
                  24769990.309          43.400                          47.400
 128304986.269 7                  95812178.939 8  24415627.680
                  24415632.699          44.700                          48.900
 114040412.884 6                  85160067.106 7  21701167.156
                  21701172.332          38.900                          43.600
 138081937.911 6                 103113161.754 6  26276119.500
                  26276125.934          37.700                          41.800
 120388557.042 7                  89900574.726 8  22909177.828
                  22909182.660          45.500                          49.600
 20  8 16  0 31 14.0000000  0 22R01G17G08G03R18G06R17G28G11G19R02G30
                                G01R14G22R16R15E36E02E14E15E30
 123496718.157 5  96053149.962 5                  23102642.891    23102642.238
  23102649.094                          30.500          30.500
 118417140.854 6  92273002.47446                  22533999.313
  22534005.293                          39.200          38.300
 128239226.141 5                  95763060.888 6  24403114.070
                  24403122.859          31.600                          39.900
 112118076.418 7  87364838.38547  83724638.877 8  21335372.836
  21335380.594    21335381.332          43.400          45.900          50.500
 111204143.326 6  86492031.546 7                  20832256.695    20832256.133
  20832261.332                          40.300          42.100
 129324923.480 4 100772671.04844  96573808.722 6  24609705.375
  24609714.641    24609716.355          29.400          25.000          40.600
 108279303.624 7  84217127.504 7                  20234547.977    20234546.625
  20234550.516                          43.800          43.300
 109584561.742 7  85390577.43946                  20853242.055
  20853246.461                          43.800          36.000
 118223565.090 6  92122261.08643                  22497195.031
  22497199.543                          38.300          20.600
 125750330.276 5  97987348.09242                  23929507.438
  23929512.816                          30.100          17.800
 117642314.386 6  91499603.680 6                  22046115.391    22046113.672
  22046120.844                          36.900          38.600
 124388441.978 5  96926097.80144  92887508.562 7  23670339.180
  23670347.707    23670347.652          32.200          29.700          43.700
 110649996.205 7  86220849.39645  82628306.335 8  21056004.648
  21056012.719    21056011.551          42.400          34.500          51.000
 123632067.964 5  96158294.984 6                  23193066.953    23193066.957
  23193073.113                          32.600          36.300
 113792419.814 7  88669422.75445                  21653969.922
  21653972.715                          43.000          34.000
 113148996.755 5  88004707.734 6                  21181710.148    21181710.016
  21181713.445                          34.900          36.300
 107848816.224 7  83882321.862 7                  20182408.938    20182408.824
  20182413.395                          44.100          43.700
 130168896.730 7                  97204064.634 7  24770317.891
                  24770323.855          43.500                          46.700
 128307218.128 7                  95813845.599 8  24416052.430
                  24416057.434          44.900                          48.800
 114034553.799 6                  85155691.803 7  21700052.313
                  21700057.488          39.600                          43.500
 138080074.569 6                 103111770.304 6  26275764.875
                  26275771.348          38.400                          41.900
 120388113.618 7                  89900243.590 8  22909093.344
                  22909098.391          45.400                          49.400
 20  8 16  0 31 15.0000000  0 22R01G17G08G03R18G06R17G28G11G19R02G30
                                G01R14G22R16R15E36E02E14E15E30
 123498037.656 4  96054176.297 5                  23102890.289    23102888.922
  23102896.039                          29.000          30.700
 118415221.134 6  92271506.58446                  22533634.094
  22533639.918                          39.400          38.600
 128241741.212 5                  95764939.037 6  24403593.070
                  24403601.531          31.300                          39.900
 112116492.178 7  87363603.90447  83723455.818 8  21335071.609
  21335079.098    21335079.750          43.200          46.200          50.500
 111202920.024 6  86491080.092 7                  20832027.695    20832027.102
  20832032.301                          40.100          42.400
 129321858.628 5 100770282.87544  96571520.014 6  24609122.227
  24609131.395    24609133.023          30.300          26.300          40.300
 108280512.982 7  84218068.133 7                  20234773.852    20234772.531
  20234776.609                          43.200          43.800
 109583281.687 7  85389579.99246                  20852998.688
  20853002.992                          43.800          36.200
 118226228.853 6  92124336.74143                  22497702.305
  22497706.527                          38.200          21.100
 125747581.423 5  97985206.18742                  23928983.563
  23928989.766                          31.200          16.900
 117639696.416 6  91497567.473 6                  22045624.836    22045623.086
  22045630.238                          37.200          38.100
 124391167.557 5  96928221.64844  92889543.912 7  23670856.555
  23670866.293    23670866.246          33.200          28.900          43.900
 110652311.190 7  86222653.27745  82630035.053 8  21056444.555
  21056453.328    21056452.086          42.200          33.900          51.200
 123636536.740 5  96161770.678 6                  23193904.875    23193905.145
  23193911.535                          32.600          36.100
 113792767.195 7  88669693.43945                  21654035.977
  21654038.902                          43.000          34.000
 113147228.794 5  88003332.648 6                  21181380.156    21181378.703
  21181382.305                          35.100          36.300
 107851172.681 7  83884154.653 7                  20182849.344    20182849.891
  20182854.379                          44.300          44.000
 130170650.086 7                  97205373.973 7  24770651.703
                  24770657.613          43.100                          46.800
 128309450.344 7                  95815512.510 8  24416477.125
                  24416482.199          45.100                          48.600
 114028694.998 6                  85151316.744 7  21698937.359
                  21698942.520          38.800                          43.600
 138078211.407 6                 103110378.975 6  26275410.219
                  26275416.598          37.500                          41.800
 120387670.674 7                  89899912.817 8  22909009.289
                  22909013.965          45.600                          49.100
 20  8 16  0 31 16.0000000  0 22R01G17G08G03R18G06R17G28G11G19R02G30
                                G01R14G22R16R15E36E02E14E15E30
 123499358.040 4  96055203.190 5                  23103137.031    23103136.055
  23103143.047                          29.600          30.100
 118413301.535 6  92270010.80346                  22533268.492
  22533274.625                          39.100          38.400
 128244256.396 5                  95766817.271 6  24404072.109
                  24404080.227          31.200                          39.900
 112114908.506 7  87362369.87947  83722273.223 8  21334770.211
  21334777.633    21334778.500          43.000          46.200          50.600
 111201697.000 6  86490128.836 7                  20831798.664    20831797.930
  20831803.152                          40.400          42.600
 129318793.924 4 100767894.79544  96569231.449 6  24608538.484
  24608548.164    24608549.504          29.600          25.500          40.500
 108281722.587 7  84219008.922 7                  20234999.750    20234998.270
  20235002.723                          43.000          43.900
 109582002.133 7  85388582.93445                  20852754.469
  20852759.461                          43.700          35.900
 118228892.800 6  92126412.54743                  22498208.758
  22498213.449                          37.800          20.600
 125744832.609 5  97983064.21042                  23928460.664
  23928466.766                          31.200          17.400
 117637078.917 6  91495531.666 6                  22045134.453    22045132.746
  22045139.621                          37.100          38.500
 124393893.320 5  96930345.61744  92891579.358 7  23671375.109
  23671384.930    23671385.051          32.600          29.700          43.600
 110654626.489 7  86224457.41545  82631764.011 8  21056885.320
  21056893.949    21056892.594          42.600          33.900          51.000
 123641005.535 5  96165246.402 6                  23194744.523    23194743.535
  23194749.836                          33.100          36.100
 113793115.211 7  88669964.61745                  21654101.875
  21654105.102                          43.100          34.100
 113145461.661 5  88001958.212 6                  21181048.188    21181047.879
  21181051.672                          35.200          36.300
 107853529.894 7  83885988.053 7                  20183290.438    20183290.590
  20183295.543                          44.100          44.400
 130172403.499 7                  97206683.334 7  24770985.141
                  24770991.297          43.000                          46.700
 128311682.886 7                  95817179.666 8  24416902.133
                  24416907.121          45.600                          48.500
 114022836.452 6                  85146941.867 7  21697822.148
                  21697827.457          38.700                          43.200
 138076348.400 6                 103108987.790 6  26275055.484
                  26275062.094          37.100                          41.500
 120387228.184 7                  89899582.382 8  22908924.977
                  22908929.813          45.900                          49.200
 20  8 16  0 31 17.0000000  0 22R01G17G08G03R18G06R17G28G11G19R02G30
                                G01R14G22R16R15E36E02E14E15E30
 123500679.113 4  96056230.680 4                  23103384.414    23103383.387
  23103390.242                          29.000          29.400
 118411381.939 6  92268515.00646                  22532904.125
  22532909.371                          39.500          38.500
 128246771.686 5                  95768695.540 6  24404550.727
                  24404558.949          30.500                          40.200
 112113325.443 7  87361136.31947  83721091.070 8  21334469.047
  21334476.543    21334477.219          42.800          46.300          50.700
 111200474.230 6  86489177.796 7                  20831570.211    20831568.684
  20831574.117                          40.200          43.200
 129315729.401 5 100765506.83144  96566943.017 6  24607956.359
  24607965.117    24607966.383          30.500          24.600          40.500
 108282932.327 7  84219949.831 7                  20235226.094    20235224.520
  20235228.777                          43.400          43.900
 109580723.005 7  85387586.21446                  20852510.961
  20852515.957                          43.900          36.100
 118231556.817 6  92128488.40843                  22498716.164
  22498720.441                          37.300          21.100
 125742083.706 5  97980922.16042                  23927937.680
  23927943.785                          30.800          16.900
 117634461.985 6  91493496.287 6                  22044644.383    22044642.945
  22044649.340                          37.500          38.700
 124396619.217 5  96932469.66944  92893614.937 7  23671894.055
  23671903.715    23671903.910          32.900          29.400          43.700
 110656942.102 7  86226261.78445  82633493.188 8  21057326.352
  21057334.664    21057333.184          42.600          34.500          50.900
 123645474.418 5  96168722.174 5                  23195583.070    23195582.285
  23195588.367                          33.300          35.900
 113793463.833 7  88670236.27445                  21654168.156
  21654171.320                          42.700          34.200
 113143695.347 5  88000584.396 6                  21180717.883    21180716.668
  21180720.996                          34.400          36.000
 107855887.858 7  83887822.017 7                  20183732.398    20183732.242
  20183736.727                          44.100          44.900
 130174156.977 7                  97207992.745 7  24771318.883
                  24771324.863          43.200                          47.000
 128313915.764 7                  95818847.082 8  24417327.063
                  24417331.961          45.500                          48.800
 114016978.187 6                  85142567.170 7  21696707.688
                  21696712.621          38.700                          43.100
 138074485.527 6                 103107596.698 6  26274701.508
                  26274707.508          37.600                          41.500
 120386786.135 7                  89899252.293 8  22908840.852
                  22908845.637          46.000                          49.000
 20  8 16  0 31 18.0000000  0 22R01G17G08G03R18G06R17G28G11G19R02G30
                                G01R14G22R16R15E36E02E14E15E30
 123502001.010 4  96057258.804 5                  23103631.555    23103630.500
  23103637.387                          28.900          30.400
 118409462.445 6  92267019.29446                  22532538.203
  22532543.988                          39.000          38.200
 128249286.986 5                  95770573.889 6  24405030.297
                  24405037.660          30.800                          40.200
 112111743.002 7  87359903.24947  83719909.371 8  21334167.703
  21334175.352    21334176.125          42.700          46.100          50.800
 111199251.670 6  86488226.927 7                  20831341.625    20831339.809
  20831345.195                          40.000          42.800
 129312665.079 5 100763119.06644  96564654.742 6  24607373.258
  24607382.063    24607382.996          31.300          25.800          40.200
 108284142.220 7  84220890.872 7                  20235451.414    20235450.750
  20235454.816                          43.400          44.000
 109579444.341 7  85386589.85846                  20852268.352
  20852272.660                          43.800          36.200
 118234220.983 6  92130564.39643                  22499223.273
  22499227.480                          37.800          21.300
 125739334.874 5  97978780.23242                  23927414.023
  23927420.629                          30.500          16.300
 117631845.593 6  91491461.260 6                  22044154.148    22044152.715
  22044159.141                          37.400          38.600
 124399345.195 5  96934593.81644  92895650.597 7  23672412.797
  23672422.582    23672422.637          33.200          29.400          43.600
 110659258.007 7  86228066.38445  82635222.604 8  21057766.828
  21057775.539    21057773.926          42.300          34.200          50.700
 123649943.299 5  96172197.970 5                  23196421.242    23196420.617
  23196426.605                          32.900          35.800
 113793813.086 7  88670508.41545                  21654235.352
  21654237.668                          43.100          34.000
 113141929.841 5  87999211.204 6                  21180388.563    21180385.910
  21180390.480                          34.200          36.500
 107858246.534 7  83889656.550 7                  20184173.648    20184173.543
  20184178.117                          43.800          44.600
 130175910.483 7                  97209302.191 7  24771652.617
                  24771658.473          43.300                          47.000
 128316148.946 7                  95820514.717 8  24417751.930
                  24417756.953          45.200                          48.900
 114011120.151 6                  85138192.675 7  21695592.953
                  21695597.988          39.100                          43.100
 138072622.808 6                 103106205.684 6  26274347.305
                  26274353.531          37.400                          41.700
 120386344.568 7                  89898922.536 8  22908756.742
                  22908761.648          45.800                          48.900
 20  8 16  0 31 19.0000000  0 22R01G17G08G03R18G06R17G28G11G19R02G30
                                G01R14G22R16R15E36E02E14E15E30
 123503323.702 4  96058287.578 5                  23103878.250    23103877.473
  23103884.871                          29.200          30.300
 118407542.942 6  92265523.57546                  22532173.117
  22532178.723                          40.100          38.700
 128251802.548 5                  95772452.355 6  24405508.977
                  24405516.328          30.700                          40.400
 112110161.160 7  87358670.64647  83718728.117 8  21333866.750
  21333874.410    21333875.070          43.100          46.300          50.600
 111198029.402 6  86487276.263 7                  20831111.602    20831110.469
  20831116.391                          40.100          42.800
 129309601.029 5 100760731.49744  96562366.596 6  24606790.766
  24606798.875    24606800.082          30.500          25.400          40.200
 108285352.350 7  84221832.077 7                  20235678.031    20235676.953
  20235680.961                          43.700          44.000
 109578166.154 7  85385593.86345                  20852024.844
  20852029.477                          43.700          35.900
 118236885.321 6  92132640.49043                  22499729.625
  22499734.520                          37.500          22.300
 125736586.096 5  97976638.34742                  23926891.789
  23926897.539                          30.100          17.400
 117629229.671 6  91489426.684 6                  22043663.117    22043662.578
  22043669.000                          37.500          38.700
 124402071.459 5  96936718.17445  92897686.418 7  23672931.672
  23672941.469    23672941.422          33.200          30.700          43.800
 110661574.211 7  86229871.21345  82636952.239 8  21058207.461
  21058216.230    21058214.695          42.800          34.400          51.100
 123654412.272 5  96175673.857 5                  23197258.406    23197258.680
  23197264.875                          33.100          35.700
 113794162.984 7  88670781.06645                  21654301.695
  21654304.227                          43.300          33.900
 113140165.101 5  87997838.680 6                  21180055.859    21180056.020
  21180060.172                          34.700          36.100
 107860605.983 7  83891491.666 7                  20184614.969    20184615.160
  20184619.590                          44.300          44.600
 130177664.080 7                  97210611.689 7  24771986.398
                  24771992.191          43.200                          46.900
 128318382.512 7                  95822182.617 8  24418177.008
                  24418182.012          45.400                          49.100
 114005262.413 6                  85133818.378 7  21694478.445
                  21694483.250          39.000                          43.100
 138070760.265 6                 103104814.823 6  26273992.250
                  26273998.789          37.300                          41.500
 120385903.480 7                  89898593.142 8  22908673.016
                  22908677.723          45.700                          49.100
 20  8 16  0 31 20.0000000  0 22R01G17G08G03R18G06R17G28G11G19R02G30
                                G01R14G22R16R15E36E02E14E15E30
 123504647.001 4  96059316.918 5                  23104125.992    23104125.324
  23104132.461                          29.900          30.300
 118405623.528 6  92264027.93346                  22531807.117
  22531813.398                          40.000          38.700
 128254318.163 4  99938474.28152  95774330.845 6  24405986.594
  24405996.363    24405994.914          29.400          13.900          40.100
 112108579.866 7  87357438.47047  83717547.290 8  21333566.195
  21333573.504    21333574.207          43.100          46.400          50.700
 111196807.354 6  86486325.766 7                  20830882.867    20830881.355
  20830887.363                          40.000          43.000
 129306537.019 5 100758343.95544  96560078.564 6  24606206.234
  24606215.770    24606217.215          31.200          25.600          40.600
 108286562.611 7  84222773.401 7                  20235902.938    20235903.012
  20235907.020                          43.600          44.100
 109576888.397 7  85384598.20646                  20851781.906
  20851786.270                          43.300          36.100
 118239549.754 6  92134716.66643                  22500237.117
  22500241.492                          37.700          21.800
 125733837.301 4  97974496.46243                  23926369.484
  23926374.438                          29.600          18.600
 117626614.304 6  91487392.501 6                  22043173.469    22043172.543
  22043178.945                          37.300          38.700
 124404797.792 5  96938842.60244  92899722.328 7  23673451.281
  23673460.363    23673460.219          33.100          29.900          43.900
 110663890.711 7  86231676.28745  82638682.102 8  21058648.797
  21058656.945    21058655.430          42.700          33.700          50.800
 123658881.362 5  96179149.806 5                  23198096.695    23198097.203
  23198103.266                          32.800          35.600
 113794513.449 7  88671054.15445                  21654367.844
  21654371.078                          43.100          33.900
 113138401.224 5  87996466.747 6                  21179725.391    21179726.246
  21179729.938                          34.500          36.100
 107862966.126 7  83893327.345 7                  20185056.867    20185056.738
  20185061.340                          44.200          44.400
 130179417.684 7                  97211921.196 7  24772319.805
                  24772326.004          43.200                          47.200
 128320616.333 7                  95823850.747 8  24418602.078
                  24418607.074          45.400                          48.700
 113999404.895 6                  85129444.277 7  21693363.492
                  21693368.340          38.600                          43.000
 138068897.842 6                 103103424.040 6  26273637.594
                  26273644.496          37.500                          41.600
 120385462.780 7                  89898264.072 8  22908589.336
                  22908593.855          45.600                          49.300
 20  8 16  0 31 21.0000000  0 22R01G17G08G03R18G06R17G28G11G19R02G30
                                G01R14G22R16R15E36E02E14E15E30
 123505971.300 4  96060346.856 5                  23104374.852    23104373.035
  23104380.246                          29.900          30.300
 118403704.179 6  92262532.34446                  22531443.125
  22531448.305                          39.100          39.000
 128256833.795 5  99940434.56042  95776209.444 6  24406465.109
  24406474.988    24406473.602          30.300          14.800          40.200
 112106999.213 7  87356206.79447  83716366.937 8  21333265.242
  21333272.664    21333273.410          43.000          46.000          51.000
 111195585.540 6  86485375.508 7                  20830653.586    20830652.430
  20830658.617                          40.000          43.100
 129303473.278 5 100755956.61444  96557790.694 6  24605623.375
  24605632.578    24605634.207          30.300          25.100          40.400
 108287773.093 7  84223714.882 7                  20236129.930    20236128.945
  20236133.297                          43.400          44.000
 109575611.119 7  85383602.92246                  20851538.477
  20851543.258                          43.000          36.100
 118242214.355 6  92136792.97643                  22500743.594
  22500748.539                          37.200          21.100
 125731088.57514  97972354.62453                  23925846.094
  23925851.504                          28.300          18.300
 117623999.514 6  91485358.797 6                  22042683.617    22042682.602
  22042688.969                          37.600          38.700
 124407524.348 5  96940967.16244  92901758.385 7  23673969.977
  23673979.172    23673979.078          33.700          29.500          44.000
 110666207.548 7  86233481.61045  82640412.207 8  21059089.352
  21059097.859    21059096.422          42.800          34.800          50.900
 123663350.474 5  96182625.789 6                  23198934.477    23198935.938
  23198941.543                          32.600          36.200
 113794864.618 7  88671327.79245                  21654435.031
  21654437.891                          42.900          33.500
 113136638.138 5  87995095.478 6                  21179397.531    21179395.742
  21179399.730                          34.300          36.200
 107865327.111 7  83895163.650 7                  20185497.703    20185498.695
  20185503.242                          43.900          44.400
 130181171.367 7                  97213230.755 7  24772653.703
                  24772659.809          43.300                          47.100
 128322850.525 7                  95825519.133 8  24419027.078
                  24419032.160          45.700                          48.800
 113993547.663 6                  85125070.384 7  21692248.977
                  21692253.633          38.700                          42.800
 138067035.563 6                 103102033.404 6  26273283.680
                  26273289.973          37.000                          41.600
 120385022.596 7                  89897935.360 8  22908505.195
                  22908510.027          45.500                          49.600
 20  8 16  0 31 22.0000000  0 22R01G17G08G03R18G06R17G28G11G19R02G30
                                G01R14G22R16R15E36E02E14E15E30
 123507296.370 5  96061377.464 5                  23104623.602    23104620.770
  23104628.199                          30.000          31.000
 118401784.917 6  92261036.82046                  22531077.234
  22531083.074                          39.300          38.800
 128259349.611 4  99942394.91342  95778088.144 6  24406943.414
  24406953.859    24406952.242          29.600          14.800          40.500
 112105419.183 7  87354975.60747  83715187.039 8  21332964.492
  21332971.961    21332972.691          43.000          46.200          50.800
 111194364.049 6  86484425.441 7                  20830425.102    20830423.770
  20830429.863                          40.700          43.200
 129300409.704 5 100753569.42944  96555502.994 6  24605041.148
  24605049.773    24605051.180          30.700          26.000          40.200
 108288983.785 7  84224656.533 7                  20236356.047    20236355.273
  20236359.574                          43.500          44.000
 109574334.306 7  85382608.00245                  20851295.836
  20851300.395                          42.800          35.800
 118244879.107 6  92138869.39443                  22501251.047
  22501255.613                          37.500          21.700
 125728339.821 4  97970212.69542                  23925322.734
  23925328.637                          29.900          17.400
 117621385.303 6  91483325.494 6                  22042194.070    22042192.684
  22042199.039                          37.600          38.400
 124410251.075 5  96943091.89244  92903794.572 7  23674488.430
  23674497.938    23674497.914          33.700          29.400          43.900
 110668524.716 7  86235287.19845  82642142.551 8  21059530.766
  21059538.875    21059537.449          42.800          34.600          50.800
 123667819.706 5  96186101.838 6                  23199775.266    23199774.508
  23199779.969                          33.200          36.100
 113795216.389 7  88671601.90445                  21654502.305
  21654504.992                          42.700          34.600
 113134875.898 5  87993724.817 6                  21179067.797    21179066.387
  21179069.875                          34.200          36.700
 107867688.815 7  83897000.540 7                  20185940.203    20185940.488
  20185945.113                          43.900          44.100
 130182925.114 7                  97214540.368 7  24772987.469
                  24772993.340          43.200                          46.900
 128325085.066 7                  95827187.786 8  24419452.641
                  24419457.348          45.500                          48.900
 113987690.725 6                  85120696.690 7  21691134.523
                  21691139.113          38.500                          43.300
 138065173.464 6                 103100642.900 6  26272929.203
                  26272935.746          37.000                          41.400
 120384582.895 7                  89897607.009 8  22908421.656
                  22908426.422          45.500                          49.600
 20  8 16  0 31 23.0000000  0 22R01G17G08G03R18G06R17G28G11G19R02G30
                                G01R14G22R16R15E36E02E14E15E30
 123508622.144 4  96062408.607 5                  23104870.570    23104869.629
  23104876.316                          29.800          31.500
 118399865.655 6  92259541.29046                  22530711.875
  22530717.848                          39.200          39.100
 128261865.474 5  99944355.40242  95779966.896 6  24407422.500
  24407432.652    24407431.051          30.100          14.800          40.300
 112103839.747 7  87353744.87747  83714007.584 8  21332663.938
  21332671.316    21332672.148          43.200          46.000          50.900
 111193142.796 6  86483475.563 7                  20830196.117    20830194.852
  20830201.191                          40.700          42.700
 129297346.356 5 100751182.39844  96553215.422 6  24604460.227
  24604466.855    24604467.934          31.600          25.400          40.300
 108290194.669 7  84225598.313 7                  20236582.922    20236581.516
  20236585.805                          43.900          44.100
 109573057.961 7  85381613.44945                  20851052.758
  20851057.422                          43.400          35.800
 118247543.991 6  92140945.93343                  22501758.781
  22501762.676                          37.700          21.700
 125725591.159 5  97968070.86042                  23924801.094
  23924805.543                          30.700          17.800
 117618771.596 6  91481292.645 6                  22041704.164    22041702.844
  22041709.199                          37.000          38.600
 124412977.891 5  96945216.67145  92905830.862 7  23675006.500
  23675016.746    23675016.766          34.000          30.500          43.800
 110670842.166 7  86237092.99845  82643873.114 8  21059971.578
  21059979.504    21059978.324          42.700          34.700          50.900
 123672288.987 5  96189577.948 5                  23200614.086    23200612.426
  23200618.461                          33.500          35.800
 113795568.806 7  88671876.51945                  21654569.078
  21654571.836                          42.800          34.400
 113133114.380 5  87992354.764 6                  21178737.797    21178736.180
  21178740.145                          34.200          36.200
 107870051.262 7  83898837.993 7                  20186382.586    20186382.652
  20186387.266                          44.200          44.500
 130184678.888 7                  97215850.022 7  24773321.406
                  24773326.988          43.500                          47.200
 128327319.920 7                  95828856.678 8  24419877.766
                  24419882.609          45.300                          48.800
 113981834.039 6                  85116323.178 7  21690019.961
                  21690024.578          38.300                          43.400
 138063311.510 6                 103099252.477 6  26272574.703
                  26272581.492          37.000                          41.500
 120384143.638 7                  89897278.996 8  22908337.953
                  22908342.945          45.500                          49.500
 20  8 16  0 31 24.0000000  0 22R01G17G08G03R18G06R17G28G11G19R02G30
                                G01R14G22R16R15E36E02E14E15E30
 123509948.701 5  96063440.432 5                  23105119.031    23105117.125
  23105124.402                          30.300          31.900
 118397946.489 6  92258045.83146                  22530347.039
  22530352.719                          39.200          38.600
 128264381.546 4  99946315.99342  95781845.720 6  24407900.969
  24407911.367    24407909.910          29.900          15.600          40.000
 112102260.888 7  87352514.59147  83712828.579 8  21332363.555
  21332370.914    21332371.734          43.400          46.200          50.500
 111191921.814 6  86482525.913 7                  20829967.469    20829966.359
  20829972.496                          40.600          42.400
 129294283.174 5 100748795.50144  96550927.990 6  24603875.672
  24603884.090    24603885.148          31.000          25.700          40.200
 108291405.704 7  84226540.239 7                  20236809.273    20236807.965
  20236812.117                          43.500          43.500
 109571782.073 7  85380619.24945                  20850810.039
  20850814.867                          43.500          35.900
 118250208.984 6  92143022.54043                  22502265.203
  22502269.719                          37.800          21.700
 125722842.449 5  97965929.00043                  23924276.352
  23924282.438                          31.000          18.300
 117616158.414 6  91479260.179 6                  22041213.969    22041212.973
  22041219.410                          37.100          37.700
 124415704.987 5  96947341.68045  92907867.268 7  23675525.938
  23675535.770    23675535.691          33.200          30.800          43.900
 110673159.933 7  86238899.04845  82645603.911 8  21060411.992
  21060420.723    21060419.410          42.700          34.600          50.500
 123676758.334 5  96193054.134 6                  23201452.039    23201451.129
  23201457.020                          33.700          36.200
 113795921.837 7  88672151.60045                  21654636.063
  21654639.152                          42.600          34.500
 113131353.706 5  87990985.382 6                  21178405.961    21178406.848
  21178410.449                          34.500          36.300
 107872414.442 7  83900676.030 7                  20186824.773    20186824.738
  20186829.438                          44.100          44.000
 130186432.733 7                  97217159.702 7  24773655.156
                  24773660.754          43.500                          47.200
 128329555.110 7                  95830525.799 8  24420303.070
                  24420308.105          44.900                          49.000
 113975977.631 6                  85111949.887 7  21688905.328
                  21688910.094          38.300                          43.100
 138061449.739 6                 103097862.166 6  26272220.570
                  26272227.313          37.000                          41.700
 120383704.843 7                  89896951.317 8  22908254.633
                  22908259.289          45.700                          49.300
 20  8 16  0 31 25.0000000  0 22R01G17G08G03R18G06R17G28G11G19R02G30
                                G01R14G22R16R15E36E02E14E15E30
 123511276.045 5  96064472.807 5                  23105367.664    23105365.855
  23105372.762                          31.000          30.300
 118396027.345 6  92256550.40046                  22529981.859
  22529987.594                          39.200          38.700
 128266897.555 4  99948276.58542  95783724.613 6  24408380.023
  24408390.215    24408388.934          29.100          14.800          40.200
 112100682.632 7  87351284.78147  83711650.007 8  21332062.922
  21332070.766    21332071.340          43.200          46.100          50.600
 111190701.068 6  86481576.450 7                  20829739.000    20829737.445
  20829743.813                          40.300          43.100
 129291220.149 5 100746408.74644  96548640.674 6  24603292.023
  24603301.191    24603302.102          30.500          24.100          39.900
 108292616.891 7  84227482.277 7                  20237034.586    20237034.180
  20237038.516                          43.500          43.500
 109570506.625 7  85379625.38746                  20850567.703
  20850572.059                          43.500          36.200
 118252874.104 6  92145099.27343                  22502772.219
  22502776.910                          38.000          22.500
 125720093.756 5  97963787.20442                  23923753.758
  23923759.129                          30.500          17.800
 117613545.732 6  91477228.048 6                  22040723.930    22040723.184
  22040729.578                          37.200          38.400
 124418432.121 5  96949466.72345  92909903.772 7  23676045.625
  23676054.715    23676054.723          33.400          30.400          44.500
 110675477.996 7  86240705.33745  82647334.934 8  21060853.359
  21060861.902    21060860.469          42.800          34.600          50.500
 123681227.731 5  96196530.285 6                  23202291.898    23202289.465
  23202295.641                          33.300          36.400
 113796275.470 7  88672427.16445                  21654702.914
  21654706.426                          42.900          34.600
 113129593.761 5  87989616.549 6                  21178078.359    21178077.480
  21178080.984                          34.600          36.600
 107874778.360 7  83902514.642 7                  20187266.891    20187266.863
  20187271.844                          43.600          44.200
 130188186.609 7                  97218469.427 7  24773988.797
                  24773994.586          43.400                          46.700
 128331790.618 7                  95832195.169 8  24420728.492
                  24420733.465          45.000                          49.000
 113970121.454 6                  85107576.769 7  21687791.219
                  21687795.457          38.000                          42.900
 138059588.059 6                 103096471.950 6  26271866.555
                  26271872.914          37.200                          41.900
 120383266.494 7                  89896623.981 8  22908171.086
                  22908176.027          45.500                          48.900
 20  8 16  0 31 26.0000000  0 22R01G17G08G03R18G06R17G28G11G19R02G30
                                G01R14G22R16R15E36E02E14E15E30
 123512604.189 5  96065505.769 5                  23105614.898    23105613.945
  23105621.211                          30.500          30.500
 118394108.300 6  92255055.03746                  22529616.898
  22529622.355                          39.900          38.800
 128269413.760 5  99950237.25042  95785603.593 6  24408859.109
  24408869.121    24408867.781          30.100          13.900          40.100
 112099105.006 7  87350055.46147  83710471.907 8  21331762.688
  21331770.367    21331771.207          42.600          45.900          50.500
 111189480.567 6  86480627.145 7                  20829509.344    20829508.922
  20829515.246                          40.600          43.000
 129288157.350 5 100744022.14844  96546353.542 6  24602709.461
  24602718.094    24602719.434          30.300          25.200          39.800
 108293828.303 7  84228424.482 7                  20237261.367    20237260.680
  20237265.027                          43.600          43.600
 109569231.657 7  85378631.90746                  20850324.664
  20850329.563                          43.600          36.200
 118255539.386 6  92147176.09843                  22503279.758
  22503284.105                          37.600          21.700
 125717345.090 5  97961645.38142                  23923231.289
  23923235.973                          31.000          17.400
 117610933.598 6  91475196.424 6                  22040234.023    22040233.406
  22040239.863                          37.100          38.300
 124421159.483 5  96951591.93445  92911940.426 7  23676564.453
  23676573.758    23676573.727          33.100          30.100          44.000
 110677796.368 7  86242511.85945  82649066.203 8  21061294.484
  21061303.023    21061301.699          42.900          34.700          50.700
 123685697.234 5  96200006.538 5                  23203129.211    23203127.582
  23203134.047                          33.300          35.300
 113796629.757 7  88672703.22545                  21654770.531
  21654773.863                          43.200          34.200
 113127834.723 5  87988248.341 6                  21177749.563    21177748.043
  21177751.637                          34.800          36.500
 107877143.077 7  83904353.845 7                  20187709.547    20187709.734
  20187714.375                          44.100          44.400
 130189940.560 7                  97219779.195 7  24774322.625
                  24774328.258          43.300                          46.700
 128334026.457 7                  95833864.800 8  24421153.930
                  24421158.840          45.100                          49.200
 113964265.556 6                  85103203.874 7  21686676.734
                  21686681.250          38.100                          43.000
 138057726.558 6                 103095081.879 6  26271512.328
                  26271518.801          36.700                          41.900
 120382828.627 7                  89896296.996 8  22908087.672
                  22908092.582          45.300                          49.000
 20  8 16  0 31 27.0000000  0 22R01G17G08G03R18G06R17G28G11G19R02G30
                                G01R14G22R16R15E36E02E14E15E30
 123513933.098 4  96066539.383 5                  23105863.617    23105862.660
  23105869.652                          29.700          31.400
 118392189.278 6  92253559.70446                  22529252.055
  22529257.258                          39.100          38.400
 128271930.124 4  99952198.06242  95787482.648 6  24409337.008
  24409347.824    24409346.441          29.100          14.800          40.200
 112097527.966 7  87348826.60347  83709294.260 8  21331462.414
  21331470.461    21331471.098          43.000          46.000          50.400
 111188260.303 6  86479678.096 7                  20829281.688    20829280.313
  20829286.684                          40.800          42.700
 129285094.747 5 100741635.69944  96544066.507 6  24602126.648
  24602135.234    24602136.738          30.500          25.300          39.800
 108295039.938 7  84229366.867 7                  20237488.203    20237486.754
  20237491.340                          43.900          43.600
 109567957.180 7  85377638.80846                  20850082.055
  20850086.805                          43.400          36.200
 118258204.847 6  92149253.08843                  22503786.898
  22503791.137                          37.400          20.900
 125714596.554 5  97959503.66942                  23922708.484
  23922712.895                          30.800          16.900
 117608321.953 6  91473165.133 6                  22039744.891    22039743.805
  22039750.250                          36.900          38.300
 124423886.933 5  96953717.21644  92913977.190 7  23677082.945
  23677092.801    23677092.832          33.600          29.600          44.100
 110680115.089 7  86244318.65845  82650797.698 8  21061736.367
  21061744.301    21061742.875          43.300          34.800          51.000
 123690166.809 5  96203482.881 6                  23203968.008    23203966.105
  23203972.492                          34.000          36.300
 113796984.697 7  88672979.80845                  21654838.539
  21654841.320                          43.100          34.700
 113126076.383 5  87986880.778 6                  21177419.859    21177418.738
  21177422.609                          35.000          36.400
 107879508.526 7  83906193.646 7                  20188152.297    20188152.410
  20188157.023                          43.900          44.400
 130191694.561 7                  97221089.005 7  24774656.492
                  24774662.059          43.500                          46.400
 128336262.667 7                  95835534.693 8  24421579.633
                  24421584.449          45.400                          49.300
 113958409.947 6                  85098831.196 7  21685562.500
                  21685566.898          38.100                          42.700
 138055865.231 6                 103093691.945 7  26271158.258
                  26271164.680          36.900                          42.200
 120382391.216 7                  89895970.370 8  22908004.586
                  22908009.301          45.600                          49.300
 20  8 16  0 31 28.0000000  0 22R01G17G08G03R18G06R17G28G11G19R02G30
                                G01R14G22R16R15E36E02E14E15E30
 123515262.809 5  96067573.582 4                  23106112.930    23106111.617
  23106118.414                          30.000          29.600
 118390270.311 6  92252064.40646                  22528886.539
  22528891.988                          39.400          38.400
 128274446.524 4  99954158.79942  95789361.766 6  24409815.594
  24409826.523    24409825.289          28.900          14.800          39.900
 112095951.526 7  87347598.21047  83708117.045 8  21331162.539
  21331170.301    21331170.996          43.300          46.200          50.500
 111187040.285 6  86478729.178 7                  20829054.086    20829051.855
  20829058.078                          40.500          43.400
 129282032.356 5 100739249.42144  96541779.650 6  24601544.742
  24601552.633    24601554.039          30.800          26.000          39.600
 108296251.717 7  84230309.376 7                  20237714.453    20237713.691
  20237717.805                          43.700          44.000
 109566683.137 7  85376646.04146                  20849839.813
  20849844.371                          43.700          36.000
 118260870.388 6  92151330.14743                  22504293.977
  22504298.500                          37.400          21.700
 125711848.003 5  97957361.92842                  23922185.570
  23922189.781                          31.000          16.300
 117605710.861 6  91471134.263 6                  22039255.656    22039254.715
  22039260.754                          37.400          38.000
 124426614.622 5  96955842.68945  92916014.081 7  23677602.500
  23677611.871    23677611.891          33.900          30.400          44.100
 110682434.081 7  86246125.66445  82652529.412 8  21062177.063
  21062185.563    21062184.250          43.400          34.600          51.000
 123694636.426 5  96206959.256 6                  23204806.070    23204804.438
  23204810.992                          33.600          36.200
 113797340.214 7  88673256.83545                  21654906.266
  21654908.977                          43.200          34.100
 113124318.889 5  87985513.844 6                  21177090.672    21177089.605
  21177093.582                          34.900          36.200
 107881874.705 7  83908033.995 7                  20188594.727    20188594.961
  20188599.871                          44.000          44.400
 130193448.626 7                  97222398.843 7  24774989.992
                  24774995.793          43.200                          46.400
 128338499.181 7                  95837204.807 8  24422004.984
                  24422009.957          45.300                          49.300
 113952554.594 6                  85094458.688 7  21684448.352
                  21684452.480          38.500                          42.600
 138054004.066 6                 103092302.084 7  26270803.875
                  26270810.410          37.000                          42.000
 120381954.284 7                  89895644.084 8  22907921.336
                  22907926.266          45.100                          49.400
 20  8 16  0 31 29.0000000  0 22R01G17G08G03R18G06R17G28G11G19R02G30
                                G01R14G22R16R15E36E02E14E15E30
 123516593.279 5  96068608.408 5                  23106361.102    23106360.465
  23106367.273                          30.300          30.800
 118388351.430 6  92250569.17446                  22528521.453
  22528526.980                          38.600          38.600
 128276963.000 4  99956119.73342  95791240.967 6  24410295.539
  24410305.340    24410304.164          28.600          14.800          39.700
 112094375.698 7  87346370.28547  83706940.282 8  21330862.852
  21330870.504    21330871.273          43.600          46.100          50.700
 111185820.554 6  86477780.504 7                  20828824.813    20828823.160
  20828829.438                          40.600          43.600
 129278970.112 5 100736863.25744  96539492.893 6  24600962.266
  24600969.828    24600971.285          30.100          24.700          39.400
 108297463.676 7  84231251.995 7                  20237940.727    20237939.949
  20237944.313                          43.800          43.600
 109565409.558 7  85375653.65346                  20849597.500
  20849601.941                          43.600          36.000
 118263536.064 6  92153407.28743                  22504800.930
  22504805.934                          37.400          21.100
 125709099.400 5  97955220.15442                  23921662.211
  23921666.676                          30.800          16.300
 117603100.236 6  91469103.801 6                  22038768.063    22038765.477
  22038771.352                          38.000          37.900
 124429342.431 5  96957968.24244  92918051.085 7  23678121.766
  23678130.938    23678131.313          33.300          29.400          44.100
 110684753.404 7  86247932.92845  82654261.380 8  21062618.445
  21062626.840    21062625.582          43.800          34.000          51.000
 123699106.085 5  96210435.678 6                  23205644.313    23205642.738
  23205649.500                          33.300          36.700
 113797696.388 7  88673534.37345                  21654974.133
  21654976.613                          43.500          34.400
 113122562.281 5  87984147.526 6                  21176760.422    21176761.504
  21176764.770                          35.000          36.200
 107884241.611 7  83909874.939 7                  20189037.461    20189037.996
  20189042.820                          43.600          44.600
 130195202.719 7                  97223708.719 7  24775323.797
                  24775329.578          43.100                          46.400
 128340736.018 7                  95838875.187 8  24422430.641
                  24422435.668          45.100                          48.300
 113946699.520 6                  85090086.372 7  21683333.945
                  21683338.262          38.600                          42.300
 138052143.012 6                 103090912.333 7  26270449.633
                  26270456.344          37.200                          42.100
 120381517.793 7                  89895318.132 8  22907838.477
                  22907843.238          45.500                          49.400
 20  8 16  0 31 30.0000000  0 22R01G17G08G03R18G06R17G28G11G19R02G30
                                G01R14G22R16R15E36E02E14E15E30
 123517924.556 5  96069643.842 5                  23106610.930    23106609.883
  23106616.348                          30.700          31.400
 118386432.596 6  92249073.97346                  22528156.297
  22528161.762                          38.500          38.800
 128279479.593 4  99958080.69942  95793120.215 6  24410774.250
  24410784.348    24410782.883          28.600          12.600          39.700
 112092800.447 7  87345142.82447  83705763.967 8  21330563.102
  21330570.813    21330571.566          43.300          46.200          50.700
 111184601.084 6  86476832.030 7                  20828596.008    20828595.191
  20828601.063                          40.300          43.600
 129275908.058 5 100734477.24144  96537206.316 6  24600378.297
  24600387.031    24600388.480          30.100          24.900          39.700
 108298675.800 7  84232194.755 7                  20238167.539    20238166.559
  20238170.777                          43.800          43.500
 109564136.450 7  85374661.62246                  20849355.352
  20849359.719                          43.800          36.000
 118266201.904 6  92155484.56443                  22505308.664
  22505313.207                          37.600          20.900
 125706350.871 5  97953078.43142                  23921139.531
  23921143.574                          30.800          17.400
 117600490.169 6  91467073.766 6                  22038278.648    22038276.309
  22038282.152                          37.900          37.900
 124432070.408 5  96960093.94044  92920088.196 7  23678641.273
  23678650.164    23678650.430          32.900          29.700          43.900
 110687073.017 7  86249740.42345  82655993.549 8  21063060.156
  21063068.340    21063067.070          43.800          34.300          50.800
 123703575.770 5  96213912.100 6                  23206484.836    23206481.586
  23206488.051                          33.900          36.500
 113798053.181 7  88673812.39045                  21655041.734
  21655044.375                          43.300          34.000
 113120806.393 5  87982781.878 6                  21176432.547    21176432.719
  21176436.105                          35.100          36.500
 107886609.299 7  83911716.472 7                  20189480.852    20189481.020
  20189485.977                          43.500          44.500
 130196956.895 7                  97225018.649 7  24775657.438
                  24775663.313          42.700                          46.700
 128342973.184 7                  95840545.800 8  24422856.469
                  24422861.332          45.300                          48.700
 113940844.706 6                  85085714.251 7  21682220.008
                  21682223.992          38.700                          42.400
 138050282.106 6                 103089522.715 6  26270095.133
                  26270102.293          37.200                          41.900
 120381081.783 7                  89894992.530 8  22907755.219
                  22907760.215          45.100                          48.900
 20  8 16  0 31 31.0000000  0 22R01G17G08G03R18G06R17G28G11G19R02G30
                                G01R14G22R16R15E36E02E14E15E30
 123519256.591 5  96070679.864 5                  23106858.680    23106858.895
  23106865.594                          30.700          31.400
 118384513.822 6  92247578.82246                  22527791.148
  22527796.660                          38.300          39.100
 128281996.268 4  99960041.71342  95794999.561 6  24411253.570
  24411263.195    24411261.824          29.900          13.900          39.500
 112091225.817 7  87343915.83947  83704588.102 8  21330263.531
  21330271.117    21330271.852          43.300          46.300          50.700
 111183381.896 6  86475883.775 7                  20828367.719    20828366.648
  20828372.539                          40.400          43.700
 129272846.201 5 100732091.38644  96534919.860 6  24599796.234
  24599804.508    24599805.793          30.500          24.700          39.500
 108299888.126 7  84233137.674 7                  20238394.664    20238393.094
  20238397.242                          43.600          43.500
 109562863.773 7  85373669.92246                  20849113.070
  20849117.586                          43.500          36.400
 118268867.900 6  92157561.95043                  22505815.523
  22505820.523                          37.400          21.500
 125703602.334 5  97950936.71142                  23920616.453
  23920620.598                          31.200          16.900
 117597880.650 6  91465044.126 6                  22037789.250    22037787.879
  22037793.078                          37.700          38.000
 124434798.499 5  96962219.73144  92922125.439 7  23679159.250
  23679169.336    23679169.492          33.900          28.400          44.100
 110689392.898 7  86251548.11445  82657725.943 8  21063501.430
  21063509.988    21063508.484          43.400          34.700          50.700
 123708045.533 5  96217388.621 6                  23207321.188    23207320.105
  23207326.551                          33.500          36.400
 113798410.587 7  88674090.89345                  21655109.938
  21655112.543                          43.100          34.100
 113119051.310 5  87981416.808 6                  21176104.477    21176104.180
  21176107.563                          35.100          36.300
 107888977.730 7  83913558.572 7                  20189925.320    20189924.332
  20189929.148                          43.400          44.700
 130198711.081 7                  97226328.593 7  24775991.305
                  24775997.191          42.600                          46.700
 128345210.669 7                  95842216.642 8  24423282.234
                  24423287.035          45.100                          48.500
 113934990.146 6                  85081342.355 7  21681105.883
                  21681109.734          38.700                          42.900
 138048421.370 6                 103088133.185 6  26269741.336
                  26269748.266          37.600                          41.900
 120380646.207 7                  89894667.272 8  22907672.477
                  22907677.383          45.100                          48.900
