     2.11           OBSERVATION DATA    M (MIXED)           RINEX VERSION / TYPE
teqc  2016Nov7      KASI/KOREA          20200816 01:03:01UTCPGM / RUN BY / DATE
Linux 2.4.20-8|Pentium IV|gcc|Linux|486/DX+                 COMMENT
  0.0000      (antenna height)                              COMMENT
 +36.39942714 (latitude)                                    COMMENT
+127.37448264 (longitude)                                   COMMENT
0116.859      (elevation)                                   COMMENT
BIT 2 OF LLI FLAGS DATA COLLECTED UNDER A/S CONDITION       COMMENT
23902M002 (COGO code)                                       COMMENT
DAEJ                                                        MARKER NAME
23902M002                                                   MARKER NUMBER
KASI GPS            KASI/KOREA                              OBSERVER / AGENCY
5412K48145          TRIMBLE NETR9       5.44                REC # / TYPE / VERS
4923363230          TRM59800.00     SCIS                    ANT # / TYPE
 -3120043.1527  4084613.7158  3764026.4700                  APPROX POSITION XYZ
        0.0000        0.0000        0.0000                  ANTENNA: DELTA H/E/N
     1     1                                                WAVELENGTH FACT L1/2
    10    L1    L2    L5    C1    P1    P2    C5    S1    S2# / TYPES OF OBSERV
          S5                                                # / TYPES OF OBSERV
    18                                                      LEAP SECONDS
 SNR is mapped to RINEX snr flag value [0-9]                COMMENT
  L1 & L2: min(max(int(snr_dBHz/6), 0), 9)                  COMMENT
  2020     8    16     0    45    0.0000000     GPS         TIME OF FIRST OBS
                                                            END OF HEADER
 20  8 16  0 45  0.0000000  0 21R01G17G08G03R18G06R17G28G11G19R02G30
                                G01G22R16R15E36E02E14E15E30
 124847713.065 5  97103923.119 4                  23355374.242    23355374.410
  23355381.320                          30.100          29.500
 116852385.885 6  91053713.42446                  22236236.273
  22236241.707                          39.600          40.700
 130351225.38814                  97340201.526 6  24805014.508
                  24805023.660          25.900                          36.700
 111020933.542 7  86509921.99747  82905344.065 8  21126593.383
  21126601.047    21126602.027          42.900          46.700          51.400
 110278360.042 7  85771978.348 7                  20658825.688    20658825.445
  20658830.492                          42.100          42.600
 126861113.211 5  98852819.55144  94733951.118 7  24140857.133
  24140866.273    24140867.262          31.900          27.700          42.500
 109338240.672 7  85040745.096 7                  20432434.133    20432434.191
  20432438.375                          43.000          42.900
 108691124.336 7  84694392.33845                  20683226.438
  20683231.164                          43.200          35.500
 120467980.543 5  93871155.30443                  22924293.758
  22924298.570                          35.600          19.600
 123489618.710 5  96225755.36543                  23499308.563
  23499313.121                          34.000          19.900
 115674977.952 6  89969453.928 6                  21677437.148    21677436.273
  21677442.383                          38.500          39.400
 126684170.779 5  98714976.40644  94601850.266 7  24107202.711
  24107211.027    24107211.406          32.300          28.400          42.900
 112660023.179 7  87787103.97645  84129300.235 8  21438499.742
  21438508.270    21438507.230          42.200          31.500          50.200
 114292139.592 7  89058814.85745                  21749063.117
  21749066.113                          42.200          33.800
 111969790.690 5  87087547.410 6                  20960960.500    20960960.359
  20960963.402                          35.300          37.000
 110038937.131 7  85585748.944 7                  20592260.672    20592259.902
  20592264.695                          42.700          43.100
 131633045.583 6                  98297422.239 7  25048936.477
                  25048942.363          41.900                          45.300
 130259399.375 7                  97271642.922 7  24787540.867
                  24787545.078          44.000                          47.800
 109303617.275 6                  81622850.347 7  20799785.406
                  20799789.293          41.400                          45.700
 136592433.086 6                 102000869.678 7  25992675.555
                  25992681.887          38.400                          42.300
 120182189.780 7                  89746469.020 8  22869907.805
                  22869912.863          46.300                          49.800
 20  8 16  0 45  1.0000000  0 21R01G17G08G03R18G06R17G28G11G19R02G30
                                G01G22R16R15E36E02E14E15E30
 124849657.665 5  97105435.593 4                  23355738.750    23355738.289
  23355745.070                          30.600          29.800
 116850518.619 6  91052258.41646                  22235880.906
  22235886.367                          39.700          40.600
 130353824.05214                  97342142.112 6  24805507.570
                  24805518.602          27.300                          36.800
 111019868.977 7  86509092.46347  82904549.095 8  21126391.258
  21126398.441    21126399.469          42.600          46.800          51.300
 110277338.737 7  85771183.992 7                  20658634.695    20658633.777
  20658639.000                          42.200          43.000
 126858216.175 5  98850562.11844  94731787.756 7  24140306.359
  24140314.930    24140315.895          33.000          28.900          42.600
 109339591.535 7  85041795.770 7                  20432687.719    20432686.480
  20432690.766                          42.900          43.000
 108690248.658 7  84693709.99246                  20683059.859
  20683064.652                          43.000          36.000
 120470747.644 5  93873311.53143                  22924820.305
  22924825.219                          34.800          19.600
 123486895.553 5  96223633.46343                  23498790.219
  23498794.871                          33.700          19.900
 115672849.627 6  89967798.557 6                  21677037.914    21677037.367
  21677043.449                          38.100          39.400
 126686991.026 5  98717173.98644  94603956.346 7  24107739.953
  24107747.711    24107748.219          32.400          29.600          42.600
 112662565.755 7  87789085.20745  84131198.926 8  21438983.984
  21438992.164    21438990.941          42.300          32.300          50.100
 114293000.105 7  89059485.38545                  21749226.555
  21749229.832                          42.400          33.500
 111968712.275 5  87086708.619 6                  20960759.539    20960758.172
  20960761.617                          35.700          37.000
 110041868.874 7  85588029.174 7                  20592809.297    20592808.891
  20592813.305                          42.900          43.400
 131634834.467 7                  98298758.087 7  25049276.852
                  25049282.840          42.000                          45.500
 130261888.170 7                  97273501.428 8  24788014.188
                  24788018.551          44.400                          48.000
 109298044.023 6                  81618688.507 7  20798724.000
                  20798728.723          41.300                          45.500
 136590693.394 6                 101999570.564 7  25992344.641
                  25992350.781          38.900                          42.200
 120182136.676 7                  89746429.365 8  22869897.523
                  22869902.836          46.000                          49.900
 20  8 16  0 45  2.0000000  0 21R01G17G08G03R18G06R17G28G11G19R02G30
                                G01G22R16R15E36E02E14E15E30
 124851603.018 4  97106948.700 5                  23356103.234    23356102.020
  23356109.000                          29.900          30.300
 116848651.428 6  91050803.45546                  22235525.719
  22235530.965                          40.200          40.600
 130356422.86514                  97344082.783 6  24806002.977
                  24806013.063          26.800                          36.600
 111018805.059 7  86508263.43747  82903754.607 8  21126188.695
  21126196.004    21126196.996          42.700          46.900          51.300
 110276317.676 7  85770389.829 7                  20658444.008    20658442.766
  20658447.711                          42.100          43.100
 126855319.334 5  98848304.86344  94729624.564 7  24139755.164
  24139763.602    24139764.879          32.200          27.700          42.400
 109340942.545 7  85042846.557 7                  20432940.047    20432939.047
  20432943.332                          42.700          43.500
 108689373.486 7  84693028.04046                  20682893.273
  20682898.109                          43.000          36.300
 120473514.818 5  93875467.75143                  22925347.305
  22925351.758                          35.400          19.300
 123484172.474 5  96221511.57543                  23498271.945
  23498276.898                          34.000          20.400
 115670721.986 6  89966143.701 6                  21676638.266    21676638.547
  21676644.676                          38.300          39.300
 126689811.404 5  98719371.68644  94606062.497 7  24108276.375
  24108284.363    24108285.098          32.200          28.300          43.000
 112665108.610 7  87791066.64345  84133097.788 8  21439467.906
  21439475.992    21439474.949          42.100          32.600          50.000
 114293861.200 7  89060156.37645                  21749390.211
  21749393.824                          42.400          33.300
 111967634.731 5  87085870.511 6                  20960556.773    20960557.012
  20960560.000                          35.400          37.000
 110044801.285 7  85590309.939 7                  20593357.875    20593357.633
  20593362.047                          42.800          43.300
 131636623.426 7                  98300093.964 7  25049616.984
                  25049623.223          42.000                          45.800
 130264377.248 7                  97275360.160 8  24788487.656
                  24788492.113          44.400                          48.000
 109292471.185 6                  81614526.969 7  20797663.859
                  20797668.438          41.500                          45.500
 136588953.838 6                 101998271.553 7  25992013.414
                  25992019.762          39.100                          42.300
 120182084.049 7                  89746390.062 8  22869887.516
                  22869892.930          45.700                          50.000
 20  8 16  0 45  3.0000000  0 21R01G17G08G03R18G06R17G28G11G19R02G30
                                G01G22R16R15E36E02E14E15E30
 124853549.153 4  97108462.278 4                  23356467.266    23356466.520
  23356473.145                          29.800          29.800
 116846784.288 6  91049348.54346                  22235170.672
  22235175.719                          40.200          40.600
 130359021.869 4                  97346023.525 6  24806499.641
                  24806507.621          28.300                          36.500
 111017741.788 7  86507434.90847  82902960.603 8  21125985.844
  21125993.746    21125994.703          42.700          46.800          51.600
 110275296.780 6  85769595.812 7                  20658252.156    20658251.277
  20658256.453                          41.800          43.200
 126852422.739 5  98846047.77544  94727461.516 7  24139204.031
  24139212.566    24139213.332          31.600          27.500          42.200
 109342293.714 7  85043897.468 7                  20433192.406    20433191.305
  20433195.781                          42.600          43.400
 108688498.836 7  84692346.50446                  20682727.039
  20682731.531                          43.100          36.300
 120476282.119 6  93877624.07643                  22925872.945
  22925878.445                          36.200          20.100
 123481449.445 5  96219389.72443                  23497753.625
  23497758.594                          33.900          20.900
 115668594.981 6  89964489.372 6                  21676240.438    21676239.813
  21676246.109                          38.700          39.600
 126692631.888 5  98721569.46944  94608168.673 7  24108812.484
  24108821.129    24108821.645          32.000          27.000          43.000
 112667651.675 7  87793048.25645  84134996.848 8  21439951.328
  21439959.898    21439958.820          42.400          32.700          50.000
 114294722.955 7  89060827.87145                  21749554.398
  21749557.680                          42.300          33.500
 111966558.038 5  87085033.115 6                  20960355.563    20960355.352
  20960358.430                          35.400          37.300
 110047734.323 7  85592591.188 7                  20593906.727    20593906.289
  20593910.977                          43.000          43.300
 131638412.370 7                  98301429.879 7  25049957.969
                  25049963.668          42.100                          45.500
 130266866.612 7                  97277219.107 8  24788961.383
                  24788965.855          44.200                          48.100
 109286898.818 6                  81610365.796 7  20796603.422
                  20796607.848          41.400                          45.300
 136587214.445 6                 101996972.641 7  25991682.516
                  25991688.754          39.300                          42.100
 120182031.882 7                  89746351.113 8  22869877.633
                  22869882.992          45.900                          49.900
 20  8 16  0 45  4.0000000  0 21R01G17G08G03R18G06R17G28G11G19R02G30
                                G01G22R16R15E36E02E14E15E30
 124855495.974 5  97109976.484 5                  23356831.898    23356830.938
  23356837.313                          30.300          30.100
 116844917.244 6  91047893.70246                  22234815.344
  22234820.395                          39.800          40.900
 130361620.89014                  97347964.399 6  24806992.953
                  24807001.945          26.800                          36.300
 111016679.174 7  86506606.89547  82902167.100 8  21125783.961
  21125791.516    21125792.500          43.100          46.800          51.400
 110274276.138 6  85768801.972 7                  20658060.984    20658060.293
  20658065.234                          41.700          43.100
 126849526.377 5  98843790.86244  94725298.646 7  24138652.297
  24138661.547    24138662.320          32.300          28.100          42.600
 109343645.052 7  85044948.503 7                  20433444.797    20433443.973
  20433448.406                          42.700          43.900
 108687624.691 7  84691665.34545                  20682560.633
  20682565.184                          43.400          35.900
 120479049.523 5  93879780.54743                  22926400.414
  22926405.082                          35.400          19.600
 123478726.491 5  96217267.95743                  23497236.102
  23497240.305                          33.500          20.600
 115666468.643 6  89962835.575 6                  21675842.445    21675841.168
  21675847.570                          38.600          39.700
 126695452.380 5  98723767.25644  94610274.923 7  24109349.078
  24109357.980    24109358.320          31.800          28.000          43.100
 112670194.999 7  87795030.07545  84136896.075 8  21440435.641
  21440443.895    21440442.699          42.100          32.600          49.600
 114295585.286 7  89061499.81645                  21749718.508
  21749721.887                          42.300          33.300
 111965482.223 5  87084196.322 6                  20960154.648    20960153.602
  20960157.008                          35.600          37.500
 110050667.971 7  85594872.902 7                  20594455.023    20594455.613
  20594459.902                          43.300          43.700
 131640201.336 7                  98302765.810 7  25050298.117
                  25050304.078          42.000                          45.700
 130269356.287 7                  97279078.263 8  24789435.148
                  24789439.891          44.400                          48.100
 109281326.868 6                  81606204.916 7  20795543.148
                  20795547.602          41.400                          45.500
 136585475.192 6                 101995673.856 7  25991351.656
                  25991358.020          39.300                          42.300
 120181980.204 7                  89746312.526 8  22869868.000
                  22869873.195          46.000                          49.700
 20  8 16  0 45  5.0000000  0 21R01G17G08G03R18G06R17G28G11G19R02G30
                                G01G22R16R15E36E02E14E15E30
 124857443.523 4  97111491.286 4                  23357195.203    23357194.945
  23357201.684                          29.300          29.800
 116843050.294 6  91046438.93146                  22234460.344
  22234465.184                          39.600          40.100
 130364220.004 4                  97349905.323 6  24807487.516
                  24807496.969          26.800                          36.400
 111015617.203 7  86505779.38747  82901374.071 8  21125581.359
  21125589.445    21125590.367          42.800          46.800          50.900
 110273255.722 6  85768008.335 7                  20657870.266    20657869.234
  20657874.254                          41.300          43.300
 126846630.210 5  98841534.11244  94723135.932 7  24138101.156
  24138110.488    24138111.164          32.500          28.000          42.600
 109344996.559 7  85045999.676 7                  20433696.844    20433696.355
  20433700.949                          42.600          44.200
 108686751.088 7  84690984.62045                  20682394.203
  20682399.023                          43.000          35.600
 120481817.077 5  93881937.06543                  22926926.727
  22926931.809                          35.500          19.600
 123476003.550 5  96215146.18443                  23496717.438
  23496722.145                          33.800          19.600
 115664342.998 6  89961182.297 6                  21675443.469    21675443.340
  21675449.133                          38.400          39.800
 126698273.070 5  98725965.20144  94612381.225 7  24109886.789
  24109894.805    24109895.145          31.900          28.700          43.200
 112672738.565 6  87797012.06745  84138795.499 8  21440919.578
  21440928.121    21440926.832          41.800          32.400          50.000
 114296448.255 7  89062172.26445                  21749882.977
  21749885.941                          42.400          33.500
 111964407.209 5  87083360.247 6                  20959953.547    20959952.543
  20959955.738                          35.600          37.000
 110053602.257 7  85597155.126 7                  20595005.047    20595004.313
  20595009.090                          43.200          43.900
 131641990.384 7                  98304101.788 7  25050638.406
                  25050644.605          42.200                          45.700
 130271846.228 7                  97280937.651 7  24789909.211
                  24789913.656          44.600                          47.900
 109275755.360 6                  81602044.374 7  20794483.023
                  20794487.156          41.500                          45.600
 136583736.110 6                 101994375.179 7  25991020.586
                  25991026.898          38.800                          42.100
 120181929.023 7                  89746274.296 8  22869858.063
                  22869863.297          45.700                          50.100
 20  8 16  0 45  6.0000000  0 21R01G17G08G03R18G06R17G28G11G19R02G30
                                G01G22R16R15E36E02E14E15E30
 124859391.716 4  97113006.559 4                  23357560.094    23357558.973
  23357566.180                          29.600          27.900
 116841183.365 6  91044984.18546                  22234104.797
  22234109.895                          39.600          40.300
 130366819.18914                  97351846.316 6  24807982.969
                  24807991.453          26.800                          36.100
 111014555.906 7  86504952.41047  82900581.538 8  21125379.781
  21125387.473    21125388.402          43.200          46.700          50.800
 110272235.598 6  85767214.888 7                  20657678.305    20657677.766
  20657683.082                          41.600          43.400
 126843734.256 5  98839277.51844  94720973.368 7  24137550.023
  24137559.383    24137560.184          33.300          28.700          42.600
 109346348.223 7  85047050.964 7                  20433950.758    20433949.168
  20433953.656                          42.600          43.600
 108685877.962 7  84690304.25745                  20682228.328
  20682232.707                          43.300          35.700
 120484584.645 6  93884093.59643                  22927453.117
  22927458.496                          36.100          19.600
 123473280.596 5  96213024.38643                  23496199.883
  23496203.883                          33.900          19.300
 115662218.020 6  89959529.559 6                  21675045.313    21675044.566
  21675050.848                          38.300          39.800
 126701093.688 5  98728163.07944  94614487.548 7  24110422.734
  24110431.691    24110432.043          31.900          28.500          43.400
 112675282.373 6  87798994.25845  84140695.085 8  21441403.609
  21441412.223    21441410.859          41.700          32.400          50.000
 114297311.799 7  89062845.15645                  21750047.695
  21750050.227                          42.300          33.400
 111963333.090 5  87082524.793 6                  20959752.445    20959751.055
  20959754.758                          35.400          37.200
 110056537.163 7  85599437.846 7                  20595555.047    20595553.918
  20595558.359                          43.300          43.400
 131643779.431 6                  98305437.752 7  25050978.570
                  25050985.238          41.900                          45.900
 130274336.462 7                  97282797.245 7  24790383.000
                  24790387.527          44.600                          47.900
 109270184.250 6                  81597884.150 7  20793422.773
                  20793427.277          41.300                          45.600
 136581997.121 6                 101993076.601 7  25990689.469
                  25990695.855          38.700                          42.400
 120181878.290 7                  89746236.410 8  22869848.313
                  22869853.613          45.900                          50.000
 20  8 16  0 45  7.0000000  0 21R01G17G08G03R18G06R17G28G11G19R02G30
                                G01G22R16R15E36E02E14E15E30
 124861340.77314  97114522.442 4                  23357926.430    23357923.336
  23357930.734                          29.700          29.600
 116839316.510 6  91043529.49546                  22233749.906
  22233754.672                          39.900          40.200
 130369418.573 4                  97353787.411 5  24808477.766
                  24808485.547          26.400                          35.900
 111013495.267 7  86504125.93447  82899789.503 8  21125177.484
  21125185.516    21125186.547          43.600          46.600          50.800
 110271215.673 6  85766421.600 7                  20657487.820    20657486.996
  20657491.969                          41.000          43.500
 126840838.538 5  98837021.10344  94718810.983 7  24136999.391
  24137008.449    24137009.121          33.100          28.900          42.500
 109347700.020 7  85048102.356 7                  20434203.258    20434201.480
  20434206.250                          42.700          43.100
 108685005.356 7  84689624.30545                  20682061.914
  20682066.660                          43.200          35.100
 120487352.425 5  93886250.30243                  22927980.297
  22927985.141                          35.700          19.300
 123470557.748 5  96210902.68343                  23495682.219
  23495685.586                          33.800          19.600
 115660093.704 6  89957877.283 6                  21674647.141    21674646.984
  21674652.621                          38.900          39.800
 126703914.430 5  98730361.04744  94616593.959 7  24110958.750
  24110968.434    24110969.082          32.300          27.700          43.900
 112677826.402 7  87800976.60845  84142594.849 8  21441887.531
  21441896.426    21441894.977          42.100          31.600          50.000
 114298175.965 7  89063518.53345                  21750212.031
  21750214.750                          42.400          33.000
 111962259.840 5  87081690.033 6                  20959552.227    20959550.297
  20959553.711                          35.400          36.800
 110059472.751 7  85601721.081 7                  20596103.680    20596103.254
  20596107.668                          43.300          43.100
 131645568.543 7                  98306773.767 7  25051319.211
                  25051325.582          42.200                          45.800
 130276826.991 7                  97284657.043 8  24790856.719
                  24790861.430          44.400                          48.000
 109264613.606 6                  81593724.245 7  20792362.797
                  20792367.113          40.900                          45.300
 136580258.309 6                 101991778.139 7  25990358.719
                  25990365.055          37.900                          42.100
 120181828.049 7                  89746198.902 8  22869838.891
                  22869844.098          46.000                          49.800
 20  8 16  0 45  8.0000000  0 21R01G17G08G03R18G06R17G28G11G19R02G30
                                G01G22R16R15E36E02E14E15E30
 124863290.443 4  97116038.885 4                  23358292.602    23358287.371
  23358295.473                          29.400          29.000
 116837449.735 6  91042074.86546                  22233394.195
  22233399.480                          39.900          40.600
 130372018.09014                  97355728.517 5  24808971.508
                  24808980.109          26.800                          35.800
 111012435.214 7  86503299.92247  82898997.919 8  21124976.523
  21124983.816    21124984.863          43.400          46.700          51.000
 110270195.945 6  85765628.491 7                  20657297.531    20657295.516
  20657300.938                          41.000          43.100
 126837943.020 5  98834764.85044  94716648.738 7  24136448.164
  24136457.340    24136457.977          32.900          28.900          42.400
 109349051.953 7  85049153.862 7                  20434455.414    20434454.398
  20434458.793                          42.800          43.100
 108684133.289 7  84688944.77945                  20681896.242
  20681900.852                          42.600          35.400
 120490120.257 5  93888407.05243                  22928506.570
  22928511.703                          35.700          18.600
 123467834.888 5  96208780.97143                  23495164.117
  23495167.602                          34.300          19.900
 115657969.943 6  89956225.514 6                  21674249.695    21674248.617
  21674254.691                          38.700          39.800
 126706735.249 5  98732559.07944  94618700.385 7  24111496.359
  24111505.160    24111505.984          32.600          27.500          43.400
 112680370.671 7  87802959.15945  84144494.801 8  21442371.711
  21442380.703    21442379.156          42.300          31.700          50.100
 114299040.723 7  89064192.36645                  21750376.703
  21750379.238                          42.600          32.800
 111961187.442 5  87080855.946 6                  20959349.305    20959349.305
  20959353.078                          35.700          36.900
 110062408.968 7  85604004.808 7                  20596652.703    20596652.590
  20596657.051                          42.700          43.400
 131647357.657 7                  98308109.798 7  25051659.711
                  25051666.020          42.300                          45.700
 130279317.788 7                  97286517.059 7  24791330.844
                  24791335.332          44.200                          47.800
 109259043.361 6                  81589564.649 7  20791303.000
                  20791307.203          41.300                          45.600
 136578519.622 6                 101990479.780 7  25990027.773
                  25990034.211          38.000                          42.400
 120181778.292 7                  89746161.733 8  22869829.289
                  22869834.559          46.000                          50.200
 20  8 16  0 45  9.0000000  0 21R01G17G08G03R18G06R17G28G11G19R02G30
                                G01G22R16R15E36E02E14E15E30
 124865240.875 4  97117555.856 4                  23358656.906    23358652.227
  23358660.297                          29.000          28.300
 116835583.007 6  91040620.27146                  22233038.695
  22233044.199                          39.800          40.800
 130374617.518 4                  97357669.732 5  24809466.203
                  24809474.777          28.300                          35.600
 111011375.853 7  86502474.44347  82898206.823 8  21124774.289
  21124782.164    21124783.242          43.800          46.700          50.800
 110269176.424 6  85764835.537 7                  20657106.063    20657104.664
  20657110.000                          41.100          43.200
 126835047.704 5  98832508.77344  94714486.658 7  24135896.453
  24135906.504    24135906.984          32.200          28.300          42.300
 109350404.034 7  85050205.478 7                  20434707.344    20434706.832
  20434711.461                          42.600          43.400
 108683261.676 7  84688265.59346                  20681730.320
  20681735.016                          42.600          36.300
 120492888.227 5  93890563.93943                  22929033.359
  22929038.488                          35.500          18.300
 123465112.041 5  96206659.28943                  23494645.844
  23494649.336                          34.500          19.300
 115655846.861 6  89954574.186 6                  21673852.180    21673850.684
  21673856.879                          38.400          39.600
 126709556.086 5  98734757.12944  94620806.848 7  24112033.508
  24112041.863    24112042.746          32.800          28.200          43.800
 112682915.157 6  87804941.87345  84146394.907 8  21442855.680
  21442864.641    21442863.367          41.800          32.100          50.200
 114299906.070 7  89064866.65945                  21750541.078
  21750543.840                          42.000          33.400
 111960115.879 5  87080022.513 6                  20959149.234    20959148.887
  20959152.438                          35.500          37.000
 110065345.781 7  85606289.003 7                  20597202.820    20597202.516
  20597206.742                          42.500          43.500
 131649146.765 7                  98309445.814 7  25052000.508
                  25052006.574          42.400                          45.700
 130281808.856 7                  97288377.279 7  24791805.016
                  24791809.441          43.700                          47.700
 109253473.547 6                  81585405.364 7  20790243.156
                  20790247.281          41.600                          45.700
 136576781.051 6                 101989181.485 7  25989697.141
                  25989703.445          38.100                          42.300
 120181728.967 7                  89746124.898 8  22869819.906
                  22869825.125          46.100                          50.200
 20  8 16  0 45 10.0000000  0 21R01G17G08G03R18G06R17G28G11G19R02G30
                                G01G22R16R15E36E02E14E15E30
 124867192.037 4  97119073.473 4                  23359021.336    23359017.723
  23359025.355                          29.400          28.900
 116833716.365 6  91039165.73946                  22232683.617
  22232688.910                          39.600          40.600
 130377217.135 4                  97359610.991 5  24809961.883
                  24809969.801          28.000                          35.400
 111010317.172 7  86501649.49947  82897416.241 8  21124573.125
  21124580.707    21124581.824          44.100          46.800          51.000
 110268157.168 6  85764042.774 7                  20656915.391    20656913.727
  20656919.008                          40.900          43.600
 126832152.65315  98830252.89854  94712324.758 7  24135346.758
  24135355.391    24135356.105          31.900          28.500          42.600
 109351756.334 7  85051257.271 7                  20434960.078    20434959.645
  20434964.109                          42.600          43.700
 108682390.623 7  84687586.85346                  20681564.344
  20681569.090                          42.300          36.000
 120495656.289 5  93892720.83243                  22929559.297
  22929565.402                          35.700          18.600
 123462389.292 5  96204537.66543                  23494127.672
  23494131.125                          33.700          19.900
 115653724.438 6  89952923.419 6                  21673454.047    21673452.723
  21673459.000                          38.500          39.800
 126712377.014 5  98736955.26544  94622913.401 7  24112569.703
  24112578.496    24112579.387          32.000          28.600          43.700
 112685459.925 6  87806924.80545  84148295.221 8  21443339.711
  21443348.938    21443347.668          41.800          32.100          49.900
 114300772.081 7  89065541.46545                  21750705.695
  21750708.727                          42.000          34.000
 111959045.175 5  87079189.777 6                  20958948.602    20958948.152
  20958951.996                          35.400          37.100
 110068283.260 7  85608573.696 7                  20597751.906    20597751.836
  20597756.664                          43.000          43.600
 131650935.965 7                  98310781.908 7  25052340.586
                  25052346.902          42.500                          46.200
 130284300.224 7                  97290237.717 7  24792279.234
                  24792283.441          44.200                          47.300
 109247904.174 6                  81581246.432 7  20789183.109
                  20789187.395          41.600                          45.700
 136575042.661 6                 101987883.350 7  25989366.313
                  25989372.535          37.900                          42.300
 120181680.162 7                  89746088.466 8  22869810.898
                  22869815.938          46.300                          50.300
 20  8 16  0 45 11.0000000  0 21R01G17G08G03R18G06R17G28G11G19R02G30
                                G01G22R16R15E36E02E14E15E30
 124869143.972 4  97120591.587 4                  23359386.195    23359383.301
  23359390.375                          29.900          27.300
 116831849.811 6  91037711.28746                  22232328.414
  22232333.578                          39.600          40.500
 130379816.892 4                  97361552.346 5  24810457.414
                  24810464.859          28.000                          35.800
 111009259.085 7  86500825.01647  82896626.132 8  21124371.578
  21124379.258    21124380.363          44.300          46.800          51.000
 110267138.161 6  85763250.232 7                  20656724.805    20656722.742
  20656728.012                          40.900          43.700
 126829257.730 5  98827997.10544  94710162.995 7  24134795.734
  24134804.648    24134805.121          33.000          28.500          42.600
 109353108.803 7  85052309.203 7                  20435212.578    20435212.250
  20435216.820                          42.900          43.700
 108681520.076 7  84686908.50645                  20681398.789
  20681403.387                          42.600          35.900
 120498424.464 5  93894877.87943                  22930086.961
  22930092.203                          35.800          19.300
 123459666.579 5  96202416.08643                  23493609.047
  23493612.945                          32.800          19.300
 115651602.620 6  89951273.129 6                  21673057.547    21673055.145
  21673061.516                          38.400          39.400
 126715197.975 5  98739153.41044  94625019.986 7  24113106.195
  24113115.367    24113116.105          31.800          27.400          43.900
 112688004.935 6  87808907.94045  84150195.704 8  21443824.789
  21443833.191    21443831.996          41.800          33.200          50.200
 114301638.658 7  89066216.72945                  21750870.219
  21750873.688                          42.000          33.600
 111957975.408 5  87078357.732 6                  20958748.953    20958748.027
  20958751.871                          34.900          37.400
 110071221.368 7  85610858.893 7                  20598301.203    20598302.156
  20598306.336                          42.900          43.200
 131652725.166 7                  98312118.006 7  25052681.016
                  25052687.305          42.300                          46.200
 130286791.907 7                  97292098.373 7  24792753.500
                  24792757.590          44.500                          47.100
 109242335.253 6                  81577087.808 7  20788123.313
                  20788127.746          41.400                          46.100
 136573304.419 6                 101986585.299 7  25989035.711
                  25989041.574          38.200                          42.400
 120181631.833 7                  89746052.371 8  22869801.469
                  22869806.641          46.300                          50.100
 20  8 16  0 45 12.0000000  0 21R01G17G08G03R18G06R17G28G11G19R02G30
                                G01G22R16R15E36E02E14E15E30
 124871096.61714  97122110.283 4                  23359749.727    23359748.523
  23359755.711                          29.500          29.400
 116829983.301 6  91036256.86046                  22231972.898
  22231978.648                          39.200          40.500
 130382416.78614                  97363493.791 6  24810951.313
                  24810959.762          26.400                          36.100
 111008201.701 7  86500001.07947  82895836.532 8  21124170.602
  21124178.168    21124179.238          44.000          46.700          51.000
 110266119.412 6  85762457.844 7                  20656532.820    20656531.832
  20656537.164                          41.100          43.800
 126826363.140 5  98825741.59444  94708001.413 7  24134245.359
  24134253.965    24134254.246          32.600          28.900          42.700
 109354461.425 7  85053361.228 7                  20435465.805    20435464.875
  20435469.484                          42.600          43.400
 108680650.053 7  84686230.57045                  20681233.563
  20681237.789                          42.700          35.800
 120501192.751 5  93897034.95443                  22930614.250
  22930618.984                          35.600          18.600
 123456943.935 5  96200294.54943                  23493091.039
  23493094.910                          34.300          20.600
 115649481.477 6  89949623.354 6                  21672658.875    21672657.344
  21672664.027                          38.300          39.700
 126718019.087 5  98741351.67544  94627126.630 7  24113644.266
  24113652.273    24113652.781          32.000          27.800          43.800
 112690550.188 7  87810891.24845  84152096.384 8  21444308.766
  21444317.547    21444316.301          42.000          32.600          50.000
 114302505.870 7  89066892.48245                  21751035.539
  21751038.574                          42.000          33.000
 111956906.470 5  87077526.295 6                  20958549.055    20958548.090
  20958551.777                          35.100          37.000
 110074160.174 7  85613144.608 7                  20598852.398    20598851.891
  20598856.398                          42.800          43.300
 131654514.425 7                  98313454.128 7  25053021.711
                  25053027.820          42.100                          46.100
 130289283.867 7                  97293959.252 7  24793227.328
                  24793231.898          44.200                          47.300
 109236766.737 6                  81572929.512 7  20787063.781
                  20787068.137          41.700                          45.700
 136571566.346 6                 101985287.374 7  25988704.984
                  25988711.082          38.700                          42.300
 120181583.986 7                  89746016.651 8  22869792.531
                  22869797.598          46.200                          50.300
 20  8 16  0 45 13.0000000  0 21R01G17G08G03R18G06R17G28G11G19R02G30
                                G01G22R16R15E36E02E14E15E30
 124873049.874 5  97123629.521 4                  23360116.313    23360114.258
  23360121.258                          30.100          29.400
 116828116.842 6  91034802.47746                  22231617.750
  22231623.324                          39.500          40.500
 130385016.662 4                  97365435.275 6  24811446.492
                  24811454.508          25.900                          36.400
 111007144.953 7  86499177.63847  82895047.380 8  21123969.648
  21123977.051    21123978.043          43.700          46.700          51.000
 110265100.843 6  85761665.638 7                  20656341.828    20656341.086
  20656346.359                          40.600          43.700
 126823468.609 5  98823486.12144  94705839.944 7  24133694.555
  24133703.230    24133703.805          32.000          28.000          43.300
 109355814.100 7  85054413.302 7                  20435719.281    20435718.180
  20435722.258                          43.200          43.100
 108679780.525 7  84685553.00645                  20681067.375
  20681072.410                          42.400          35.900
 120503961.118 6  93899192.16443                  22931140.594
  22931145.848                          36.100          18.300
 123454221.222 5  96198172.93943                  23492573.195
  23492576.867                          34.200          20.100
 115647361.005 6  89947974.054 6                  21672260.758    21672259.980
  21672266.559                          38.700          39.600
 126720840.205 5  98743549.94144  94629233.302 7  24114180.148
  24114189.195    24114189.848          31.200          28.100          43.700
 112693095.640 7  87812874.71645  84153997.203 8  21444793.641
  21444801.883    21444800.633          42.000          32.600          50.000
 114303373.663 7  89067568.67845                  21751200.789
  21751203.707                          42.000          33.500
 111955838.369 5  87076695.562 6                  20958348.867    20958348.246
  20958351.895                          35.400          36.900
 110077099.525 7  85615430.796 7                  20599402.336    20599402.148
  20599406.691                          42.600          43.100
 131656303.675 7                  98314790.253 7  25053362.305
                  25053368.223          42.000                          46.400
 130291776.072 7                  97295820.326 7  24793701.586
                  24793706.145          44.100                          47.300
 109231198.637 6                  81568771.505 7  20786004.063
                  20786008.363          41.200                          45.600
 136569828.366 6                 101983989.544 7  25988374.203
                  25988380.305          38.600                          42.200
 120181536.587 7                  89745981.248 8  22869783.508
                  22869788.641          45.900                          49.900
 20  8 16  0 45 14.0000000  0 21R01G17G08G03R18G06R17G28G11G19R02G30
                                G01G22R16R15E36E02E14E15E30
 124875003.995 4  97125149.427 4                  23360481.984    23360480.039
  23360486.836                          29.900          29.200
 116826250.553 6  91033348.23846                  22231263.078
  22231268.238                          39.500          41.000
 130387616.68914                  97367376.904 6  24811939.031
                  24811949.008          26.400                          36.200
 111006088.893 7  86498354.73347  82894258.775 8  21123768.516
  21123776.285    21123777.203          43.700          46.900          50.900
 110264082.575 6  85760873.655 7                  20656151.781    20656150.438
  20656155.566                          40.900          43.800
 126820574.444 5  98821230.91844  94703678.722 7  24133143.188
  24133152.594    24133153.012          32.400          28.100          43.000
 109357167.031 7  85055465.604 7                  20435971.664    20435970.684
  20435975.195                          43.000          43.100
 108678911.542 7  84684875.87946                  20680902.898
  20680907.117                          42.700          36.100
 120506729.704 6  93901349.50143                  22931667.164
  22931672.535                          36.100          19.000
 123451498.694 5  96196051.48343                  23492054.422
  23492058.676                          34.100          19.900
 115645241.216 6  89946325.387 6                  21671863.188    21671862.988
  21671869.219                          38.600          39.300
 126723661.437 5  98745748.29844  94631340.037 7  24114717.766
  24114726.012    24114726.695          31.900          27.400          43.600
 112695641.407 7  87814858.43045  84155898.264 8  21445278.336
  21445286.395    21445285.102          42.100          33.200          50.000
 114304242.119 7  89068245.40245                  21751366.188
  21751368.906                          42.200          33.400
 111954771.172 5  87075865.549 6                  20958149.133    20958148.352
  20958152.215                          35.400          37.800
 110080039.601 7  85617717.511 7                  20599952.305    20599952.105
  20599956.875                          42.600          43.100
 131658093.038 7                  98316126.469 7  25053702.492
                  25053708.816          42.200                          46.000
 130294268.638 7                  97297681.658 7  24794175.773
                  24794180.355          44.500                          47.500
 109225631.050 6                  81564613.883 7  20784944.602
                  20784948.680          41.600                          45.600
 136568090.587 6                 101982691.890 7  25988043.867
                  25988049.488          38.700                          42.000
 120181489.739 7                  89745946.253 8  22869774.461
                  22869779.680          46.000                          50.100
 20  8 16  0 45 15.0000000  0 21R01G17G08G03R18G06R17G28G11G19R02G30
                                G01G22R16R15E36E02E14E15E30
 124876958.843 4  97126669.781 5                  23360847.406    23360845.508
  23360852.484                          29.300          30.100
 116824384.265 6  91031893.97346                  22230907.461
  22230913.066                          39.800          40.300
 130390216.790 4                  97369318.561 5  24812433.547
                  24812443.766          26.800                          35.900
 111005033.463 7  86497532.31847  82893470.618 8  21123567.813
  21123575.383    21123576.332          44.100          46.900          50.800
 110263064.499 6  85760081.813 7                  20655960.742    20655959.648
  20655964.922                          41.100          44.000
 126817680.472 5  98818975.86144  94701517.619 7  24132593.086
  24132601.891    24132602.281          31.900          28.800          42.700
 109358520.148 7  85056518.028 7                  20436225.070    20436223.512
  20436228.047                          42.900          43.400
 108678043.057 7  84684199.14746                  20680737.766
  20680741.891                          42.900          36.000
 120509498.314 5  93903506.85342                  22932194.352
  22932199.340                          35.700          17.800
 123448776.161 5  96193930.03543                  23491536.211
  23491540.570                          34.200          19.600
 115643122.084 6  89944677.167 6                  21671466.867    21671465.855
  21671471.992                          38.300          39.300
 126726482.716 5  98747946.69144  94633446.838 7  24115253.836
  24115262.867    24115263.664          32.200          27.100          43.800
 112698187.373 6  87816842.30045  84157799.470 8  21445762.063
  21445770.984    21445769.469          41.800          32.800          50.300
 114305111.165 7  89068922.57945                  21751531.867
  21751534.254                          42.300          33.300
 111953704.838 5  87075036.156 6                  20957949.063    20957948.430
  20957952.750                          34.700          37.700
 110082980.264 7  85620004.696 7                  20600502.852    20600502.930
  20600507.063                          42.600          43.400
 131659882.359 7                  98317462.664 7  25054043.180
                  25054049.453          42.000                          45.900
 130296761.475 7                  97299543.173 7  24794650.313
                  24794654.742          44.300                          47.300
 109220063.849 6                  81560456.560 7  20783885.094
                  20783889.410          41.400                          45.600
 136566352.917 6                 101981394.264 7  25987713.055
                  25987718.863          38.400                          42.600
 120181443.313 7                  89745911.590 8  22869765.727
                  22869770.750          46.100                          49.800
 20  8 16  0 45 16.0000000  0 21R01G17G08G03R18G06R17G28G11G19R02G30
                                G01G22R16R15E36E02E14E15E30
 124878914.394 4  97128190.753 4                  23361212.023    23361211.230
  23361218.484                          29.500          29.100
 116822518.011 6  91030439.75346                  22230552.969
  22230557.867                          40.400          40.900
 130392817.05114                  97371260.322 5  24812929.938
                  24812938.395          26.400                          35.800
 111003978.652 7  86496710.38747  82892682.956 8  21123367.547
  21123374.715    21123375.508          43.900          46.900          50.700
 110262046.615 6  85759290.131 7                  20655769.969    20655768.828
  20655774.273                          41.400          44.100
 126814786.581 5  98816720.90544  94699356.660 7  24132041.492
  24132051.230    24132051.621          31.900          28.900          42.700
 109359873.424 7  85057570.559 7                  20436477.344    20436476.305
  20436480.879                          42.900          43.200
 108677175.069 7  84683522.78545                  20680571.883
  20680576.719                          43.000          35.700
 120512267.071 6  93905664.33842                  22932721.563
  22932726.211                          36.000          17.800
 123446053.616 5  96191808.54443                  23491018.656
  23491022.445                          33.900          19.000
 115641003.588 6  89943029.427 6                  21671070.523    21671069.176
  21671075.090                          38.900          39.400
 126729304.068 5  98750145.15244  94635553.661 7  24115790.672
  24115799.777    24115800.602          32.600          27.300          43.900
 112700733.547 6  87818826.33745  84159700.835 8  21446246.711
  21446255.430    21446254.176          41.900          31.900          50.000
 114305980.777 7  89069600.19645                  21751697.492
  21751699.781                          42.100          33.200
 111952639.342 5  87074207.436 6                  20957749.195    20957749.012
  20957753.176                          35.100          37.600
 110085921.529 7  85622292.362 7                  20601052.945    20601052.992
  20601057.605                          42.700          43.200
 131661671.723 7                  98318798.857 7  25054383.977
                  25054389.938          42.300                          45.500
 130299254.548 7                  97301404.913 7  24795124.688
                  24795129.043          44.100                          47.300
 109214497.050 6                  81556299.560 7  20782825.680
                  20782830.109          41.500                          45.800
 136564615.413 6                 101980096.760 7  25987381.891
                  25987388.285          38.400                          42.400
 120181397.361 7                  89745877.276 8  22869757.016
                  22869761.949          45.700                          49.300
 20  8 16  0 45 17.0000000  0 21R01G17G08G03R18G06R17G28G11G19R02G30
                                G01G22R16R15E36E02E14E15E30
 124880870.557 4  97129712.304 4                  23361576.664    23361576.949
  23361584.418                          29.500          29.800
 116820651.881 6  91028985.63346                  22230197.438
  22230202.801                          40.200          40.200
 130395417.378 4                  97373202.122 6  24813424.922
                  24813433.129          27.300                          36.100
 111002924.516 7  86495888.98647  82891895.775 8  21123166.773
  21123174.051    21123175.055          43.300          46.700          50.900
 110261029.004 6  85758498.647 7                  20655579.180    20655578.035
  20655583.691                          41.300          43.800
 126811893.068 5  98814466.22544  94697195.871 7  24131490.195
  24131500.672    24131501.023          31.800          28.700          42.900
 109361226.784 7  85058623.191 7                  20436729.359    20436729.598
  20436733.879                          43.000          43.300
 108676307.617 7  84682846.84945                  20680406.898
  20680411.586                          43.200          35.400
 120515035.944 5  93907821.87243                  22933248.258
  22933252.902                          35.500          18.600
 123443331.088 5  96189687.11743                  23490500.289
  23490504.383                          33.700          19.600
 115638885.765 6  89941382.249 6                  21670673.648    21670672.086
  21670678.238                          39.200          39.100
 126732125.420 5  98752343.60344  94637660.531 7  24116328.102
  24116336.758    24116337.660          32.400          28.300          43.900
 112703279.987 6  87820810.56645  84161602.390 8  21446731.734
  21446739.926    21446738.551          41.600          32.400          50.000
 114306851.049 7  89070278.32845                  21751863.141
  21751865.520                          42.000          32.800
 111951574.689 5  87073379.392 6                  20957550.680    20957549.867
  20957553.836                          35.300          37.200
 110088863.501 7  85624580.531 7                  20601604.031    20601603.527
  20601608.074                          42.700          43.300
 131663461.128 6                  98320135.112 7  25054724.477
                  25054730.359          41.600                          45.500
 130301747.943 7                  97303266.846 7  24795599.172
                  24795603.621          43.800                          47.600
 109208930.717 6                  81552142.864 7  20781766.398
                  20781771.016          41.600                          45.300
 136562878.042 6                 101978799.368 7  25987051.172
                  25987057.824          38.000                          42.500
 120181351.888 7                  89745843.317 8  22869748.383
                  22869753.492          45.600                          49.400
 20  8 16  0 45 18.0000000  0 21R01G17G08G03R18G06R17G28G11G19R02G30
                                G01G22R16R15E36E02E14E15E30
 124882827.534 5  97131234.417 4                  23361943.313    23361943.336
  23361950.496                          30.100          29.600
 116818785.795 6  91027531.54046                  22229842.609
  22229847.578                          40.600          40.400
 130398017.92514                  97375143.995 6  24813920.164
                  24813927.871          25.900                          36.300
 111001871.057 7  86495068.09947  82891109.094 8  21122965.680
  21122973.598    21122974.547          43.700          46.700          51.000
 110260011.616 6  85757707.357 7                  20655389.117    20655387.879
  20655393.055                          41.600          43.400
 126808999.678 5  98812211.63144  94695035.258 7  24130940.258
  24130950.000    24130950.672          31.800          28.200          43.200
 109362580.290 7  85059675.919 7                  20436983.961    20436982.199
  20436986.797                          42.900          42.800
 108675440.661 7  84682171.29645                  20680241.953
  20680246.520                          43.200          35.600
 120517804.866 5  93909979.45843                  22933774.672
  22933779.813                          35.500          18.600
 123440608.655 5  96187565.75143                  23489982.398
  23489986.484                          33.900          20.600
 115636768.613 6  89939735.577 6                  21670277.445    21670275.465
  21670281.266                          38.400          39.300
 126734946.859 5  98754542.12744  94639767.480 7  24116864.484
  24116873.762    24116874.402          32.500          27.600          44.100
 112705826.656 6  87822794.99645  84163504.137 8  21447216.180
  21447224.523    21447223.152          41.800          32.100          49.700
 114307721.896 6  89070956.92245                  21752028.500
  21752031.152                          41.800          33.000
 111950510.920 5  87072552.009 6                  20957351.633    20957350.758
  20957354.609                          35.400          37.300
 110091806.074 7  85626869.206 7                  20602153.984    20602154.023
  20602158.758                          43.000          43.000
 131665250.560 6                  98321471.365 7  25055064.648
                  25055070.977          41.600                          45.700
 130304241.601 7                  97305128.995 7  24796073.820
                  24796078.266          43.900                          47.700
 109203364.801 6                  81547986.501 7  20780707.273
                  20780711.793          41.800                          45.400
 136561140.771 6                 101977502.087 7  25986720.695
                  25986727.250          37.700                          42.800
 120181306.905 7                  89745809.724 8  22869739.820
                  22869744.723          45.300                          49.400
 20  8 16  0 45 19.0000000  0 21R01G17G08G03R18G06R17G28G11G19R02G30
                                G01G22R16R15E36E02E14E15E30
 124884785.318 5  97132757.045 4                  23362309.625    23362309.973
  23362316.668                          30.400          28.800
 116816919.816 6  91026077.52746                  22229487.234
  22229492.484                          40.800          40.400
 130400618.457 4                  97377086.028 6  24814415.250
                  24814422.781          26.800                          36.400
 111000818.254 7  86494247.73947  82890322.906 8  21122765.750
  21122773.156    21122774.129          43.800          46.800          50.900
 110258994.510 6  85756916.264 7                  20655198.086    20655197.297
  20655202.672                          41.600          43.300
 126806106.586 5  98809957.27844  94692874.805 7  24130389.602
  24130399.418    24130400.113          32.000          29.700          43.000
 109363934.003 7  85060728.792 7                  20437236.438    20437235.387
  20437239.664                          42.900          43.100
 108674574.264 7  84681496.19146                  20680077.328
  20680081.754                          43.200          36.100
 120520573.933 5  93912137.18943                  22934302.328
  22934306.680                          35.800          18.600
 123437886.242 5  96185444.39843                  23489464.969
  23489468.484                          33.800          20.400
 115634652.124 6  89938089.409 6                  21669880.000    21669878.895
  21669884.488                          37.900          39.500
 126737768.394 5  98756740.71744  94641874.482 7  24117401.813
  24117410.625    24117411.199          32.500          29.100          43.900
 112708373.592 6  87824779.61345  84165406.069 8  21447700.945
  21447709.168    21447707.848          41.700          31.300          49.700
 114308593.368 6  89071635.98145                  21752194.031
  21752196.930                          41.800          33.400
 111949447.985 5  87071725.281 6                  20957151.398    20957151.523
  20957155.668                          35.400          37.700
 110094749.317 7  85629158.400 7                  20602704.586    20602704.848
  20602709.504                          43.200          43.400
 131667040.044 6                  98322807.675 7  25055405.117
                  25055411.398          41.900                          45.600
 130306735.590 7                  97306991.386 8  24796548.180
                  24796552.809          44.300                          48.200
 109197799.360 7                  81543830.501 7  20779648.109
                  20779652.617          42.000                          45.300
 136559403.733 6                 101976204.927 7  25986390.180
                  25986396.641          38.100                          42.800
 120181262.423 7                  89745776.506 8  22869731.242
                  22869736.223          45.700                          49.400
 20  8 16  0 45 20.0000000  0 21R01G17G08G03R18G06R17G28G11G19R02G30
                                G01G22R16R15E36E02E14E15E30
 124886743.719 4  97134280.291 4                  23362675.781    23362675.828
  23362683.070                          29.500          29.900
 116815053.875 6  91024623.54646                  22229132.133
  22229137.453                          40.800          40.400
 130403219.14714                  97379028.024 6  24814908.500
                  24814917.586          26.400                          36.200
 110999766.090 7  86493427.86747  82889537.188 8  21122565.258
  21122572.941    21122573.898          43.700          46.900          51.100
 110257977.614 6  85756125.347 7                  20655008.008    20655006.676
  20655012.074                          41.300          43.200
 126803213.681 5  98807703.05244  94690714.484 7  24129837.383
  24129849.078    24129849.613          31.500          27.900          42.900
 109365287.867 7  85061781.798 7                  20437488.539    20437488.063
  20437492.637                          42.700          43.300
 108673708.366 7  84680821.45846                  20679913.297
  20679916.887                          43.600          36.000
 120523343.129 5  93914295.00743                  22934828.656
  22934833.504                          35.900          18.600
 123435163.879 5  96183323.05643                  23488946.297
  23488950.324                          33.900          19.900
 115632536.248 6  89936443.725 6                  21669484.047    21669482.582
  21669487.977                          38.500          39.600
 126740590.030 5  98758939.39844  94643981.508 7  24117939.055
  24117947.598    24117948.258          32.400          27.200          43.800
 112710920.741 6  87826764.40245  84167308.161 8  21448185.063
  21448194.004    21448192.559          41.600          31.900          49.600
 114309465.478 6  89072315.54545                  21752359.617
  21752362.906                          41.900          34.100
 111948385.951 5  87070899.212 6                  20956952.773    20956952.855
  20956956.945                          35.400          37.500
 110097693.193 7  85631448.067 7                  20603256.273    20603255.766
  20603260.555                          43.700          43.600
 131668829.529 7                  98324144.001 7  25055745.891
                  25055751.852          42.200                          45.800
 130309229.827 7                  97308853.981 8  24797022.992
                  24797027.523          43.900                          48.000
 109192234.315 7                  81539674.774 7  20778589.602
                  20778593.582          42.000                          45.400
 136557666.790 6                 101974907.867 7  25986059.641
                  25986066.469          38.300                          42.900
 120181218.391 7                  89745743.610 8  22869723.156
                  22869727.906          45.500                          49.300
 20  8 16  0 45 21.0000000  0 21R01G17G08G03R18G06R17G28G11G19R02G30
                                G01G22R16R15E36E02E14E15E30
 124888702.890 4  97135804.061 4                  23363043.070    23363042.488
  23363049.551                          29.900          29.400
 116813188.012 6  91023169.62946                  22228777.258
  22228782.703                          39.900          40.500
 130405819.869 4                  97380970.155 5  24815401.508
                  24815412.430          26.400                          35.800
 110998714.591 7  86492608.51647  82888751.988 8  21122364.625
  21122372.949    21122373.820          43.100          47.000          50.900
 110256960.911 6  85755334.580 7                  20654816.438    20654816.043
  20654821.652                          41.300          43.900
 126800320.944 5  98805448.97544  94688554.374 7  24129288.336
  24129298.793    24129299.063          32.200          27.900          43.500
 109366641.917 7  85062834.944 7                  20437742.180    20437740.891
  20437745.746                          42.700          43.400
 108672842.998 7  84680147.14145                  20679747.789
  20679752.254                          43.100          35.700
 120526112.450 6  93916452.93043                  22935355.828
  22935360.465                          36.000          18.600
 123432441.564 5  96181201.76543                  23488428.820
  23488432.008                          34.600          20.100
 115630421.070 6  89934798.584 6                  21669088.383    21669086.195
  21669091.680                          38.400          39.900
 126743411.650 5  98761138.05644  94646088.609 7  24118474.992
  24118484.504    24118485.109          31.500          26.500          43.300
 112713468.152 6  87828749.39745  84169210.454 8  21448670.078
  21448678.758    21448677.305          41.600          32.400          49.700
 114310338.159 7  89072995.55845                  21752526.188
  21752529.047                          42.000          33.900
 111947324.746 5  87070073.850 6                  20956753.781    20956754.285
  20956758.270                          35.400          38.100
 110100637.705 7  85633738.256 7                  20603806.469    20603806.672
  20603811.629                          43.100          43.400
 131670619.105 7                  98325480.348 7  25056086.234
                  25056092.383          42.000                          46.000
 130311724.386 7                  97310716.789 8  24797497.625
                  24797502.063          44.600                          48.100
 109186669.741 6                  81535519.410 7  20777530.758
                  20777534.586          41.500                          45.100
 136555930.033 6                 101973610.912 7  25985729.352
                  25985735.691          38.100                          42.300
 120181174.854 7                  89745711.110 8  22869714.844
                  22869719.516          45.500                          49.500
 20  8 16  0 45 22.0000000  0 21R01G17G08G03R18G06R17G28G11G19R02G30
                                G01G22R16R15E36E02E14E15E30
 124890662.706 5  97137328.401 4                  23363410.555    23363409.336
  23363416.234                          30.200          29.100
 116811322.236 6  91021715.77046                  22228422.555
  22228427.629                          40.200          40.500
 130408420.753 4                  97382912.388 5  24815898.258
                  24815907.711          27.300                          35.800
 110997663.735 7  86491789.66847  82887967.260 8  21122165.391
  21122172.938    21122173.734          42.800          46.800          50.900
 110255944.443 6  85754543.986 7                  20654626.477    20654625.895
  20654631.250                          41.600          43.600
 126797428.507 5  98803195.13244  94686394.389 7  24128737.625
  24128748.473    24128748.676          32.000          28.700          43.400
 109367996.089 7  85063888.183 7                  20437995.227    20437994.254
  20437998.895                          42.800          43.400
 108671978.117 7  84679473.20645                  20679583.195
  20679587.723                          43.100          35.700
 120528881.862 5  93918610.88643                  22935882.500
  22935887.500                          35.400          19.000
 123429719.297 5  96179080.53643                  23487910.555
  23487913.895                          33.900          20.100
 115628306.480 6  89933153.912 6                  21668691.023    21668689.617
  21668695.453                          38.500          39.700
 126746233.405 5  98763336.81944  94648195.732 7  24119012.164
  24119021.398    24119021.949          32.400          28.100          43.600
 112716015.801 6  87830734.58245  84171112.907 8  21449154.891
  21449163.477    21449162.086          41.800          32.300          49.800
 114311211.444 7  89073676.03945                  21752692.398
  21752695.254                          42.100          34.300
 111946264.377 5  87069249.139 6                  20956556.281    20956555.398
  20956559.828                          35.700          37.900
 110103582.806 7  85636028.895 7                  20604357.703    20604357.582
  20604362.586                          42.900          43.400
 131672408.667 7                  98326816.700 7  25056426.555
                  25056433.129          42.100                          45.700
 130314219.198 7                  97312579.807 7  24797972.352
                  24797976.914          44.600                          47.600
 109181105.561 6                  81531364.339 7  20776471.602
                  20776475.828          41.900                          45.200
 136554193.389 6                 101972314.070 7  25985399.211
                  25985405.094          38.300                          42.600
 120181131.774 7                  89745678.966 8  22869706.344
                  22869711.359          45.500                          49.500
 20  8 16  0 45 23.0000000  0 21R01G17G08G03R18G06R17G28G11G19R02G30
                                G01G22R16R15E36E02E14E15E30
 124892623.316 4  97138853.333 4                  23363777.750    23363775.691
  23363783.066                          29.900          29.300
 116809456.514 6  91020261.96646                  22228067.078
  22228072.539                          40.400          40.500
 130411021.70714                  97384854.635 6  24816393.305
                  24816402.668          27.300                          36.000
 110996613.542 7  86490971.33947  82887183.017 8  21121965.852
  21121973.094    21121973.938          43.300          47.000          51.100
 110254928.199 6  85753753.585 7                  20654436.164    20654435.387
  20654440.887                          41.500          43.500
 126794536.209 5  98800941.37144  94684234.563 7  24128187.820
  24128198.164    24128198.352          32.300          28.600          43.400
 109369350.434 7  85064941.571 7                  20438248.594    20438247.234
  20438251.867                          42.800          43.500
 108671113.781 7  84678799.69645                  20679418.719
  20679423.199                          42.900          35.900
 120531651.367 5  93920768.96843                  22936409.609
  22936414.402                          35.800          18.600
 123426996.980 5  96176959.26943                  23487392.617
  23487395.996                          33.700          20.400
 115626192.592 6  89931509.741 6                  21668294.602    21668293.223
  21668299.344                          38.600          39.300
 126749055.284 5  98765535.70244  94650302.918 7  24119549.773
  24119558.430    24119559.020          32.400          28.400          43.800
 112718563.673 7  87832719.93145  84173015.543 8  21449639.594
  21449648.289    21449646.871          42.100          32.700          49.800
 114312085.379 7  89074357.02945                  21752859.172
  21752861.648                          42.800          34.400
 111945204.966 5  87068425.136 6                  20956358.719    20956357.184
  20956361.547                          35.700          37.800
 110106528.551 7  85638320.024 7                  20604909.336    20604908.914
  20604913.738                          43.000          43.300
 131674198.241 7                  98328153.100 7  25056767.352
                  25056773.613          42.100                          45.700
 130316714.322 7                  97314443.042 7  24798446.961
                  24798451.867          44.900                          47.700
 109175541.848 6                  81527209.617 7  20775412.680
                  20775417.055          41.500                          44.800
 136552456.906 6                 101971017.361 7  25985068.313
                  25985074.672          37.900                          42.600
 120181089.209 7                  89745647.154 8  22869698.203
                  22869703.285          45.600                          49.400
 20  8 16  0 45 24.0000000  0 21R01G17G08G03R18G06R17G28G11G19R02G30
                                G01G22R16R15E36E02E14E15E30
 124894584.659 4  97140378.816 4                  23364144.680    23364142.539
  23364149.961                          29.700          29.700
 116807590.907 6  91018808.24446                  22227712.297
  22227717.520                          39.900          40.500
 130413622.74014                  97386797.017 5  24816889.164
                  24816897.426          27.600                          35.800
 110995564.020 7  86490153.52847  82886399.290 8  21121765.938
  21121773.391    21121774.285          43.200          46.800          51.300
 110253912.259 6  85752963.412 7                  20654246.781    20654245.492
  20654250.637                          41.300          43.400
 126791644.171 5  98798687.84844  94682074.946 7  24127637.188
  24127647.730    24127648.219          32.400          29.400          43.400
 109370704.956 7  85065995.088 7                  20438502.336    20438500.348
  20438504.957                          42.600          43.600
 108670249.957 7  84678126.59245                  20679254.180
  20679258.883                          43.200          35.900
 120534421.031 6  93922927.16343                  22936937.273
  22936941.531                          36.000          19.900
 123424274.874 5  96174838.17643                  23486874.461
  23486877.906                          34.700          20.900
 115624079.309 6  89929866.101 6                  21667898.539    21667897.203
  21667903.285                          38.400          39.700
 126751877.150 5  98767734.53944  94652410.184 7  24120085.828
  24120095.438    24120095.918          33.000          28.700          43.700
 112721111.833 6  87834705.52045  84174918.378 8  21450124.641
  21450133.219    21450131.824          41.600          32.200          49.600
 114312959.921 7  89075038.49045                  21753025.414
  21753027.922                          43.200          33.600
 111944146.384 5  87067601.844 6                  20956160.500    20956159.207
  20956163.227                          35.300          38.000
 110109474.979 7  85640611.680 7                  20605460.617    20605460.613
  20605465.184                          43.000          43.000
 131675987.936 7                  98329489.539 7  25057108.188
                  25057114.180          42.000                          46.000
 130319209.752 7                  97316306.512 7  24798921.992
                  24798926.633          44.700                          47.400
 109169978.571 6                  81523055.235 7  20774354.172
                  20774358.516          41.500                          44.900
 136550720.590 6                 101969720.745 7  25984738.148
                  25984744.391          38.200                          42.700
 120181047.143 7                  89745615.740 8  22869690.320
                  22869695.281          45.500                          49.300
 20  8 16  0 45 25.0000000  0 21R01G17G08G03R18G06R17G28G11G19R02G30
                                G01G22R16R15E36E02E14E15E30
 124896546.693 4  97141904.838 4                  23364512.711    23364509.684
  23364517.027                          29.200          29.600
 116805725.325 6  91017354.54646                  22227357.359
  22227362.418                          40.700          40.300
 130416223.99314                  97388739.441 5  24817382.711
                  24817392.645          28.600                          35.400
 110994515.129 7  86489336.21047  82885616.028 8  21121565.422
  21121573.688    21121574.613          43.100          46.700          51.000
 110252896.480 6  85752173.371 7                  20654055.898    20654054.750
  20654060.246                          41.500          43.800
 126788752.345 5  98796434.48144  94679915.446 7  24127087.453
  24127097.227    24127097.727          32.400          29.100          43.300
 109372059.581 7  85067048.687 7                  20438754.453    20438753.223
  20438758.047                          42.400          43.800
 108669386.595 7  84677453.84546                  20679089.875
  20679094.566                          43.300          36.100
 120537190.744 6  93925085.36443                  22937464.758
  22937468.633                          36.200          19.900
 123421552.685 5  96172716.95343                  23486356.445
  23486359.945                          34.300          20.100
 115621966.679 6  89928222.945 6                  21667502.820    21667501.535
  21667507.355                          38.300          39.400
 126754698.990 5  98769933.40144  94654517.450 7  24120623.023
  24120632.527    24120632.723          31.600          28.200          43.600
 112723660.189 6  87836691.25145  84176821.377 8  21450609.406
  21450618.266    21450616.727          41.300          31.800          49.600
 114313835.032 7  89075720.39245                  21753191.078
  21753194.422                          43.200          33.700
 111943088.674 5  87066779.111 6                  20955962.203    20955961.453
  20955965.207                          35.600          37.800
 110112422.001 7  85642903.825 7                  20606012.281    20606012.016
  20606016.668                          43.100          42.900
 131677777.583 7                  98330825.967 7  25057448.352
                  25057454.734          42.000                          45.900
 130321705.420 7                  97318170.165 7  24799396.992
                  24799401.664          44.200                          47.300
 109164415.717 6                  81518901.146 7  20773295.516
                  20773299.770          41.700                          45.200
 136548984.369 6                 101968424.236 7  25984407.469
                  25984413.969          38.100                          42.600
 120181005.475 7                  89745584.644 8  22869682.547
                  22869687.438          46.000                          49.200
 20  8 16  0 45 26.0000000  0 21R01G17G08G03R18G06R17G28G11G19R02G30
                                G01G22R16R15E36E02E14E15E30
 124898509.515 4  97143431.424 4                  23364879.508    23364876.789
  23364884.309                          29.300          29.400
 116803859.806 6  91015900.89446                  22227002.000
  22227007.434                          40.700          40.300
 130418825.20414                  97390681.966 5  24817880.117
                  24817887.691          26.400                          35.300
 110993466.890 7  86488519.40047  82884833.245 8  21121366.523
  21121374.238    21121375.047          43.100          46.600          51.200
 110251880.983 6  85751383.534 7                  20653866.461    20653864.688
  20653869.961                          41.300          43.600
 126785860.640 5  98794181.21545  94677756.109 7  24126537.766
  24126546.875    24126547.691          32.900          30.500          43.300
 109373414.394 7  85068102.429 7                  20439008.391    20439006.324
  20439011.273                          42.400          43.800
 108668523.795 7  84676781.53346                  20678925.633
  20678930.348                          43.400          36.000
 120539960.589 5  93927243.67943                  22937990.820
  22937995.695                          35.400          18.600
 123418830.528 5  96170595.79043                  23485838.117
  23485842.094                          34.300          20.400
 115619854.699 6  89926580.293 6                  21667106.555    21667105.801
  21667111.555                          38.300          39.900
 126757521.038 5  98772132.39344  94656624.792 7  24121161.242
  24121169.688    24121169.957          31.300          28.200          43.200
 112726208.770 6  87838677.15845  84178724.542 8  21451094.883
  21451103.266    21451101.727          41.400          32.500          49.800
 114314710.779 7  89076402.78845                  21753358.352
  21753360.996                          43.000          33.100
 111942031.771 5  87065957.087 6                  20955765.016    20955763.559
  20955767.371                          35.400          37.900
 110115369.705 7  85645196.466 7                  20606563.984    20606563.492
  20606568.391                          43.200          43.100
 131679567.275 6                  98332162.434 7  25057789.070
                  25057795.391          41.900                          45.900
 130324201.404 7                  97320034.040 7  24799872.266
                  24799876.477          44.400                          47.800
 109158853.257 6                  81514747.370 7  20772237.141
                  20772241.223          40.800                          45.100
 136547248.320 6                 101967127.810 7  25984077.273
                  25984083.480          38.200                          42.500
 120180964.344 7                  89745553.914 8  22869674.578
                  22869679.563          45.700                          49.800
 20  8 16  0 45 27.0000000  0 21R01G17G08G03R18G06R17G28G11G19R02G30
                                G01G22R16R15E36E02E14E15E30
 124900472.916 4  97144958.600 4                  23365246.719    23365244.656
  23365251.641                          29.200          28.900
 116801994.363 6  91014447.29846                  22226647.242
  22226652.383                          40.800          40.400
 130421426.544 4                  97392624.534 5  24818376.000
                  24818383.316          26.800                          35.800
 110992419.300 7  86487703.10547  82884050.953 8  21121167.469
  21121174.973    21121175.961          43.200          46.700          51.200
 110250865.684 6  85750593.847 7                  20653675.992    20653674.770
  20653679.918                          41.500          43.700
 126782969.27415  98791928.20754  94675596.939 7  24125987.891
  24125996.820    24125997.121          32.200          29.500          43.300
 109374769.335 7  85069156.268 7                  20439261.836    20439259.477
  20439264.535                          42.500          43.700
 108667661.485 7  84676109.60745                  20678761.641
  20678766.289                          43.300          35.500
 120542730.580 5  93929402.11543                  22938518.367
  22938522.863                          35.400          19.900
 123416108.426 5  96168474.65543                  23485320.891
  23485324.141                          34.800          20.100
 115617743.405 6  89924938.158 6                  21666712.641    21666710.227
  21666716.121                          38.300          39.800
 126760343.025 5  98774331.33944  94658732.165 7  24121698.102
  24121706.457    24121706.848          31.500          28.500          43.400
 112728757.598 6  87840663.25745  84180627.881 8  21451579.711
  21451588.258    21451586.879          41.500          31.900          49.900
 114315587.123 7  89077085.65745                  21753525.258
  21753527.762                          42.700          33.300
 111940975.712 5  87065135.733 6                  20955566.141    20955565.941
  20955569.766                          35.400          37.700
 110118318.004 7  85647489.590 7                  20607114.836    20607115.102
  20607119.867                          43.200          42.800
 131681357.004 7                  98333498.911 7  25058129.828
                  25058135.984          42.100                          45.900
 130326697.667 7                  97321898.117 7  24800347.109
                  24800351.715          44.300                          47.400
 109153291.273 6                  81510593.938 7  20771178.734
                  20771183.016          41.200                          45.100
 136545512.389 6                 101965831.519 7  25983746.875
                  25983753.074          37.800                          42.400
 120180923.666 7                  89745523.526 8  22869666.891
                  22869671.750          45.500                          49.700
 20  8 16  0 45 28.0000000  0 21R01G17G08G03R18G06R17G28G11G19R02G30
                                G01G22R16R15E36E02E14E15E30
 124902437.160 4  97146486.267 4                  23365614.078    23365611.820
  23365619.043                          29.400          27.700
 116800128.998 6  91012993.77346                  22226292.664
  22226297.465                          40.400          40.100
 130424028.01414                  97394567.141 5  24818870.594
                  24818878.316          25.300                          35.500
 110991372.372 7  86486887.31347  82883269.150 8  21120968.055
  21120975.754    21120976.578          43.000          46.800          51.000
 110249850.626 6  85749804.358 7                  20653486.188    20653484.633
  20653489.895                          41.400          43.600
 126780078.068 5  98789675.31344  94673437.916 7  24125436.906
  24125446.746    24125447.113          32.000          28.100          43.300
 109376124.411 7  85070210.225 7                  20439514.352    20439512.793
  20439517.762                          42.400          43.600
 108666799.677 7  84675438.07645                  20678598.148
  20678602.242                          43.300          35.800
 120545500.647 6  93931560.64643                  22939044.414
  22939050.031                          36.200          19.300
 123413386.344 5  96166353.57743                  23484803.133
  23484806.148                          34.700          20.100
 115615632.762 6  89923296.558 6                  21666316.328    21666314.844
  21666320.715                          38.400          40.000
 126763165.136 5  98776530.37344  94660839.589 7  24122234.820
  24122243.445    24122243.813          32.600          28.900          43.300
 112731306.672 6  87842649.54745  84182531.415 8  21452064.914
  21452073.305    21452071.801          41.700          31.900          49.800
 114316464.055 7  89077768.98245                  21753691.930
  21753694.688                          42.500          33.600
 111939920.568 5  87064315.063 6                  20955369.195    20955368.230
  20955372.219                          35.500          37.700
 110121266.930 7  85649783.203 7                  20607667.016    20607667.055
  20607671.785                          43.300          43.300
 131683146.765 7                  98334835.416 7  25058470.461
                  25058476.352          42.100                          46.100
 130329194.180 7                  97323762.419 7  24800822.063
                  24800826.703          44.500                          47.600
 109147729.711 6                  81506440.815 7  20770120.641
                  20770124.660          41.000                          45.100
 136543776.607 6                 101964535.326 7  25983416.703
                  25983422.672          37.700                          42.300
 120180883.462 7                  89745493.508 8  22869659.109
                  22869664.285          45.300                          50.000
 20  8 16  0 45 29.0000000  0 21R01G17G08G03R18G06R17G28G11G19R02G30
                                G01G22R16R15E36E02E14E15E30
 124904402.133 4  97148014.573 4                  23365981.102    23365979.684
  23365986.371                          29.500          29.900
 116798263.715 6  91011540.30546                  22225937.758
  22225942.434                          40.500          40.400
 130426629.548 4                  97396509.892 5  24819364.625
                  24819372.992          25.300                          34.600
 110990326.103 7  86486072.03947  82882487.856 8  21120768.938
  21120776.609    21120777.398          43.000          46.800          51.300
 110248835.786 6  85749015.060 7                  20653295.297    20653294.027
  20653299.730                          41.400          43.700
 126777187.137 5  98787422.63944  94671279.099 7  24124886.344
  24124896.656    24124896.996          32.400          28.800          43.100
 109377479.675 7  85071264.319 7                  20439766.688    20439766.254
  20439770.930                          42.700          43.300
 108665938.435 7  84674766.97045                  20678434.047
  20678438.352                          42.800          35.700
 120548270.812 6  93933719.21042                  22939572.352
  22939577.266                          36.500          17.800
 123410664.343 5  96164232.56743                  23484284.727
  23484288.242                          34.100          20.600
 115613522.830 6  89921655.503 6                  21665920.750    21665919.707
  21665925.277                          38.400          40.200
 126765987.385 5  98778729.53544  94662947.069 7  24122771.883
  24122780.746    24122781.215          32.300          29.800          43.300
 112733856.000 7  87844636.03445  84184435.118 8  21452549.922
  21452558.375    21452556.879          42.000          32.300          49.700
 114317341.627 7  89078452.80845                  21753858.953
  21753861.738                          42.900          33.600
 111938866.342 5  87063495.089 6                  20955171.086    20955170.762
  20955174.805                          35.800          37.500
 110124216.537 7  85652077.342 7                  20608219.328    20608219.039
  20608223.750                          43.100          42.800
 131684936.595 6                  98336171.950 7  25058810.977
                  25058817.012          41.900                          45.700
 130331691.035 7                  97325626.938 7  24801297.180
                  24801301.766          44.500                          47.700
 109142168.607 6                  81502288.061 7  20769062.367
                  20769065.949          40.500                          44.900
 136542040.989 6                 101963239.247 7  25983086.227
                  25983092.492          37.700                          42.400
 120180843.764 7                  89745463.858 8  22869651.758
                  22869656.680          45.600                          49.900
 20  8 16  0 45 30.0000000  0 21R01G17G08G03R18G06R17G28G11G19R02G30
                                G01G22R16R15E36E02E14E15E30
 124906367.729 4  97149543.369 4                  23366348.211    23366347.203
  23366354.082                          29.900          29.500
 116796398.423 6  91010086.82746                  22225582.555
  22225587.512                          40.600          40.500
 130429231.15614                  97398452.614 5  24819860.180
                  24819868.184          26.400                          35.500
 110989280.404 7  86485257.20347  82881706.988 8  21120570.359
  21120577.625    21120578.406          42.900          46.800          51.200
 110247821.128 6  85748225.855 7                  20653104.953    20653104.074
  20653109.723                          41.300          43.800
 126774296.257 5  98785170.01044  94669120.373 7  24124336.102
  24124346.566    24124346.773          32.600          28.800          43.400
 109378835.054 7  85072318.500 7                  20440020.883    20440019.410
  20440024.262                          42.500          43.400
 108665077.602 7  84674096.19245                  20678269.578
  20678274.500                          43.200          35.800
 120551041.071 6  93935877.84843                  22940100.102
  22940104.324                          36.600          18.600
 123407942.320 5  96162111.49643                  23483767.203
  23483770.199                          34.700          20.100
 115611413.449 6  89920014.888 6                  21665524.539    21665524.176
  21665530.164                          38.400          40.200
 126768809.574 5  98780928.64344  94665054.541 7  24123309.430
  24123317.863    24123317.996          31.300          28.000          43.200
 112736405.468 6  87846622.63945  84186338.954 8  21453035.156
  21453043.512    21453042.082          41.900          32.600          50.000
 114318219.744 7  89079137.05245                  21754026.094
  21754028.805                          42.800          34.000
 111937812.874 5  87062675.716 6                  20954974.859    20954974.066
  20954977.480                          35.400          37.300
 110127166.706 7  85654371.904 7                  20608771.008    20608771.508
  20608775.762                          42.900          43.100
 131686726.343 6                  98337508.466 7  25059151.742
                  25059157.598          41.900                          45.900
 130334188.080 7                  97327491.626 7  24801772.414
                  24801777.176          44.600                          47.700
 109136607.880 6                  81498135.552 7  20768003.867
                  20768008.168          40.600                          45.400
 136540305.452 6                 101961943.236 7  25982755.961
                  25982762.535          37.700                          42.100
 120180804.459 7                  89745434.519 8  22869643.906
                  22869649.219          45.800                          49.600
 20  8 16  0 45 31.0000000  0 21R01G17G08G03R18G06R17G28G11G19R02G30
                                G01G22R16R15E36E02E14E15E30
 124908334.107 5  97151072.806 4                  23366716.625    23366714.785
  23366721.910                          30.100          29.600
 116794533.269 6  91008633.47046                  22225226.961
  22225232.543                          40.600          40.200
 130431832.88214                  97400395.451 5  24820356.742
                  24820363.020          27.300                          35.600
 110988235.449 7  86484442.96147  82880926.666 8  21120371.031
  21120378.781    21120379.766          43.000          46.600          51.200
 110246806.755 6  85747436.910 7                  20652914.813    20652914.086
  20652919.652                          41.400          43.500
 126771405.761 5  98782917.68744  94666961.851 7  24123786.469
  24123796.492    24123797.051          32.500          29.500          43.400
 109380190.658 7  85073372.881 7                  20440274.188    20440272.918
  20440277.539                          42.600          43.200
 108664217.370 7  84673425.88146                  20678105.875
  20678110.762                          43.500          36.300
 120553811.503 6  93938036.61043                  22940625.813
  22940631.320                          36.000          18.300
 123405220.338 5  96159990.45543                  23483249.141
  23483252.246                          34.500          19.900
 115609304.837 6  89918374.844 6                  21665130.594    21665129.297
  21665134.969                          38.900          39.900
 126771631.848 5  98783127.82544  94667162.118 7  24123846.477
  24123855.031    24123855.102          31.900          27.700          43.600
 112738955.271 7  87848609.50245  84188243.025 8  21453520.594
  21453528.816    21453527.363          42.000          32.000          49.900
 114319098.545 7  89079821.82945                  21754193.227
  21754195.918                          42.400          33.800
 111936760.331 5  87061857.065 6                  20954776.633    20954777.066
  20954780.422                          35.400          37.800
 110130117.546 7  85656667.015 7                  20609323.750    20609323.406
  20609327.871                          42.900          43.000
 131688516.212 6                  98338845.049 7  25059492.273
                  25059498.168          41.600                          45.600
 130336685.498 7                  97329356.570 7  24802247.602
                  24802252.391          44.000                          47.700
 109131047.615 6                  81493983.428 7  20766946.172
                  20766949.836          40.300                          45.500
 136538570.128 6                 101960647.362 7  25982425.742
                  25982432.348          37.900                          42.400
 120180765.711 7                  89745405.574 8  22869636.781
                  22869641.684          45.700                          49.400
 20  8 16  0 45 32.0000000  0 21R01G17G08G03R18G06R17G28G11G19R02G30
                                G01G22R16R15E36E02E14E15E30
 124910301.275 4  97152602.766 4                  23367084.328    23367082.969
  23367089.980                          29.900          28.700
 116792668.197 6  91007180.16046                  22224872.586
  22224877.602                          40.600          40.700
 130434434.798 4                  97402338.397 5  24820851.781
                  24820858.125          26.800                          35.400
 110987191.158 7  86483629.22647  82880146.823 8  21120172.359
  21120179.992    21120181.020          43.200          46.700          50.800
 110245792.603 6  85746648.137 7                  20652725.000    20652724.133
  20652729.723                          41.600          44.000
 126768515.385 5  98780665.44644  94664803.490 7  24123237.359
  24123246.414    24123247.234          32.800          29.500          43.500
 109381546.440 7  85074427.344 7                  20440527.234    20440526.098
  20440530.848                          42.400          43.200
 108663357.676 7  84672755.98845                  20677942.297
  20677947.117                          43.200          35.400
 120556582.029 6  93940195.46943                  22941154.156
  22941158.719                          36.700          19.600
 123402498.512 5  96157869.53243                  23482731.375
  23482734.398                          35.000          20.100
 115607196.862 6  89916735.311 6                  21664734.055    21664734.203
  21664739.984                          39.000          39.800
 126774454.297 5  98785327.13744  94669269.751 7  24124382.828
  24124392.055    24124392.188          31.800          28.500          43.700
 112741505.311 7  87850596.53245  84190147.269 8  21454005.875
  21454013.902    21454012.699          42.000          32.800          50.300
 114319977.953 7  89080507.08845                  21754360.875
  21754363.340                          42.700          34.700
 111935708.611 5  87061039.086 6                  20954581.648    20954580.078
  20954583.570                          35.700          37.700
 110133069.033 7  85658962.604 7                  20609876.523    20609875.953
  20609880.195                          42.800          43.300
 131690306.113 6                  98340181.667 7  25059832.773
                  25059838.965          41.400                          45.700
 130339183.205 7                  97331221.746 7  24802722.914
                  24802727.641          44.000                          47.800
 109125487.826 6                  81489831.632 7  20765888.438
                  20765891.883          40.800                          45.100
 136536834.959 6                 101959351.627 7  25982095.805
                  25982102.258          37.900                          42.700
 120180727.438 7                  89745376.993 8  22869629.422
                  22869634.539          45.700                          49.500
 20  8 16  0 45 33.0000000  0 21R01G17G08G03R18G06R17G28G11G19R02G30
                                G01G22R16R15E36E02E14E15E30
 124912269.107 5  97154133.315 4                  23367451.867    23367450.863
  23367457.969                          30.100          29.400
 116790803.163 6  91005726.88646                  22224518.250
  22224522.832                          40.800          40.100
 130437036.650 4                  97404281.399 5  24821346.953
                  24821353.605          25.900                          35.900
 110986147.480 7  86482815.97347  82879367.462 8  21119973.734
  21119981.473    21119982.309          43.300          46.900          51.200
 110244778.699 6  85745859.541 7                  20652535.594    20652534.219
  20652539.891                          41.500          44.100
 126765625.302 5  98778413.43844  94662645.273 7  24122687.289
  24122696.262    24122697.164          32.600          29.100          43.600
 109382902.297 7  85075481.909 7                  20440780.617    20440779.730
  20440784.387                          42.900          43.100
 108662498.474 7  84672086.47245                  20677779.133
  20677783.680                          42.900          35.700
 120559352.668 6  93942354.38843                  22941680.844
  22941685.883                          36.400          19.000
 123399776.593 5  96155748.55843                  23482214.188
  23482216.570                          35.100          20.900
 115605089.533 6  89915096.282 6                  21664339.617    21664339.148
  21664345.008                          39.000          39.900
 126777276.729 5  98787526.43444  94671377.404 7  24124920.125
  24124929.172    24124929.094          31.900          27.900          43.800
 112744055.539 7  87852583.72845  84192051.674 8  21454490.570
  21454499.102    21454497.887          42.300          31.700          50.100
 114320857.930 7  89081192.77945                  21754527.836
  21754530.676                          42.600          33.400
 111934657.724 5  87060221.729 6                  20954383.594    20954383.242
  20954386.832                          35.600          37.600
 110136021.118 7  85661258.674 7                  20610428.297    20610428.191
  20610432.598                          42.900          43.200
 131692096.001 7                  98341518.286 7  25060173.078
                  25060179.555          42.100                          45.600
 130341681.156 7                  97333087.102 8  24803198.148
                  24803202.941          44.000                          48.000
 109119928.449 6                  81485680.139 7  20764830.727
                  20764833.922          41.300                          45.100
 136535099.920 6                 101958055.957 7  25981765.492
                  25981772.113          37.900                          42.900
 120180689.637 7                  89745348.768 8  22869622.102
                  22869627.289          46.100                          49.300
 20  8 16  0 45 34.0000000  0 20R01G17G03R18G06R17G28G11G19R02G30G01
                                G22R16R15E36E02E14E15E30
 124914237.704 5  97155664.428 4                  23367820.078    23367819.383
  23367826.355                          30.600          29.700
 116788938.224 6  91004273.68646                  22224162.773
  22224167.926                          40.300          40.500
 110985104.492 7  86482003.25147  82878588.599 8  21119775.070
  21119782.953    21119783.816          43.700          46.700          51.200
 110243765.048 6  85745071.138 7                  20652345.609    20652344.516
  20652350.000                          41.600          44.200
 126762735.353 5  98776161.53744  94660487.231 7  24122136.992
  24122146.504    24122147.125          33.300          28.700          43.500
 109384258.355 7  85076536.610 7                  20441033.813    20441032.941
  20441037.750                          42.600          43.000
 108661639.748 7  84671417.33845                  20677616.383
  20677620.453                          43.500          35.900
 120562123.407 6  93944513.41343                  22942208.273
  22942213.176                          36.400          19.600
 123397054.801 5  96153627.68543                  23481695.508
  23481698.715                          35.000          20.100
 115602982.850 6  89913457.761 6                  21663945.484    21663943.832
  21663950.137                          38.700          39.800
 126780099.247 5  98789725.78544  94673485.140 7  24125457.977
  24125466.262    24125466.250          31.600          27.500          43.400
 112746606.048 7  87854571.14245  84193956.273 8  21454975.703
  21454984.559    21454983.258          42.100          31.900          49.600
 114321738.533 7  89081878.96445                  21754695.320
  21754698.305                          42.300          33.400
 111933607.719 5  87059405.059 6                  20954187.844    20954186.887
  20954190.340                          35.700          37.900
 110138973.873 7  85663555.252 7                  20610981.141    20610981.020
  20610985.156                          43.000          43.300
 131693885.973 6                  98342854.942 7  25060513.938
                  25060520.105          41.800                          45.700
 130344179.407 7                  97334952.683 8  24803673.703
                  24803678.465          44.000                          48.300
 109114369.532 6                  81481528.988 7  20763772.500
                  20763776.262          40.600                          45.500
 136533365.000 6                 101956760.419 7  25981435.250
                  25981441.840          38.100                          42.900
 120180652.324 7                  89745320.894 8  22869614.992
                  22869620.270          45.700                          49.200
 20  8 16  0 45 35.0000000  0 20R01G17G03R18G06R17G28G11G19R02G30G01
                                G22R16R15E36E02E14E15E30
 124916206.987 5  97157196.119 4                  23368189.016    23368187.383
  23368194.598                          30.000          28.600
 116787073.326 6  91002820.51546                  22223807.500
  22223813.121                          40.200          40.300
 110984062.114 7  86481191.01547  82877810.210 8  21119577.094
  21119584.715    21119585.574          43.400          46.800          51.200
 110242751.581 6  85744282.903 7                  20652156.359    20652154.551
  20652160.125                          41.400          43.800
 126759845.675 5  98773909.84244  94658329.345 7  24121587.273
  24121596.586    24121597.512          32.500          29.000          43.700
 109385614.546 7  85077591.417 7                  20441287.563    20441286.578
  20441291.270                          42.700          42.900
 108660781.564 7  84670748.62345                  20677452.398
  20677457.070                          43.900          35.900
 120564894.239 6  93946672.48443                  22942735.766
  22942740.551                          37.000          19.300
 123394332.949 5  96151506.77943                  23481177.398
  23481180.793                          35.300          20.100
 115600876.836 6  89911819.761 6                  21663551.078    21663549.535
  21663555.473                          38.700          39.800
 126782921.789 5  98791925.17744  94675592.883 7  24125994.078
  24126003.457    24126003.398          31.600          27.900          43.600
 112749156.765 7  87856558.71645  84195861.033 8  21455461.602
  21455469.914    21455468.648          42.100          32.200          49.600
 114322619.729 7  89082565.61145                  21754863.164
  21754865.879                          42.300          33.200
 111932558.601 5  87058589.085 6                  20953991.977    20953990.426
  20953993.945                          35.500          38.000
 110141927.244 7  85665852.332 7                  20611533.820    20611533.797
  20611537.766                          43.400          43.100
 131695675.924 6                  98344191.598 7  25060854.563
                  25060860.730          41.700                          45.800
 130346677.937 7                  97336818.464 8  24804149.133
                  24804153.852          44.200                          48.000
 109108811.002 6                  81477378.148 7  20762715.148
                  20762718.406          41.100                          45.600
 136531630.253 6                 101955464.972 7  25981105.344
                  25981111.582          37.900                          43.000
 120180615.445 7                  89745293.372 8  22869608.031
                  22869613.117          45.600                          49.400
 20  8 16  0 45 36.0000000  0 20R01G17G03R18G06R17G28G11G19R02G30G01
                                G22R16R15E36E02E14E15E30
 124918176.920 4  97158728.295 4                  23368556.891    23368556.082
  23368563.199                          29.700          28.700
 116785208.467 6  91001367.38046                  22223452.984
  22223458.313                          40.100          40.200
 110983020.377 7  86480379.27047  82877032.297 8  21119379.102
  21119386.414    21119387.250          43.000          46.800          51.000
 110241738.359 6  85743494.816 7                  20651965.656    20651964.973
  20651970.316                          41.600          43.600
 126756956.187 5  98771658.29544  94656171.611 7  24121036.906
  24121046.801    24121047.523          32.200          29.200          43.400
 109386970.877 7  85078646.358 7                  20441540.875    20441540.102
  20441544.672                          43.100          43.100
 108659923.880 7  84670080.29545                  20677289.422
  20677293.766                          43.800          35.600
 120567665.142 6  93948831.61243                  22943263.242
  22943267.910                          37.100          19.900
 123391611.221 5  96149385.95143                  23480658.836
  23480662.840                          34.600          20.600
 115598771.400 6  89910182.194 6                  21663155.289    21663155.012
  21663160.887                          38.600          39.600
 126785744.409 5  98794124.62344  94677700.666 7  24126531.117
  24126540.641    24126540.535          31.500          29.700          43.300
 112751707.721 7  87858546.46745  84197765.969 8  21455947.648
  21455955.328    21455954.086          42.000          32.200          49.800
 114323501.522 7  89083252.72245                  21755031.156
  21755033.648                          42.600          33.200
 111931510.308 5  87057773.758 6                  20953796.227    20953794.020
  20953797.711                          35.500          37.500
 110144881.234 7  85668149.866 7                  20612086.820    20612086.352
  20612090.641                          43.100          43.500
 131697465.931 6                  98345528.269 7  25061194.992
                  25061201.211          41.900                          45.300
 130349176.739 7                  97338684.447 7  24804624.664
                  24804629.480          43.700                          47.700
 109103252.925 6                  81473227.627 7  20761657.148
                  20761660.648          40.700                          45.400
 136529895.592 6                 101954169.628 7  25980775.359
                  25980781.227          37.500                          42.700
 120180579.061 7                  89745266.193 8  22869601.141
                  22869606.230          45.600                          49.400
 20  8 16  0 45 37.0000000  0 20R01G17G03R18G06R17G28G11G19R02G30G01
                                G22R16R15E36E02E14E15E30
 124920147.711 4  97160261.163 4                  23368925.078    23368924.938
  23368931.906                          29.200          28.400
 116783343.787 6  90999914.39046                  22223098.055
  22223103.406                          39.900          40.200
 110981979.376 7  86479568.10447  82876254.918 8  21119180.938
  21119188.375    21119188.988          43.300          46.900          50.900
 110240725.391 6  85742706.973 7                  20651776.055    20651774.668
  20651780.609                          41.500          43.500
 126754066.947 5  98769406.93944  94654014.071 7  24120486.773
  24120497.035    24120497.785          32.400          28.600          43.400
 109388327.446 7  85079701.467 7                  20441795.164    20441793.520
  20441798.195                          43.000          43.100
 108659066.760 7  84669412.41345                  20677125.969
  20677130.766                          43.500          35.700
 120570436.275 6  93950990.97243                  22943790.078
  22943795.105                          37.000          19.600
 123388889.510 5  96147265.13543                  23480141.602
  23480144.891                          34.800          20.400
 115596666.703 6  89908545.192 6                  21662760.953    21662760.746
  21662766.508                          38.700          40.000
 126788567.164 5  98796324.17044  94679808.562 7  24127068.047
  24127077.797    24127077.578          31.800          27.900          43.400
 112754258.980 7  87860534.46945  84199671.120 8  21456432.492
  21456440.922    21456439.582          42.200          32.700          49.900
 114324383.977 7  89083940.35145                  21755198.984
  21755201.637                          42.400          33.100
 111930462.970 5  87056959.136 6                  20953599.203    20953597.609
  20953601.617                          35.500          37.600
 110147835.886 7  85670447.949 7                  20612639.867    20612639.223
  20612643.492                          43.000          43.600
 131699256.007 6                  98346865.038 7  25061535.750
                  25061542.023          41.200                          45.800
 130351675.878 7                  97340550.683 7  24805100.086
                  24805105.105          43.700                          47.500
 109097695.309 6                  81469077.483 7  20760599.578
                  20760603.027          40.900                          45.600
 136528161.174 6                 101952874.452 7  25980445.102
                  25980451.125          37.700                          42.700
 120180543.203 7                  89745239.423 8  22869594.281
                  22869599.344          46.000                          49.200
 20  8 16  0 45 38.0000000  0 20R01G17G03R18G06R17G28G11G19R02G30G01
                                G22R16R15E36E02E14E15E30
 124922119.169 4  97161794.466 4                  23369294.164    23369293.699
  23369300.609                          29.500          29.500
 116781479.115 6  90998461.39446                  22222743.461
  22222748.566                          39.400          40.600
 110980938.979 7  86478757.40347  82875477.998 8  21118982.844
  21118990.402    21118991.035          43.600          46.700          51.100
 110239712.615 6  85741919.259 7                  20651585.883    20651585.129
  20651590.824                          41.100          43.000
 126751177.897 5  98767155.73244  94651856.664 7  24119937.656
  24119947.207    24119948.176          32.800          28.500          43.900
 109389684.112 7  85080756.655 7                  20442048.031    20442046.711
  20442051.805                          42.600          42.700
 108658210.133 7  84668744.91245                  20676963.438
  20676967.621                          43.300          35.700
 120573207.427 6  93953150.31943                  22944318.008
  22944322.441                          37.200          19.300
 123386167.879 5  96145144.38943                  23479623.719
  23479626.938                          34.900          19.900
 115594562.574 6  89906908.704 6                  21662367.141    21662365.871
  21662372.277                          38.300          40.000
 126791389.941 5  98798523.72444  94681916.452 7  24127605.453
  24127614.777    24127614.762          31.500          27.500          44.100
 112756810.419 7  87862522.59445  84201576.410 8  21456917.766
  21456926.465    21456925.008          42.300          31.900          50.200
 114325266.991 7  89084628.42345                  21755367.445
  21755369.676                          42.200          33.500
 111929416.471 5  87056145.173 6                  20953403.484    20953402.133
  20953405.668                          35.700          37.500
 110150791.155 7  85672746.481 7                  20613193.070    20613192.516
  20613196.629                          43.200          43.300
 131701046.069 6                  98348201.770 7  25061876.313
                  25061882.547          41.500                          45.600
 130354175.257 7                  97342417.099 7  24805575.766
                  24805580.676          44.000                          47.700
 109092138.104 6                  81464927.627 7  20759542.227
                  20759545.664          41.400                          45.700
 136526426.827 6                 101951579.307 7  25980115.328
                  25980121.309          37.800                          42.500
 120180507.791 7                  89745212.974 8  22869587.523
                  22869592.801          45.500                          49.500
 20  8 16  0 45 39.0000000  0 20R01G17G03R18G06R17G28G11G19R02G30G01
                                G22R16R15E36E02E14E15E30
 124924091.303 4  97163328.404 5                  23369663.742    23369662.363
  23369669.789                          29.400          30.100
 116779614.507 6  90997008.45146                  22222388.656
  22222393.602                          39.900          40.400
 110979899.224 7  86477947.21147  82874701.557 8  21118784.859
  21118792.422    21118793.309          43.700          47.000          51.300
 110238700.086 6  85741131.733 7                  20651395.750    20651395.805
  20651401.219                          40.500          43.300
 126748289.099 5  98764904.72544  94649699.425 7  24119388.852
  24119397.664    24119398.324          32.500          28.500          44.100
 109391040.913 7  85081811.941 7                  20442300.625    20442300.527
  20442305.289                          42.700          42.800
 108657353.982 7  84668077.78045                  20676800.281
  20676804.855                          43.700          35.500
 120575978.740 6  93955309.81243                  22944845.328
  22944849.836                          37.000          19.600
 123383446.252 5  96143023.63643                  23479104.773
  23479108.863                          34.600          20.900
 115592459.120 6  89905272.619 6                  21661972.867    21661971.570
  21661978.188                          38.300          40.200
 126794212.678 5  98800723.24844  94684024.380 7  24128142.805
  24128151.855    24128152.195          32.000          28.300          44.400
 112759362.089 6  87864510.91545  84203481.893 8  21457403.344
  21457412.082    21457410.570          41.800          32.000          50.100
 114326150.608 7  89085316.94445                  21755534.898
  21755537.891                          42.200          34.000
 111928370.780 5  87055331.876 6                  20953206.602    20953206.477
  20953209.883                          35.800          36.900
 110153747.022 7  85675045.493 7                  20613745.633    20613745.531
  20613749.688                          43.300          43.500
 131702836.159 6                  98349538.526 7  25062217.023
                  25062223.203          41.800                          45.500
 130356674.918 7                  97344283.737 8  24806051.555
                  24806056.211          44.200                          48.100
 109086581.355 6                  81460778.092 7  20758484.898
                  20758488.270          41.500                          45.500
 136524692.655 6                 101950284.326 7  25979785.016
                  25979791.398          37.400                          42.400
 120180472.836 7                  89745186.868 8  22869581.102
                  22869586.059          45.500                          49.200
 20  8 16  0 45 40.0000000  0 20R01G17G03R18G06R17G28G11G19R02G30G01
                                G22R16R15E36E02E14E15E30
 124926064.194 4  97164862.860 4                  23370033.867    23370031.566
  23370038.871                          29.600          28.000
 116777749.956 6  90995555.56146                  22222033.672
  22222038.762                          39.800          40.200
 110978860.121 7  86477137.51447  82873925.601 8  21118587.094
  21118594.742    21118595.563          43.100          46.800          51.100
 110237687.780 6  85740344.391 7                  20651206.859    20651205.949
  20651211.547                          40.500          43.200
 126745400.412 5  98762653.80144  94647542.323 7  24118838.313
  24118847.965    24118848.609          32.600          29.000          44.400
 109392397.868 7  85082867.351 7                  20442554.922    20442553.727
  20442558.766                          42.800          43.000
 108656498.382 7  84667411.07645                  20676637.398
  20676642.109                          43.600          35.900
 120578750.107 6  93957469.30943                  22945372.945
  22945377.266                          36.400          19.300
 123380724.616 5  96140902.86943                  23478586.805
  23478591.121                          34.800          20.100
 115590356.314 6  89903637.100 6                  21661580.227    21661577.414
  21661584.188                          38.000          40.000
 126797035.576 5  98802922.93344  94686132.367 7  24128680.664
  24128689.023    24128689.316          31.900          28.100          44.300
 112761913.996 6  87866499.41045  84205387.529 8  21457889.195
  21457897.746    21457896.188          41.500          32.400          50.200
 114327034.830 7  89086005.94645                  21755703.367
  21755706.195                          42.300          32.800
 111927325.972 5  87054519.230 6                  20953011.125    20953010.645
  20953014.227                          35.400          37.100
 110156703.527 7  85677344.993 7                  20614299.398    20614298.695
  20614302.945                          43.300          43.700
 131704626.262 7                  98350875.299 7  25062557.703
                  25062564.098          42.100                          45.700
 130359174.850 7                  97346150.574 8  24806527.172
                  24806532.082          44.400                          48.200
 109081025.011 6                  81456628.880 7  20757427.477
                  20757430.930          41.400                          45.400
 136522958.577 6                 101948989.407 7  25979455.227
                  25979461.164          38.000                          42.500
 120180438.348 7                  89745161.125 8  22869574.336
                  22869579.449          45.400                          49.100
 20  8 16  0 45 41.0000000  0 20R01G17G03R18G06R17G28G11G19R02G30G01
                                G22R16R15E36E02E14E15E30
 124928037.801 4  97166397.888 4                  23370402.156    23370401.133
  23370408.016                          29.700          28.800
 116775885.510 6  90994102.74346                  22221678.625
  22221684.043                          40.000          40.300
 110977821.703 7  86476328.36347  82873150.154 8  21118389.891
  21118397.141    21118397.949          42.700          46.900          51.000
 110236675.755 6  85739557.245 7                  20651017.906    20651016.234
  20651021.902                          40.600          43.600
 126742512.043 5  98760403.13444  94645385.427 7  24118288.672
  24118298.281    24118299.109          33.700          29.300          43.700
 109393755.032 7  85083922.920 7                  20442808.266    20442807.438
  20442812.406                          42.800          43.200
 108655643.323 7  84666744.80545                  20676474.281
  20676479.273                          43.400          35.500
 120581521.646 6  93959628.91843                  22945900.063
  22945904.805                          36.800          19.300
 123378003.094 5  96138782.20843                  23478069.383
  23478073.184                          35.100          19.600
 115588254.251 6  89902002.157 6                  21661185.352    21661183.652
  21661190.133                          37.900          39.900
 126799858.482 5  98805122.58744  94688240.426 7  24129217.117
  24129226.176    24129226.414          31.800          29.100          44.300
 112764466.162 6  87868488.10945  84207293.382 8  21458374.570
  21458383.352    21458381.871          41.700          32.000          49.900
 114327919.695 7  89086695.44945                  21755871.891
  21755874.617                          42.300          32.900
 111926282.059 5  87053707.295 6                  20952815.273    20952815.387
  20952818.871                          35.100          37.200
 110159660.696 7  85679645.018 7                  20614853.008    20614852.043
  20614856.391                          43.300          43.600
 131706416.458 7                  98352212.115 7  25062898.469
                  25062904.566          42.400                          45.600
 130361675.129 7                  97348017.658 8  24807003.328
                  24807007.715          44.100                          48.300
 109075469.166 6                  81452480.029 7  20756370.023
                  20756373.715          41.400                          45.700
 136521224.726 6                 101947694.630 7  25979125.266
                  25979131.090          38.100                          42.600
 120180404.397 7                  89745135.763 8  22869567.945
                  22869573.043          45.400                          49.300
 20  8 16  0 45 42.0000000  0 20R01G17G03R18G06R17G28G11G19R02G30G01
                                G22R16R15E36E02E14E15E30
 124930012.071 4  97167933.487 4                  23370769.016    23370770.141
  23370777.184                          29.500          29.300
 116774021.112 6  90992649.96846                  22221323.750
  22221329.387                          40.400          40.500
 110976783.927 7  86475519.70147  82872375.204 8  21118192.211
  21118199.621    21118200.375          43.000          46.900          51.100
 110235663.886 6  85738770.250 7                  20650827.719    20650826.930
  20650832.262                          40.900          43.500
 126739623.864 5  98758152.60344  94643228.678 7  24117738.375
  24117748.621    24117749.641          33.100          29.100          43.800
 109395112.321 7  85084978.596 7                  20443062.422    20443061.398
  20443066.125                          42.700          43.000
 108654788.772 7  84666078.91245                  20676311.781
  20676316.664                          43.500          35.900
 120584293.254 6  93961788.57743                  22946427.797
  22946432.258                          36.900          19.000
 123375281.553 5  96136661.52043                  23477551.367
  23477555.227                          34.800          19.600
 115586152.809 6  89900367.719 6                  21660790.484    21660789.789
  21660796.215                          38.400          39.900
 126802681.493 5  98807322.33744  94690348.514 7  24129755.133
  24129763.234    24129763.797          32.600          28.200          44.300
 112767018.568 7  87870477.00745  84209199.389 8  21458860.258
  21458868.910    21458867.457          42.000          31.900          49.900
 114328805.142 7  89087385.42445                  21756040.125
  21756043.141                          42.300          33.600
 111925238.950 5  87052896.020 6                  20952621.336    20952619.832
  20952623.504                          35.500          37.600
 110162618.489 7  85681945.529 7                  20615405.898    20615405.570
  20615409.906                          43.400          43.700
 131708206.647 7                  98353548.948 7  25063238.891
                  25063245.316          42.200                          45.900
 130364175.664 7                  97349884.934 8  24807478.922
                  24807483.715          44.200                          48.200
 109069913.732 6                  81448331.492 7  20755312.688
                  20755316.641          41.100                          45.900
 136519490.949 6                 101946399.938 7  25978795.258
                  25978801.418          38.500                          42.100
 120180370.899 7                  89745110.749 8  22869561.617
                  22869566.598          45.300                          49.400
 20  8 16  0 45 43.0000000  0 20R01G17G03R18G06R17G28G11G19R02G30G01
                                G22R16R15E36E02E14E15E30
 124931987.114 4  97169469.635 4                  23371139.867    23371139.844
  23371146.668                          29.800          29.700
 116772156.815 6  90991197.27146                  22220969.258
  22220974.625                          40.800          40.500
 110975746.835 7  86474711.57547  82871600.754 8  21117994.680
  21118002.285    21118003.129          43.000          46.700          51.100
 110234652.279 6  85737983.428 7                  20650638.930    20650637.340
  20650642.742                          41.600          43.200
 126736735.910 5  98755902.25044  94641072.085 7  24117188.602
  24117199.031    24117199.973          32.600          28.900          43.900
 109396469.805 7  85086034.422 7                  20443316.383    20443314.813
  20443319.680                          42.600          43.300
 108653934.720 7  84665413.42145                  20676149.547
  20676153.977                          43.400          35.700
 120587065.014 6  93963948.41843                  22946954.977
  22946959.633                          37.200          19.000
 123372560.104 5  96134540.91443                  23477033.031
  23477037.223                          34.200          18.300
 115584052.053 6  89898733.808 6                  21660397.891    21660396.297
  21660402.469                          38.400          40.000
 126805504.601 5  98809522.16544  94692456.661 7  24130292.891
  24130300.527    24130300.789          32.300          27.900          43.800
 112769571.234 6  87872466.09045  84211105.583 8  21459346.055
  21459354.625    21459353.309          41.800          31.900          50.100
 114329691.208 7  89088075.85645                  21756208.813
  21756211.793                          42.100          33.300
 111924196.839 5  87052085.473 6                  20952426.297    20952424.613
  20952428.340                          35.100          37.600
 110165576.969 7  85684246.556 7                  20615960.125    20615959.410
  20615963.617                          43.200          43.600
 131709996.878 7                  98354885.824 7  25063579.492
                  25063585.953          42.400                          45.900
 130366676.488 7                  97351752.435 7  24807954.594
                  24807959.523          44.500                          47.800
 109064358.738 6                  81444183.288 7  20754255.641
                  20754259.527          41.200                          45.600
 136517757.399 6                 101945105.397 7  25978465.055
                  25978471.563          38.500                          42.100
 120180337.897 7                  89745086.102 8  22869555.570
                  22869560.414          45.600                          49.800
 20  8 16  0 45 44.0000000  0 20R01G17G03R18G06R17G28G11G19R02G30G01
                                G22R16R15E36E02E14E15E30
 124933962.884 5  97171006.323 5                  23371509.242    23371509.367
  23371516.391                          30.400          30.100
 116770292.548 6  90989744.59646                  22220614.383
  22220619.664                          40.600          40.700
 110974710.356 7  86473903.93247  82870826.757 8  21117797.922
  21117804.938    21117805.770          43.100          46.700          51.500
 110233640.882 6  85737196.799 7                  20650449.445    20650448.137
  20650453.313                          41.300          43.200
 126733848.189 5  98753652.09244  94638915.653 7  24116639.875
  24116649.438    24116650.504          32.300          29.800          43.800
 109397827.417 7  85087090.321 7                  20443569.563    20443568.879
  20443573.402                          43.000          43.600
 108653081.200 7  84664748.33845                  20675987.094
  20675991.754                          43.200          35.600
 120589836.843 6  93966108.27343                  22947482.336
  22947487.172                          36.200          19.000
 123369838.659 5  96132420.30543                  23476516.070
  23476519.230                          34.300          19.000
 115581951.954 6  89897100.388 6                  21660004.297    21660002.301
  21660008.828                          38.400          39.800
 126808327.743 5  98811722.01344  94694564.841 7  24130829.258
  24130837.551    24130837.898          32.400          29.100          44.000
 112772124.079 6  87874455.32045  84213011.934 8  21459832.016
  21459840.570    21459839.184          41.800          32.400          49.800
 114330577.889 7  89088766.77745                  21756377.914
  21756380.379                          42.400          33.100
 111923155.549 5  87051275.589 6                  20952231.336    20952229.879
  20952233.285                          35.700          37.600
 110168536.015 7  85686548.035 7                  20616514.023    20616512.918
  20616517.367                          42.700          43.500
 131711787.146 7                  98356222.704 7  25063920.469
                  25063926.805          42.600                          45.800
 130369177.584 7                  97353620.131 7  24808430.383
                  24808435.570          44.200                          47.300
 109058804.184 6                  81440035.393 7  20753198.805
                  20753202.500          41.000                          45.700
 136516023.905 6                 101943810.908 7  25978134.945
                  25978141.520          38.200                          42.500
 120180305.338 7                  89745061.783 8  22869549.109
                  22869554.086          45.400                          49.900
 20  8 16  0 45 45.0000000  0 20R01G17G03R18G06R17G28G11G19R02G30G01
                                G22R16R15E36E02E14E15E30
 124935939.379 5  97172543.604 4                  23371877.922    23371878.754
  23371886.016                          30.300          28.300
 116768428.376 6  90988292.00346                  22220259.836
  22220264.957                          40.600          40.500
 110973674.546 7  86473096.81447  82870053.261 8  21117600.422
  21117608.047    21117608.770          43.400          46.800          51.300
 110232629.750 6  85736410.371 7                  20650258.227    20650258.391
  20650263.754                          41.300          43.100
 126730960.587 5  98751402.01344  94636759.385 7  24116091.172
  24116099.895    24116101.039          32.400          29.200          44.100
 109399185.129 7  85088146.332 7                  20443824.063    20443822.418
  20443827.340                          43.200          43.300
 108652228.174 7  84664083.64546                  20675824.922
  20675829.520                          43.100          36.000
 120592608.817 6  93968268.26343                  22948009.766
  22948014.609                          36.700          19.300
 123367117.290 5  96130299.75343                  23475997.063
  23476001.531                          34.000          18.300
 115579852.481 6  89895467.478 6                  21659610.992    21659609.098
  21659615.473                          38.700          40.000
 126811150.930 5  98813921.89744  94696673.067 7  24131365.852
  24131374.875    24131374.949          32.800          28.600          44.100
 112774677.191 6  87876444.76145  84214918.479 8  21460317.633
  21460326.402    21460324.973          41.600          32.100          49.800
 114331465.152 7  89089458.14845                  21756546.719
  21756549.332                          42.000          32.800
 111922115.045 5  87050466.304 6                  20952037.078    20952035.047
  20952038.441                          35.500          37.400
 110171495.684 7  85688850.008 7                  20617066.922    20617067.082
  20617071.266                          42.800          43.300
 131713577.430 7                  98357559.600 7  25064261.383
                  25064267.309          42.700                          45.800
 130371678.964 7                  97355488.038 7  24808906.289
                  24808911.355          44.000                          47.800
 109053250.045 6                  81435887.829 7  20752141.766
                  20752145.520          41.100                          45.300
 136514290.603 6                 101942516.548 7  25977805.680
                  25977811.586          38.700                          42.400
 120180273.261 7                  89745037.845 8  22869543.203
                  22869548.188          45.600                          50.100
 20  8 16  0 45 46.0000000  0 20R01G17G03R18G06R17G28G11G19R02G30G01
                                G22R16R15E36E02E14E15E30
 124937916.597 5  97174081.394 4                  23372247.961    23372248.195
  23372255.867                          30.100          29.300
 116766564.312 6  90986839.47746                  22219905.023
  22219910.355                          40.300          40.700
 110972639.407 7  86472290.20847  82869280.272 8  21117403.219
  21117410.965    21117411.809          43.400          46.800          51.100
 110231618.889 6  85735624.124 7                  20650069.688    20650069.109
  20650074.430                          41.100          43.300
 126728073.352 5  98749152.20244  94634603.290 7  24115540.992
  24115550.508    24115551.348          32.200          29.700          44.000
 109400543.054 7  85089202.509 7                  20444077.617    20444076.262
  20444080.953                          42.700          43.200
 108651375.703 7  84663419.38445                  20675662.383
  20675667.184                          43.100          35.900
 120595380.880 5  93970428.30343                  22948536.617
  22948542.121                          35.400          19.000
 123364395.934 5  96128179.20943                  23475479.328
  23475483.652                          33.800          19.000
 115577753.735 6  89893835.102 6                  21659217.242    21659216.320
  21659222.293                          38.400          39.500
 126813974.220 5  98816121.86144  94698781.347 7  24131903.328
  24131911.965    24131912.375          32.500          27.800          43.700
 112777230.558 6  87878434.39045  84216825.218 8  21460804.516
  21460812.316    21460810.902          41.600          32.600          50.000
 114332353.059 7  89090150.02445                  21756715.852
  21756718.379                          42.600          32.600
 111921075.454 5  87049657.756 6                  20951842.039    20951840.184
  20951843.887                          35.500          37.300
 110174456.020 7  85691152.473 7                  20617622.211    20617621.004
  20617625.336                          42.600          43.200
 131715367.775 7                  98358896.534 7  25064601.680
                  25064607.961          42.100                          45.700
 130374180.668 7                  97357356.180 7  24809382.602
                  24809387.430          44.300                          47.700
 109047696.376 6                  81431740.614 7  20751084.680
                  20751088.793          41.300                          45.600
 136512557.436 6                 101941222.322 7  25977475.781
                  25977481.844          38.900                          42.600
 120180241.701 7                  89745014.284 8  22869536.867
                  22869542.063          45.600                          50.400
 20  8 16  0 45 47.0000000  0 20R01G17G03R18G06R17G28G11G19R02G30G01
                                G22R16R15E36E02E14E15E30
 124939894.579 5  97175619.830 4                  23372619.477    23372618.844
  23372625.926                          30.600          28.800
 116764700.297 6  90985386.99246                  22219549.945
  22219555.578                          40.300          40.100
 110971604.952 7  86471484.13447  82868507.776 8  21117206.414
  21117214.066    21117214.953          43.500          46.700          50.900
 110230608.270 6  85734838.101 7                  20649881.031    20649879.922
  20649885.113                          41.400          43.300
 126725186.331 5  98746902.58844  94632447.359 7  24114991.367
  24115001.023    24115002.023          33.400          29.400          43.800
 109401901.184 7  85090258.822 7                  20444332.391    20444329.766
  20444334.840                          42.600          43.400
 108650523.759 7  84662755.52045                  20675500.570
  20675504.984                          43.100          35.400
 120598153.087 6  93972588.47343                  22949064.242
  22949069.496                          36.300          19.300
 123361674.660 5  96126058.73743                  23474961.289
  23474965.852                          33.400          19.300
 115575655.598 6  89892203.222 6                  21658823.391    21658822.945
  21658829.227                          38.400          39.900
 126816797.532 5  98818321.84944  94700889.704 7  24132441.320
  24132449.320    24132449.938          32.600          28.000          43.600
 112779784.147 6  87880424.20645  84218732.130 8  21461289.898
  21461298.191    21461296.750          41.800          32.300          49.900
 114333241.591 7  89090842.38045                  21756884.273
  21756887.438                          42.500          32.900
 111920036.717 5  87048849.851 6                  20951647.922    20951645.906
  20951649.543                          35.800          37.200
 110177417.010 7  85693455.469 7                  20618175.695    20618174.965
  20618179.395                          42.800          43.100
 131717158.151 6                  98360233.510 7  25064942.344
                  25064948.805          41.700                          45.700
 130376682.638 7                  97359224.558 7  24809858.680
                  24809863.648          44.400                          47.600
 109042143.161 6                  81427593.723 7  20750028.148
                  20750032.102          41.500                          45.900
 136510824.438 6                 101939928.205 7  25977145.477
                  25977152.391          38.500                          42.500
 120180210.633 7                  89744991.077 8  22869531.070
                  22869536.191          45.700                          50.100
 20  8 16  0 45 48.0000000  0 20R01G17G03R18G06R17G28G11G19R02G30G01
                                G22R16R15E36E02E14E15E30
 124941873.234 5  97177158.764 4                  23372989.945    23372988.594
  23372996.082                          30.000          28.900
 116762836.350 6  90983934.57546                  22219195.523
  22219200.883                          40.500          40.500
 110970571.118 7  86470678.54847  82867735.761 8  21117010.133
  21117017.395    21117018.254          43.500          47.000          50.900
 110229597.870 6  85734052.223 7                  20649691.195    20649690.402
  20649695.871                          41.500          43.200
 126722299.478 5  98744653.09145  94630291.590 7  24114441.883
  24114451.703    24114452.648          32.200          30.000          43.800
 109403259.458 7  85091315.249 7                  20444584.742    20444583.762
  20444588.613                          43.000          43.100
 108649672.323 7  84662092.06845                  20675338.734
  20675342.891                          43.000          35.700
 120600925.370 6  93974748.71243                  22949592.016
  22949597.051                          37.000          18.300
 123358953.399 5  96123938.27243                  23474443.414
  23474448.023                          33.200          20.100
 115573558.112 6  89890571.834 6                  21658432.602    21658430.199
  21658436.297                          38.400          39.900
 126819620.944 5  98820521.89344  94702998.089 7  24132978.656
  24132986.512    24132987.074          32.400          27.300          44.000
 112782337.968 6  87882414.20345  84220639.218 8  21461775.484
  21461784.117    21461782.848          41.700          32.600          50.000
 114334130.722 7  89091535.21645                  21757053.406
  21757056.594                          42.100          33.300
 111918998.830 5  87048042.581 6                  20951453.461    20951451.484
  20951455.172                          35.700          37.100
 110180378.618 7  85695758.944 7                  20618729.367    20618729.059
  20618733.641                          42.400          43.100
 131718948.563 6                  98361570.505 7  25065283.258
                  25065289.422          41.800                          46.000
 130379184.879 7                  97361093.120 7  24810334.617
                  24810339.875          44.200                          47.900
 109036590.393 6                  81423447.177 7  20748971.492
                  20748975.387          41.600                          45.900
 136509091.584 6                 101938634.168 7  25976815.734
                  25976822.324          38.300                          42.000
 120180180.019 7                  89744968.205 8  22869525.188
                  22869530.375          45.800                          50.200
 20  8 16  0 45 49.0000000  0 20R01G17G03R18G06R17G28G11G19R02G30G01
                                G22R16R15E36E02E14E15E30
 124943852.645 5  97178698.347 4                  23373360.727    23373359.008
  23373366.383                          30.500          29.100
 116760972.438 6  90982482.17646                  22218840.594
  22218846.000                          40.200          40.400
 110969537.915 7  86469873.45647  82866964.219 8  21116813.242
  21116820.813    21116821.566          43.500          46.800          50.900
 110228587.647 6  85733266.520 7                  20649502.594    20649501.168
  20649506.590                          41.100          43.600
 126719412.744 5  98742403.68344  94628135.969 7  24113892.859
  24113902.395    24113903.242          32.200          29.900          43.700
 109404617.849 7  85092371.776 7                  20444838.641    20444837.891
  20444842.344                          43.100          43.300
 108648821.340 7  84661428.96445                  20675176.375
  20675181.066                          42.900          35.800
 120603697.764 5  93976908.99243                  22950119.219
  22950124.637                          35.800          18.600
 123356232.144 5  96121817.83543                  23473925.641
  23473930.184                          33.000          19.600
 115571461.213 6  89888940.943 6                  21658037.719    21658037.031
  21658043.441                          38.400          39.700
 126822444.414 5  98822722.01044  94705106.518 7  24133515.383
  24133523.797    24133524.402          32.400          28.100          44.100
 112784892.049 6  87884404.38545  84222546.458 8  21462261.422
  21462270.086    21462268.711          41.300          31.800          49.600
 114335020.416 7  89092228.48845                  21757222.563
  21757225.887                          42.100          32.900
 111917961.755 5  87047235.986 6                  20951259.445    20951257.301
  20951261.020                          35.900          37.000
 110183340.851 7  85698062.900 7                  20619284.391    20619283.695
  20619287.984                          43.000          43.600
 131720738.972 6                  98362907.487 7  25065623.523
                  25065630.238          41.800                          46.000
 130381687.406 7                  97362961.879 7  24810811.195
                  24810816.070          44.200                          47.900
 109031038.043 6                  81419300.918 7  20747914.758
                  20747918.746          41.600                          46.000
 136507358.843 6                 101937340.240 7  25976486.711
                  25976492.535          38.400                          42.100
 120180149.864 7                  89744945.695 8  22869519.531
                  22869524.660          46.000                          50.400
 20  8 16  0 45 50.0000000  0 20R01G17G03R18G06R17G28G11G19R02G30G01
                                G22R16R15E36E02E14E15E30
 124945832.829 5  97180238.446 4                  23373729.383    23373729.195
  23373736.770                          30.500          28.200
 116759108.657 6  90981029.87946                  22218485.922
  22218491.473                          40.000          40.200
 110968505.410 7  86469068.90847  82866193.199 8  21116616.594
  21116624.266    21116625.043          43.400          46.900          50.900
 110227577.704 6  85732481.004 7                  20649312.773    20649312.293
  20649317.375                          41.200          43.600
 126716526.317 5  98740154.52045  94625980.541 7  24113343.695
  24113352.918    24113354.199          33.000          30.100          44.100
 109405976.364 7  85093428.416 7                  20445093.195    20445091.551
  20445096.297                          43.000          42.800
 108647970.972 7  84660766.33646                  20675014.453
  20675019.227                          43.300          36.200
 120606470.309 6  93979069.44343                  22950647.055
  22950652.336                          36.200          18.600
 123353510.983 5  96119697.47143                  23473407.898
  23473412.363                          33.200          19.300
 115569365.074 6  89887310.583 6                  21657645.086    21657644.012
  21657650.383                          38.500          39.700
 126825267.945 5  98824922.15544  94707214.990 7  24134053.758
  24134061.242    24134061.652          33.000          28.200          43.800
 112787446.358 6  87886394.75945  84224453.906 8  21462747.969
  21462756.328    21462754.836          41.200          33.000          49.700
 114335910.768 7  89092922.26745                  21757392.398
  21757395.273                          42.200          32.200
 111916925.659 5  87046430.137 6                  20951064.430    20951063.625
  20951067.078                          35.400          37.600
 110186303.715 7  85700367.378 7                  20619838.625    20619838.145
  20619842.500                          42.600          43.300
 131722529.467 6                  98364244.538 7  25065964.594
                  25065970.688          41.900                          45.700
 130384190.246 7                  97364830.880 8  24811287.281
                  24811292.379          43.700                          48.100
 109025486.116 6                  81415155.024 7  20746858.094
                  20746862.293          41.700                          46.000
 136505626.297 6                 101936046.459 7  25976156.680
                  25976162.910          37.400                          42.100
 120180120.213 7                  89744923.548 8  22869513.938
                  22869518.895          45.900                          50.300
 20  8 16  0 45 51.0000000  0 20R01G17G03R18G06R17G28G11G19R02G30G01
                                G22R16R15E36E02E14E15E30
 124947813.680 5  97181779.122 4                  23374100.773    23374100.684
  23374107.293                          30.400          29.100
 116757244.944 6  90979577.63546                  22218131.297
  22218136.820                          39.900          40.500
 110967473.563 7  86468264.86747  82865422.653 8  21116420.156
  21116427.910    21116428.738          43.700          47.000          50.700
 110226567.982 6  85731695.651 7                  20649124.672    20649123.035
  20649128.250                          41.300          43.100
 126713640.168 5  98737905.57544  94623825.253 7  24112794.555
  24112803.566    24112804.883          32.600          28.800          43.700
 109407335.084 7  85094485.197 7                  20445346.836    20445345.566
  20445350.164                          43.200          43.100
 108647121.069 7  84660104.08046                  20674852.945
  20674857.516                          43.600          36.200
 120609242.933 6  93981229.90443                  22951175.266
  22951179.988                          36.000          18.300
 123350789.829 5  96117577.08143                  23472889.422
  23472894.613                          33.800          19.300
 115567269.570 6  89885680.785 6                  21657251.969    21657251.223
  21657257.555                          38.600          39.600
 126828091.509 5  98827122.33444  94709323.532 7  24134590.281
  24134598.500    24134599.129          31.600          28.700          43.400
 112790000.901 6  87888385.31245  84226361.531 8  21463233.695
  21463242.449    21463240.844          41.600          32.900          50.100
 114336801.736 7  89093616.52145                  21757561.508
  21757564.660                          42.100          33.000
 111915890.380 5  87045624.912 6                  20950870.188    20950869.527
  20950873.367                          35.700          37.700
 110189267.229 7  85702672.311 7                  20620392.008    20620392.441
  20620396.945                          43.000          43.000
 131724319.938 6                  98365581.606 7  25066305.258
                  25066311.605          41.900                          45.900
 130386693.354 7                  97366700.093 7  24811763.758
                  24811768.695          43.600                          47.900
 109019934.687 6                  81411009.464 7  20745801.539
                  20745805.914          41.200                          46.000
 136503893.887 6                 101934752.784 6  25975827.289
                  25975833.285          37.800                          41.900
 120180091.042 7                  89744901.762 8  22869508.305
                  22869513.516          45.900                          50.300
 20  8 16  0 45 52.0000000  0 20R01G17G03R18G06R17G28G11G19R02G30G01
                                G22R16R15E36E02E14E15E30
 124949795.244 5  97183320.340 4                  23374471.430    23374471.391
  23374477.992                          30.100          28.600
 116755381.229 6  90978125.38946                  22217776.359
  22217782.242                          40.200          40.800
 110966442.337 7  86467461.31947  82864652.586 8  21116223.813
  21116231.695    21116232.535          43.500          46.800          50.700
 110225558.439 6  85730910.462 7                  20648934.852    20648934.273
  20648938.977                          41.700          43.200
 126710754.168 5  98735656.75144  94621670.116 7  24112245.617
  24112254.332    24112255.742          32.800          29.900          44.000
 109408693.961 7  85095542.082 7                  20445599.820    20445599.301
  20445604.152                          42.800          43.400
 108646271.667 7  84659442.20545                  20674691.070
  20674695.820                          43.700          35.700
 120612015.646 6  93983390.46343                  22951702.914
  22951707.742                          36.100          18.300
 123348068.684 5  96115456.70543                  23472371.859
  23472376.832                          33.600          19.900
 115565174.724 6  89884051.445 6                  21656859.820    21656858.777
  21656864.922                          38.500          40.000
 126830915.213 5  98829322.63044  94711432.096 7  24135127.430
  24135135.922    24135136.336          31.300          27.700          43.500
 112792555.711 6  87890376.07345  84228269.315 8  21463719.977
  21463728.707    21463727.137          41.700          31.900          49.900
 114337693.264 6  89094311.22245                  21757731.516
  21757734.457                          41.800          33.300
 111914855.951 5  87044820.375 6                  20950676.938    20950675.563
  20950679.785                          35.300          37.800
 110192231.343 7  85704977.720 7                  20620946.734    20620947.105
  20620951.766                          42.900          43.000
 131726110.466 6                  98366918.687 7  25066646.172
                  25066652.188          41.800                          45.600
 130389196.754 7                  97368569.498 7  24812240.219
                  24812244.887          43.600                          47.700
 109014383.658 6                  81406864.218 7  20744745.430
                  20744749.566          41.000                          46.100
 136502161.591 6                 101933459.173 6  25975497.852
                  25975503.617          37.900                          41.900
 120180062.319 7                  89744880.321 8  22869502.836
                  22869507.969          46.100                          50.000
 20  8 16  0 45 53.0000000  0 20R01G17G03R18G06R17G28G11G19R02G30G01
                                G22R16R15E36E02E14E15E30
 124951777.579 5  97184862.132 4                  23374843.625    23374842.273
  23374848.707                          30.200          27.500
 116753517.689 6  90976673.27746                  22217421.875
  22217427.492                          40.200          40.400
 110965411.797 7  86466658.29847  82863883.031 8  21116027.930
  21116035.648    21116036.453          43.400          46.700          50.900
 110224549.203 6  85730125.503 7                  20648745.617    20648745.051
  20648749.887                          41.600          43.100
 126707868.352 5  98733408.06044  94619515.168 7  24111696.234
  24111705.051    24111706.613          33.200          29.600          43.600
 109410053.012 7  85096599.139 7                  20445854.289    20445853.301
  20445858.086                          42.900          43.600
 108645422.834 7  84658780.77546                  20674529.797
  20674534.336                          43.400          36.200
 120614788.535 6  93985551.15843                  22952231.383
  22952235.465                          36.700          19.000
 123345347.655 5  96113336.43343                  23471854.641
  23471859.117                          33.600          19.300
 115563080.546 6  89882422.682 6                  21656467.000    21656465.871
  21656472.527                          38.600          39.700
 126833738.935 5  98831522.92244  94713540.730 7  24135665.359
  24135673.246    24135673.930          31.900          28.700          43.300
 112795110.731 6  87892366.99945  84230177.298 8  21464206.375
  21464214.941    21464213.363          41.700          32.300          49.500
 114338585.451 7  89095006.43145                  21757901.102
  21757904.070                          42.100          32.900
 111913822.501 5  87044016.520 6                  20950482.914    20950482.207
  20950486.309                          35.900          37.700
 110195196.135 7  85707283.679 7                  20621502.328    20621502.363
  20621506.434                          43.200          43.400
 131727901.048 7                  98368255.788 7  25066987.047
                  25066992.980          42.100                          45.300
 130391700.440 7                  97370439.144 7  24812716.477
                  24812721.430          43.700                          47.800
 109008833.077 6                  81402719.314 7  20743688.961
                  20743693.285          40.900                          46.000
 136500429.450 6                 101932165.706 7  25975167.930
                  25975174.063          37.700                          42.200
 120180034.118 7                  89744859.263 8  22869497.656
                  22869502.648          45.700                          49.800
 20  8 16  0 45 54.0000000  0 20R01G17G03R18G06R17G28G11G19R02G30G01
                                G22R16R15E36E02E14E15E30
 124953760.556 5  97186404.493 4                  23375214.523    23375212.996
  23375219.688                          30.300          27.500
 116751654.152 6  90975221.17846                  22217067.602
  22217072.910                          40.200          40.400
 110964381.909 7  86465855.78847  82863113.944 8  21115832.172
  21115839.563    21115840.570          43.900          46.900          51.100
 110223540.195 6  85729340.706 7                  20648556.852    20648556.207
  20648560.879                          41.600          43.300
 126704982.804 5  98731159.57945  94617360.352 7  24111146.719
  24111155.852    24111157.563          33.100          30.600          43.500
 109411412.193 7  85097656.273 7                  20446109.078    20446107.723
  20446112.191                          43.000          43.100
 108644574.487 7  84658119.72345                  20674368.328
  20674372.855                          43.400          35.700
 120617561.508 6  93987711.93643                  22952758.164
  22952763.266                          37.100          19.000
 123342626.635 5  96111216.16743                  23471337.180
  23471341.223                          34.000          19.300
 115560987.001 6  89880794.345 6                  21656076.305    21656073.891
  21656080.188                          38.400          39.900
 126836562.671 5  98833723.22444  94715649.392 7  24136202.023
  24136210.547    24136211.152          32.800          28.900          43.200
 112797665.979 6  87894358.09845  84232085.435 8  21464692.961
  21464700.953    21464699.559          41.800          32.200          50.000
 114339478.184 7  89095702.06845                  21758071.586
  21758074.160                          42.100          32.700
 111912789.769 5  87043213.319 6                  20950290.320    20950289.031
  20950292.973                          35.700          37.600
 110198161.549 7  85709590.112 7                  20622056.797    20622057.422
  20622061.414                          42.700          43.500
 131729691.621 7                  98369592.921 7  25067327.625
                  25067333.664          42.100                          45.500
 130394204.392 7                  97372308.992 7  24813192.789
                  24813198.047          43.700                          47.700
 109003282.915 6                  81398574.719 7  20742633.023
                  20742637.180          40.600                          46.000
 136498697.472 6                 101930872.335 7  25974838.359
                  25974844.293          37.900                          42.300
 120180006.369 7                  89744838.541 8  22869492.281
                  22869497.348          45.900                          49.700
 20  8 16  0 45 55.0000000  0 20R01G17G03R18G06R17G28G11G19R02G30G01
                                G22R16R15E36E02E14E15E30
 124955744.324 4  97187947.408 4                  23375585.836    23375584.078
  23375590.859                          29.900          28.300
 116749790.690 6  90973769.12546                  22216712.531
  22216718.434                          40.100          40.100
 110963352.647 7  86465053.76347  82862345.349 8  21115636.188
  21115643.887    21115644.699          43.400          46.600          51.100
 110222531.395 6  85728556.096 7                  20648367.906    20648367.410
  20648371.824                          41.300          43.700
 126702097.462 5  98728911.26544  94615205.721 7  24110598.344
  24110606.742    24110608.465          32.800          29.400          43.500
 109412771.530 7  85098713.523 7                  20446363.195    20446361.652
  20446366.141                          42.700          43.400
 108643726.642 7  84657459.06745                  20674206.891
  20674211.656                          42.900          35.100
 120620334.540 6  93989872.72743                  22953285.750
  22953290.992                          36.300          19.900
 123339905.617 5  96109095.90843                  23470819.836
  23470823.441                          33.500          19.000
 115558894.099 6  89879166.529 6                  21655684.500    21655681.816
  21655687.949                          38.100          40.000
 126839386.516 5  98835923.64444  94717758.098 7  24136738.430
  24136748.023    24136748.477          31.800          27.200          43.700
 112800221.475 6  87896349.38645  84233993.760 8  21465178.414
  21465187.184    21465185.805          41.100          31.900          49.900
 114340371.567 6  89096398.21445                  21758240.969
  21758244.059                          41.300          32.800
 111911757.945 5  87042410.746 6                  20950096.469    20950095.633
  20950099.723                          34.700          37.200
 110201127.560 7  85711897.009 7                  20622612.625    20622612.227
  20622616.316                          42.500          43.200
 131731482.236 6                  98370930.074 7  25067668.398
                  25067674.457          41.500                          45.100
 130396708.647 7                  97374179.032 7  24813669.430
                  24813674.402          43.100                          47.600
 108997733.202 6                  81394430.454 7  20741576.758
                  20741581.172          40.200                          45.800
 136496965.605 6                 101929579.081 7  25974509.086
                  25974514.867          37.400                          42.100
 120179979.107 7                  89744818.171 8  22869487.047
                  22869492.098          45.900                          49.600
 20  8 16  0 45 56.0000000  0 20R01G17G03R18G06R17G28G11G19R02G30G01
                                G22R16R15E36E02E14E15E30
 124957728.802 5  97189490.855 4                  23375956.359    23375955.324
  23375962.090                          30.000          28.600
 116747927.333 6  90972317.15846                  22216358.117
  22216363.969                          40.700          40.300
 110962324.085 7  86464252.28847  82861577.258 8  21115440.297
  21115448.184    21115449.000          43.700          46.700          51.100
 110221522.825 6  85727771.655 7                  20648178.688    20648178.441
  20648183.012                          41.400          43.500
 126699212.33715  98726663.12754  94613051.260 7  24110049.406
  24110057.773    24110059.254          33.500          29.700          43.400
 109414130.986 7  85099770.901 7                  20446616.773    20446615.934
  20446620.152                          42.500          43.300
 108642879.345 7  84656798.83245                  20674046.063
  20674050.328                          42.900          35.600
 120623107.706 6  93992033.63243                  22953813.883
  22953818.656                          36.700          19.300
 123337184.688 5  96106975.66543                  23470301.703
  23470305.676                          32.900          19.000
 115556801.856 6  89877539.217 6                  21655291.969    21655289.793
  21655296.016                          39.200          40.000
 126842210.464 5  98838124.11544  94719866.850 7  24137277.000
  24137285.414    24137285.594          32.500          28.900          44.000
 112802777.208 6  87898340.87345  84235902.268 8  21465665.086
  21465673.625    21465672.344          41.400          31.900          50.000
 114341265.565 6  89097094.82645                  21758411.688
  21758414.137                          41.600          33.100
 111910726.941 5  87041608.890 6                  20949902.828    20949902.699
  20949906.668                          35.100          37.100
 110204094.180 7  85714204.387 7                  20623167.445    20623167.305
  20623171.512                          43.000          43.400
 131733272.909 7                  98372267.256 7  25068009.234
                  25068015.145          42.300                          45.600
 130399213.180 7                  97376049.307 7  24814146.031
                  24814151.070          43.600                          47.700
 108992183.972 6                  81390286.549 7  20740520.719
                  20740525.410          40.900                          45.500
 136495233.920 6                 101928285.939 7  25974179.711
                  25974185.273          38.000                          42.100
 120179952.337 7                  89744798.184 8  22869481.852
                  22869486.879          46.000                          49.400
 20  8 16  0 45 57.0000000  0 20R01G17G03R18G06R17G28G11G19R02G30G01
                                G22R16R15E36E02E14E15E30
 124959714.020 4  97191034.916 4                  23376327.086    23376326.730
  23376333.469                          29.700          27.800
 116746064.051 6  90970865.24946                  22216003.594
  22216009.313                          40.200          40.100
 110961296.169 7  86463451.31947  82860809.666 8  21115245.133
  21115252.500    21115253.383          43.600          46.800          51.100
 110220514.537 6  85726987.407 7                  20647989.852    20647989.504
  20647994.117                          41.500          43.500
 126696327.442 5  98724415.15845  94610896.955 7  24109500.047
  24109508.695    24109510.305          32.800          30.400          43.200
 109415490.656 7  85100828.408 7                  20446870.633    20446869.664
  20446874.215                          42.600          43.500
 108642032.583 7  84656139.01545                  20673884.719
  20673889.207                          43.200          35.600
 120625881.067 6  93994194.68543                  22954342.555
  22954346.348                          36.500          19.900
 123334463.798 5  96104855.50743                  23469783.375
  23469787.941                          32.600          19.300
 115554710.288 6  89875912.446 6                  21654899.281    21654898.051
  21654903.914                          38.700          40.000
 126845034.461 5  98840324.63244  94721975.682 7  24137814.719
  24137822.738    24137823.039          33.500          28.900          43.600
 112805333.200 6  87900332.55445  84237810.954 8  21466151.930
  21466160.059    21466158.574          41.700          32.200          49.500
 114342160.172 7  89097791.92945                  21758581.250
  21758584.512                          42.000          32.400
 111909696.786 5  87040807.649 6                  20949710.516    20949710.207
  20949713.789                          35.400          37.600
 110207061.484 7  85716512.288 7                  20623722.047    20623722.629
  20623726.754                          43.000          43.600
 131735063.605 6                  98373604.464 7  25068349.859
                  25068356.055          41.900                          45.400
 130401718.028 7                  97377919.804 7  24814622.852
                  24814627.785          43.600                          47.800
 108986635.180 6                  81386142.967 7  20739464.922
                  20739469.555          40.900                          45.600
 136493502.381 6                 101926992.901 7  25973850.109
                  25973855.797          37.700                          42.100
 120179926.054 7                  89744778.559 8  22869477.063
                  22869481.906          45.600                          49.800
 20  8 16  0 45 58.0000000  0 20R01G17G03R18G06R17G28G11G19R02G30G01
                                G22R16R15E36E02E14E15E30
 124961699.884 4  97192579.510 4                  23376699.492    23376698.039
  23376704.941                          29.600          28.100
 116744200.799 6  90969413.36646                  22215649.398
  22215654.691                          40.200          40.500
 110960268.869 7  86462650.82647  82860042.535 8  21115049.195
  21115056.996    21115057.891          43.500          46.800          50.900
 110219506.387 6  85726203.315 7                  20647801.281    20647800.809
  20647805.246                          41.800          43.400
 126693442.715 5  98722167.31444  94608742.784 7  24108952.125
  24108959.758    24108961.402          32.800          29.900          43.400
 109416850.443 7  85101886.024 7                  20447124.055    20447123.891
  20447128.477                          42.800          42.900
 108641186.289 7  84655479.56945                  20673723.844
  20673728.164                          42.600          35.700
 120628654.465 6  93996355.76843                  22954868.859
  22954874.043                          36.300          20.100
 123331742.906 5  96102735.34243                  23469266.172
  23469270.270                          32.800          19.000
 115552619.365 6  89874286.177 6                  21654507.688    21654506.125
  21654512.168                          38.900          40.000
 126847858.498 5  98842525.18144  94724084.510 7  24138352.289
  24138360.082    24138360.434          33.300          27.600          43.400
 112807889.386 6  87902324.38345  84239719.796 8  21466637.820
  21466646.324    21466645.004          41.900          32.300          49.900
 114343055.344 7  89098489.46245                  21758752.422
  21758754.809                          42.000          32.500
 111908667.542 5  87040007.142 6                  20949517.164    20949517.297
  20949521.148                          35.300          36.700
 110210029.397 7  85718820.670 7                  20624278.461    20624278.094
  20624282.289                          43.100          43.100
 131736854.285 6                  98374941.683 7  25068690.781
                  25068696.742          41.900                          45.400
 130404223.107 7                  97379790.485 8  24815099.258
                  24815104.461          43.700                          48.000
 108981086.802 6                  81381999.697 7  20738409.398
                  20738413.828          40.900                          45.600
 136491770.970 6                 101925699.964 7  25973520.508
                  25973526.195          37.800                          42.300
 120179900.202 7                  89744759.266 8  22869471.945
                  22869477.180          45.700                          49.600
 20  8 16  0 45 59.0000000  0 20R01G17G03R18G06R17G28G11G19R02G30G01
                                G22R16R15E36E02E14E15E30
 124963686.525 5  97194124.640 4                  23377069.563    23377069.293
  23377076.547                          30.100          29.200
 116742337.645 6  90967961.55746                  22215294.852
  22215300.199                          40.700          40.500
 110959242.278 7  86461850.88547  82859275.919 8  21114853.836
  21114861.719    21114862.570          43.800          46.700          51.200
 110218498.538 6  85725419.433 7                  20647611.313    20647611.754
  20647616.426                          41.800          42.700
 126690558.249 5  98719919.68144  94606588.799 7  24108402.656
  24108410.770    24108412.656          32.900          29.900          43.400
 109418210.418 7  85102943.784 7                  20447378.000    20447377.672
  20447382.520                          42.700          43.300
 108640340.546 7  84654820.54345                  20673562.727
  20673567.184                          43.400          35.600
 120631427.939 6  93998516.90243                  22955396.227
  22955401.742                          36.700          19.300
 123329022.100 5  96100615.22143                  23468747.922
  23468752.582                          32.600          19.900
 115550529.109 6  89872660.437 6                  21654115.211    21654114.609
  21654120.508                          39.200          39.900
 126850682.557 5  98844725.74244  94726193.412 7  24138889.461
  24138897.379    24138898.035          32.500          28.700          43.400
 112810445.838 6  87904316.43445  84241628.833 8  21467124.938
  21467132.816    21467131.605          41.800          32.400          49.700
 114343951.145 7  89099187.49745                  21758922.641
  21758925.250                          42.100          32.400
 111907639.174 5  87039207.307 6                  20949325.531    20949324.805
  20949328.715                          35.700          37.100
 110212997.982 7  85721129.554 7                  20624834.453    20624833.418
  20624837.824                          43.000          42.800
 131738645.053 6                  98376278.933 7  25069031.508
                  25069037.512          41.900                          45.500
 130406728.506 7                  97381661.396 7  24815576.102
                  24815581.340          44.200                          47.700
 108975538.871 6                  81377856.769 7  20737353.727
                  20737358.016          40.900                          45.900
 136490039.698 6                 101924407.137 7  25973191.195
                  25973196.742          37.600                          42.400
 120179874.877 7                  89744740.352 8  22869467.273
                  22869472.324          45.700                          49.700
 20  8 16  0 46  0.0000000  0 20R01G17G03R18G06R17G28G11G19R02G30G01
                                G22R16R15E36E02E14E15E30
 124965673.912 4  97195670.388 4                  23377442.391    23377440.797
  23377448.234                          29.800          28.200
 116740474.568 6  90966509.80746                  22214940.789
  22214945.809                          40.200          40.600
 110958216.315 7  86461051.43047  82858509.788 8  21114658.922
  21114666.227    21114667.363          43.400          47.000          51.200
 110217490.937 6  85724635.731 7                  20647424.336    20647423.137
  20647427.547                          41.600          43.400
 126687674.043 5  98717672.25045  94604434.988 7  24107854.141
  24107861.816    24107863.602          33.900          30.400          43.700
 109419570.568 7  85104001.673 7                  20447633.898    20447632.227
  20447636.695                          42.900          42.800
 108639495.314 7  84654161.92845                  20673401.953
  20673406.398                          43.200          35.800
 120634201.569 5  94000678.19643                  22955923.844
  22955929.566                          35.900          19.600
 123326301.313 5  96098495.16243                  23468229.703
  23468234.727                          32.200          19.000
 115548439.526 6  89871035.221 6                  21653724.531    21653722.504
  21653729.102                          38.300          40.200
 126853506.781 5  98846926.43644  94728302.362 7  24139425.648
  24139434.785    24139435.191          32.400          26.900          43.400
 112813002.540 6  87906308.65545  84243538.058 8  21467610.875
  21467619.328    21467618.156          41.700          32.300          49.500
 114344847.587 6  89099886.02045                  21759093.438
  21759095.789                          41.700          32.700
 111906611.731 5  87038408.161 6                  20949133.805    20949132.883
  20949136.301                          35.600          37.300
 110215967.181 7  85723438.954 7                  20625389.914    20625389.371
  20625393.461                          42.500          43.200
 131740435.860 7                  98377616.210 7  25069372.219
                  25069378.402          42.100                          45.900
 130409234.205 7                  97383532.533 7  24816052.773
                  24816057.883          44.100                          47.600
 108969991.445 6                  81373714.179 7  20736297.773
                  20736302.359          40.900                          46.000
 136488308.621 6                 101923114.445 7  25972861.688
                  25972867.461          37.800                          42.300
 120179850.018 7                  89744721.782 8  22869462.469
                  22869467.656          45.700                          49.600
 20  8 16  0 46  1.0000000  0 20R01G17G03R18G06R17G28G11G19R02G30G01
                                G22R16R15E36E02E14E15E30
 124967661.911 5  97197216.659 4                  23377815.117    23377813.109
  23377820.172                          30.100          29.200
 116738611.486 6  90965058.05546                  22214585.609
  22214591.309                          39.500          40.700
 110957190.986 7  86460252.47147  82857744.109 8  21114463.766
  21114471.273    21114472.129          43.600          46.900          51.000
 110216483.491 6  85723852.158 7                  20647234.742    20647234.488
  20647238.820                          41.900          43.500
 126684789.921 5  98715424.88344  94602281.287 7  24107304.336
  24107313.027    24107314.520          32.800          29.800          43.400
 109420930.789 7  85105059.637 7                  20447887.383    20447886.395
  20447890.844                          42.700          43.200
 108638650.557 7  84653503.67945                  20673241.727
  20673245.668                          42.900          35.900
 120636975.305 6  94002839.55943                  22956452.500
  22956457.352                          36.600          20.400
 123323580.505 5  96096375.05843                  23467712.648
  23467716.906                          32.400          19.300
 115546350.597 6  89869410.454 6                  21653332.219    21653331.371
  21653337.523                          38.400          40.000
 126856330.906 5  98849127.05544  94730411.321 7  24139963.305
  24139972.230    24139972.426          32.400          26.400          43.200
 112815559.404 6  87908301.02445  84245447.412 8  21468097.305
  21468105.953    21468104.754          41.700          31.900          49.900
 114345744.565 7  89100584.96745                  21759263.898
  21759266.434                          42.100          33.500
 111905585.069 5  87037609.648 6                  20948940.531    20948940.707
  20948944.148                          35.200          37.400
 110218936.945 7  85725748.758 7                  20625945.156    20625944.879
  20625949.273                          42.500          43.300
 131742226.630 7                  98378953.469 7  25069712.938
                  25069718.980          42.700                          46.000
 130411740.124 7                  97385403.833 7  24816530.094
                  24816534.840          44.000                          47.600
 108964444.330 6                  81369571.882 7  20735242.258
                  20735247.035          41.000                          46.300
 136486577.573 6                 101921821.789 7  25972532.484
                  25972538.113          38.200                          42.300
 120179825.598 7                  89744703.543 8  22869457.961
                  22869463.070          45.300                          49.400
 20  8 16  0 46  2.0000000  0 20R01G17G03R18G06R17G28G11G19R02G30G01
                                G22R16R15E36E02E14E15E30
 124969650.66714  97198763.450 4                  23378186.648    23378185.031
  23378192.332                          29.500          29.500
 116736748.550 6  90963606.41546                  22214231.555
  22214236.742                          39.800          41.000
 110956166.357 7  86459454.05847  82856978.961 8  21114268.977
  21114276.504    21114277.180          43.600          46.800          51.000
 110215476.316 7  85723068.815 7                  20647047.195    20647045.633
  20647050.086                          42.000          43.500
 126681906.137 5  98713177.77544  94600127.803 7  24106755.242
  24106764.406    24106765.793          32.300          29.900          42.900
 109422291.267 7  85106117.772 7                  20448141.719    20448140.234
  20448145.078                          42.800          43.200
 108637806.376 7  84652845.86146                  20673080.531
  20673084.996                          42.700          36.000
 120639749.169 6  94005000.98243                  22956979.594
  22956985.156                          36.100          19.900
 123320859.846 5  96094255.04143                  23467195.109
  23467199.059                          32.800          18.600
 115544262.340 6  89867786.289 6                  21652940.758    21652939.648
  21652945.992                          38.700          40.200
 126859155.202 5  98851327.79044  94732520.362 7  24140500.828
  24140509.738    24140509.680          32.400          28.100          43.000
 112818116.585 6  87910293.63145  84247356.970 8  21468584.211
  21468592.496    21468591.391          41.900          31.800          49.500
 114346642.223 7  89101284.43445                  21759434.313
  21759437.402                          42.300          33.300
 111904559.319 5  87036811.843 6                  20948748.594    20948748.918
  20948752.258                          35.600          37.700
 110221907.389 7  85728059.120 7                  20626500.617    20626501.012
  20626505.172                          42.600          42.800
 131744017.466 7                  98380290.797 7  25070054.063
                  25070059.797          42.800                          46.100
 130414246.374 7                  97387275.384 7  24817007.000
                  24817011.715          44.600                          47.700
 108958897.759 6                  81365429.962 7  20734186.820
                  20734191.563          41.700                          46.100
 136484846.780 6                 101920529.307 7  25972202.891
                  25972208.801          38.100                          42.300
 120179801.700 7                  89744685.703 8  22869453.367
                  22869458.410          45.700                          49.200
 20  8 16  0 46  3.0000000  0 20R01G17G03R18G06R17G28G11G19R02G30G01
                                G22R16R15E36E02E14E15E30
 124971640.200 4  97200310.861 4                  23378559.070    23378556.910
  23378564.422                          29.200          29.100
 116734885.669 6  90962154.82246                  22213876.586
  22213882.191                          39.800          41.000
 110955142.346 7  86458656.12847  82856214.279 8  21114073.688
  21114081.438    21114082.320          43.600          46.900          50.800
 110214469.354 7  85722285.615 7                  20646857.305    20646857.191
  20646861.578                          42.000          43.700
 126679022.494 5  98710930.78345  94597974.478 7  24106205.805
  24106215.551    24106216.926          32.300          30.400          43.100
 109423651.876 7  85107176.021 7                  20448395.344    20448394.695
  20448399.340                          42.600          43.300
 108636962.684 7  84652188.44145                  20672919.484
  20672924.422                          43.200          35.900
 120642523.108 5  94007162.50543                  22957507.852
  22957513.020                          35.800          19.900
 123318139.158 5  96092135.04143                  23466677.305
  23466681.363                          32.600          18.600
 115542174.755 6  89866162.615 6                  21652549.867    21652548.887
  21652554.730                          38.600          40.100
 126861979.490 5  98853528.54844  94734629.439 7  24141038.852
  24141047.016    24141047.148          32.300          27.800          42.700
 112820673.954 7  87912286.38845  84249266.712 8  21469071.109
  21469078.949    21469077.961          42.200          30.900          49.800
 114347540.464 7  89101984.35845                  21759605.469
  21759608.250                          42.400          33.600
 111903534.370 5  87036014.680 6                  20948556.156    20948556.727
  20948560.398                          35.300          37.900
 110224878.456 7  85730369.945 7                  20627056.820    20627056.555
  20627061.102                          42.500          43.100
 131745808.356 7                  98381628.137 7  25070394.742
                  25070400.520          42.800                          45.900
 130416752.901 7                  97389147.135 8  24817483.750
                  24817488.676          44.200                          48.100
 108953351.561 6                  81361288.342 7  20733131.516
                  20733136.133          41.400                          46.100
 136483116.083 6                 101919236.893 7  25971873.586
                  25971879.426          38.100                          42.100
 120179778.278 7                  89744668.215 8  22869449.078
                  22869454.051          45.200                          49.500
 20  8 16  0 46  4.0000000  0 20R01G17G03R18G06R17G28G11G19R02G30G01
                                G22R16R15E36E02E14E15E30
 124973630.390 4  97201858.780 4                  23378932.703    23378929.738
  23378936.766                          29.500          29.600
 116733022.908 6  90960703.32746                  22213521.969
  22213527.668                          40.100          40.500
 110954119.033 7  86457858.74147  82855450.118 8  21113879.234
  21113886.863    21113887.730          43.800          46.700          51.000
 110213462.644 7  85721502.612 7                  20646668.180    20646668.313
  20646672.949                          42.100          43.600
 126676139.148 5  98708684.01844  94595821.302 7  24105657.078
  24105666.930    24105668.199          33.200          29.900          43.100
 109425012.634 7  85108234.398 7                  20448650.797    20448649.035
  20448653.734                          42.500          43.000
 108636119.534 7  84651531.44645                  20672759.438
  20672763.891                          43.300          35.600
 120645297.231 6  94009324.16643                  22958035.563
  22958041.109                          36.200          19.900
 123315418.535 5  96090015.09243                  23466159.742
  23466163.496                          32.500          19.000
 115540087.867 6  89864539.440 6                  21652159.195    21652157.457
  21652163.516                          38.700          40.200
 126864803.914 5  98855729.40844  94736738.566 7  24141575.984
  24141584.375    24141584.449          31.600          27.300          42.800
 112823231.598 7  87914279.35545  84251176.632 8  21469557.344
  21469565.766    21469564.605          42.200          32.000          49.800
 114348439.335 7  89102684.77645                  21759776.352
  21759779.277                          42.600          33.600
 111902510.278 5  87035218.182 6                  20948365.016    20948365.055
  20948368.582                          35.900          37.800
 110227850.192 7  85732681.293 7                  20627613.070    20627612.816
  20627617.234                          43.000          43.100
 131747599.263 7                  98382965.506 7  25070735.406
                  25070741.371          42.600                          45.700
 130419259.723 7                  97391019.110 8  24817960.953
                  24817965.633          43.800                          48.000
 108947805.874 6                  81357147.088 7  20732076.195
                  20732080.867          41.200                          46.400
 136481385.559 6                 101917944.634 7  25971544.188
                  25971550.008          38.700                          42.300
 120179755.359 7                  89744651.095 8  22869444.516
                  22869449.621          45.100                          49.800
 20  8 16  0 46  5.0000000  0 20R01G17G03R18G06R17G28G11G19R02G30G01
                                G22R16R15E36E02E14E15E30
 124975621.34114  97203407.286 4                  23379304.789    23379301.820
  23379309.195                          29.300          29.800
 116731160.164 6  90959251.83746                  22213167.414
  22213173.254                          40.200          40.500
 110953096.357 7  86457061.85047  82854686.426 8  21113684.281
  21113692.211    21113693.039          43.800          46.800          51.300
 110212456.140 7  85720719.776 7                  20646480.539    20646479.629
  20646484.520                          42.000          43.600
 126673255.953 5  98706437.37045  94593668.271 7  24105109.445
  24105118.141    24105119.617          33.100          30.200          43.200
 109426373.506 7  85109292.855 7                  20448903.742    20448903.305
  20448908.043                          42.500          42.600
 108635276.880 7  84650874.82945                  20672599.227
  20672603.613                          43.900          35.800
 120648071.369 5  94011485.81843                  22958563.602
  22958569.039                          35.400          19.600
 123312697.980 5  96087895.16243                  23465643.430
  23465645.742                          33.300          18.600
 115538001.593 6  89862916.810 6                  21651767.633    21651766.695
  21651772.473                          38.800          39.700
 126867628.348 5  98857930.26644  94738847.739 7  24142113.938
  24142121.695    24142122.141          31.300          27.400          43.100
 112825789.465 7  87916272.50745  84253086.730 8  21470044.664
  21470052.539    21470051.465          42.600          31.700          49.800
 114349338.782 7  89103385.64745                  21759947.891
  21759950.559                          42.900          33.600
 111901487.083 6  87034422.338 6                  20948175.516    20948173.539
  20948177.078                          36.100          37.100
 110230822.536 7  85734993.116 7                  20628168.984    20628168.664
  20628173.539                          42.700          43.100
 131749390.227 7                  98384302.897 7  25071076.242
                  25071082.285          42.300                          45.800
 130421766.819 7                  97392891.302 7  24818437.992
                  24818442.762          43.900                          47.800
 108942260.614 6                  81353006.138 7  20731020.781
                  20731025.859          41.400                          46.300
 136479655.167 6                 101916652.457 7  25971215.086
                  25971220.820          39.000                          42.700
 120179732.885 7                  89744634.320 8  22869440.320
                  22869445.434          45.100                          50.100
 20  8 16  0 46  6.0000000  0 20R01G17G03R18G06R17G28G11G19R02G30G01
                                G22R16R15E36E02E14E15E30
 124977613.021 4  97204956.379 4                  23379676.508    23379674.465
  23379681.664                          29.000          28.400
 116729297.510 6  90957800.42546                  22212813.383
  22212818.840                          40.200          40.400
 110952074.329 7  86456265.46647  82853923.225 8  21113490.273
  21113497.730    21113498.527          43.000          46.800          51.300
 110211449.866 6  85719937.118 7                  20646292.148    20646291.348
  20646296.008                          41.800          43.300
 126670373.023 5  98704190.94945  94591515.414 7  24104560.234
  24104569.641    24104570.801          33.000          30.000          42.900
 109427734.581 7  85110351.467 7                  20449159.008    20449157.840
  20449162.367                          42.700          42.700
 108634434.748 7  84650218.62945                  20672438.594
  20672443.547                          43.600          35.400
 120650845.651 5  94013647.60143                  22959091.141
  22959097.012                          35.800          20.400
 123309977.410 5  96085775.24043                  23465124.406
  23465128.250                          33.400          19.300
 115535916.010 6  89861294.694 6                  21651377.328    21651375.730
  21651381.668                          38.700          40.000
 126870452.859 5  98860131.19544  94740956.958 7  24142651.633
  24142659.285    24142659.578          31.800          26.900          42.800
 112828347.532 7  87918265.80045  84254997.005 8  21470530.953
  21470539.340    21470538.195          42.200          31.500          49.500
 114350238.844 7  89104086.99045                  21760119.125
  21760121.879                          43.000          33.600
 111900464.754 6  87033627.185 6                  20947982.508    20947982.203
  20947985.805                          36.000          37.200
 110233795.462 7  85737305.386 7                  20628725.219    20628725.359
  20628729.742                          42.700          43.400
 131751181.163 7                  98385640.307 7  25071416.703
                  25071423.031          42.400                          46.100
 130424274.197 7                  97394763.688 7  24818915.109
                  24818919.922          44.000                          47.800
 108936715.811 6                  81348865.531 7  20729965.727
                  20729970.672          41.500                          46.100
 136477924.932 6                 101915360.394 7  25970885.609
                  25970891.633          38.900                          43.000
 120179710.896 7                  89744617.905 8  22869436.086
                  22869441.277          45.300                          49.800
 20  8 16  0 46  7.0000000  0 20R01G17G03R18G06R17G28G11G19R02G30G01
                                G22R16R15E36E02E14E15E30
 124979605.362 4  97206505.985 4                  23380049.148    23380047.051
  23380054.383                          28.800          28.900
 116727434.906 6  90956349.03946                  22212458.945
  22212464.359                          40.500          40.500
 110951052.955 7  86455469.58947  82853160.515 8  21113295.484
  21113303.230    21113304.289          43.300          47.000          51.500
 110210443.835 6  85719154.647 7                  20646103.266    20646102.750
  20646107.563                          41.800          43.100
 126667490.259 5  98701944.62245  94589362.739 7  24104012.031
  24104020.977    24104022.074          33.400          30.800          43.000
 109429095.823 7  85111410.198 7                  20449413.938    20449412.172
  20449416.746                          42.300          43.000
 108633593.134 7  84649562.82945                  20672278.727
  20672283.340                          43.600          35.700
 120653620.025 6  94015809.45343                  22959619.625
  22959624.859                          36.500          19.600
 123307256.890 5  96083655.34943                  23464606.141
  23464610.586                          33.500          20.100
 115533831.039 6  89859673.033 6                  21650986.141    21650984.965
  21650990.941                          38.700          39.800
 126873277.457 5  98862332.16244  94743066.213 7  24143188.977
  24143196.641    24143197.055          31.300          26.200          42.800
 112830905.869 7  87920259.31445  84256907.423 8  21471018.086
  21471026.348    21471024.883          42.000          31.400          49.900
 114351139.497 7  89104788.80645                  21760290.320
  21760293.113                          42.200          33.600
 111899443.283 6  87032832.717 6                  20947792.484    20947790.934
  20947794.574                          36.200          37.100
 110236768.987 7  85739618.130 7                  20629281.922    20629281.504
  20629286.254                          42.500          43.600
 131752972.158 7                  98386977.735 7  25071757.867
                  25071763.930          42.700                          46.300
 130426781.861 7                  97396636.286 7  24819392.500
                  24819396.988          44.100                          47.800
 108931171.435 6                  81344725.235 7  20728910.750
                  20728915.555          41.500                          45.900
 136476194.837 6                 101914068.421 7  25970556.141
                  25970562.340          39.200                          42.800
 120179689.380 7                  89744601.826 8  22869431.852
                  22869437.098          45.100                          49.800
 20  8 16  0 46  8.0000000  0 20R01G17G03R18G06R17G28G11G19R02G30G01
                                G22R16R15E36E02E14E15E30
 124981598.445 4  97208056.185 5                  23380422.680    23380419.770
  23380427.344                          29.200          30.300
 116725572.393 6  90954897.73346                  22212104.773
  22212110.066                          40.500          40.600
 110950032.232 7  86454674.22447  82852398.283 8  21113101.242
  21113109.121    21113110.141          43.200          46.800          51.300
 110209438.008 7  85718372.338 7                  20645914.375    20645914.152
  20645919.164                          42.000          43.100
 126664607.763 5  98699698.52545  94587210.178 7  24103464.313
  24103472.250    24103473.379          33.500          30.500          43.000
 109430457.179 7  85112469.038 7                  20449666.984    20449666.293
  20449671.156                          42.600          42.800
 108632752.001 7  84648907.39645                  20672118.758
  20672123.355                          43.800          35.400
 120656394.484 6  94017971.37443                  22960148.023
  22960152.754                          36.400          19.900
 123304536.419 5  96081535.50743                  23464088.180
  23464092.836                          33.500          20.400
 115531746.731 6  89858051.925 6                  21650596.836    21650594.609
  21650600.320                          38.600          39.700
 126876102.058 5  98864533.15044  94745175.514 7  24143726.586
  24143734.313    24143734.676          31.800          27.500          43.200
 112833464.428 6  87922252.99345  84258818.035 8  21471505.406
  21471513.188    21471511.773          41.900          32.300          50.200
 114352040.748 7  89105491.08445                  21760462.117
  21760464.738                          42.000          32.900
 111898422.659 6  87032038.911 6                  20947600.672    20947600.137
  20947603.516                          36.000          36.900
 110239743.148 7  85741931.374 7                  20629838.422    20629838.273
  20629842.949                          42.600          43.500
 131754763.175 7                  98388315.179 7  25072098.391
                  25072104.734          42.700                          45.900
 130429289.778 7                  97398509.093 8  24819869.594
                  24819874.258          44.200                          48.000
 108925627.482 6                  81340585.291 7  20727855.781
                  20727860.496          41.000                          46.200
 136474464.854 6                 101912776.564 7  25970226.664
                  25970233.289          38.900                          42.200
 120179668.335 7                  89744586.117 8  22869427.938
                  22869433.047          44.900                          49.400
 20  8 16  0 46  9.0000000  0 20R01G17G03R18G06R17G28G11G19R02G30G01
                                G22R16R15E36E02E14E15E30
 124983592.238 4  97209606.824 4                  23380794.578    23380793.117
  23380800.352                          29.600          28.200
 116723709.901 6  90953446.44346                  22211749.938
  22211755.723                          40.500          40.900
 110949012.136 7  86453879.33747  82851636.536 8  21112907.094
  21112914.977    21112915.879          43.300          47.300          51.100
 110208432.360 6  85717590.192 7                  20645726.711    20645725.773
  20645730.773                          41.800          43.200
 126661725.421 5  98697452.54645  94585057.781 7  24102915.820
  24102923.793    24102925.074          33.400          30.400          43.000
 109431818.648 7  85113527.954 7                  20449921.469    20449920.863
  20449925.543                          42.300          42.600
 108631911.413 7  84648252.39345                  20671958.914
  20671963.305                          43.600          35.700
 120659169.082 6  94020133.38443                  22960675.531
  22960680.816                          36.700          19.900
 123301815.923 5  96079415.61343                  23463571.922
  23463575.266                          34.600          19.900
 115529663.047 6  89856431.285 6                  21650206.734    21650204.184
  21650210.023                          38.900          39.400
 126878926.750 5  98866734.19844  94747284.855 7  24144263.195
  24144271.891    24144271.992          31.800          26.800          43.200
 112836023.182 7  87924246.82145  84260728.797 8  21471992.250
  21472000.188    21471998.699          42.000          32.600          50.000
 114352942.603 7  89106193.82245                  21760633.563
  21760636.246                          42.300          32.700
 111897402.876 6  87031245.716 6                  20947408.734    20947409.004
  20947412.672                          36.200          37.300
 110242717.981 7  85744245.130 7                  20630395.594    20630394.855
  20630399.777                          42.300          43.400
 131756554.206 7                  98389652.641 7  25072439.500
                  25072445.605          42.500                          45.700
 130431797.979 7                  97400382.096 7  24820346.789
                  24820351.688          44.300                          47.900
 108920083.954 6                  81336445.631 7  20726800.648
                  20726805.547          41.000                          46.100
 136472734.999 6                 101911484.798 7  25969897.836
                  25969903.961          38.400                          42.600
 120179647.762 7                  89744570.740 8  22869423.914
                  22869429.270          45.200                          49.300
 20  8 16  0 46 10.0000000  0 20R01G17G03R18G06R17G28G11G19R02G30G01
                                G22R16R15E36E02E14E15E30
 124985586.820 4  97211158.190 4                  23381167.273    23381166.027
  23381173.383                          29.600          29.400
 116721847.541 6  90951995.25546                  22211396.289
  22211401.250                          40.600          40.900
 110947992.747 7  86453085.01847  82850875.306 8  21112713.219
  21112721.027    21112721.980          42.900          46.800          51.200
 110207427.027 6  85716808.266 7                  20645538.602    20645537.332
  20645542.395                          41.400          43.000
 126658843.353 5  98695206.78245  94582905.583 7  24102366.711
  24102375.395    24102376.543          33.300          30.400          43.000
 109433180.319 7  85114587.023 7                  20450176.063    20450175.496
  20450179.992                          42.600          42.400
 108631071.369 7  84647597.82046                  20671799.070
  20671803.559                          43.800          36.000
 120661943.861 6  94022295.55743                  22961203.414
  22961208.871                          36.100          20.100
 123299095.572 5  96077295.86343                  23463054.055
  23463057.379                          33.800          20.600
 115527580.075 6  89854811.196 6                  21649814.969    21649813.691
  21649819.684                          38.600          39.800
 126881751.503 5  98868935.30644  94749394.261 7  24144801.188
  24144809.324    24144809.410          31.200          26.800          43.100
 112838582.226 7  87926240.87645  84262639.777 8  21472478.633
  21472487.227    21472485.594          42.200          32.400          50.200
 114353845.119 7  89106897.08345                  21760805.164
  21760808.145                          42.600          33.000
 111896384.034 6  87030453.270 6                  20947220.242    20947218.309
  20947221.988                          36.000          37.200
 110245693.515 7  85746559.436 7                  20630951.852    20630951.746
  20630956.527                          42.200          43.800
 131758345.315 7                  98390990.150 7  25072780.102
                  25072786.457          42.500                          45.600
 130434306.509 7                  97402255.346 8  24820823.969
                  24820828.918          44.300                          48.100
 108914540.956 6                  81332306.375 7  20725745.938
                  20725750.734          41.300                          45.800
 136471005.330 6                 101910193.162 7  25969568.586
                  25969575.141          38.700                          42.400
 120179627.699 7                  89744555.763 8  22869420.188
                  22869425.316          45.600                          49.500
 20  8 16  0 46 11.0000000  0 20R01G17G03R18G06R17G28G11G19R02G30G01
                                G22R16R15E36E02E14E15E30
 124987582.080 4  97212710.073 4                  23381540.938    23381539.430
  23381546.699                          29.800          28.800
 116719985.210 6  90950544.08546                  22211041.547
  22211046.723                          40.900          40.600
 110946973.987 7  86452291.17647  82850114.542 8  21112518.781
  21112527.164    21112528.043          42.800          46.800          51.200
 110206421.872 6  85716026.480 7                  20645349.875    20645348.875
  20645354.109                          41.600          43.100
 126655961.439 5  98692961.12544  94580753.558 7  24101818.445
  24101826.918    24101828.168          33.400          29.500          43.000
 109434542.132 7  85115646.215 7                  20450431.125    20450430.098
  20450434.410                          42.600          42.700
 108630231.809 7  84646943.61546                  20671639.406
  20671643.781                          43.500          36.000
 120664718.666 6  94024457.74743                  22961731.359
  22961736.953                          36.300          20.400
 123296375.187 5  96075176.07843                  23462536.609
  23462539.551                          33.800          19.300
 115525497.741 6  89853191.581 6                  21649425.391    21649423.918
  21649429.309                          38.800          39.800
 126884576.304 5  98871136.44244  94751503.682 7  24145338.273
  24145347.031    24145347.047          31.000          26.900          42.800
 112841141.479 6  87928235.10045  84264550.890 8  21472965.547
  21472974.219    21472972.691          41.900          32.100          50.100
 114354748.188 7  89107600.77545                  21760977.070
  21760980.035                          42.600          33.100
 111895365.989 5  87029661.484 6                  20947029.164    20947027.535
  20947031.406                          35.700          37.300
 110248669.607 7  85748874.163 7                  20631509.070    20631508.777
  20631513.574                          42.300          43.800
 131760136.425 7                  98392327.661 7  25073121.211
                  25073127.207          42.600                          45.500
 130436815.280 7                  97404128.781 8  24821301.398
                  24821306.262          44.300                          48.300
 108908998.286 6                  81328167.401 7  20724691.133
                  20724695.895          41.100                          45.700
 136469275.804 6                 101908901.615 7  25969239.500
                  25969245.887          38.200                          42.800
 120179608.095 7                  89744541.130 8  22869416.680
                  22869421.559          46.000                          49.600
 20  8 16  0 46 12.0000000  0 20R01G17G03R18G06R17G28G11G19R02G30G01
                                G22R16R15E36E02E14E15E30
 124989578.066 4  97214262.495 4                  23381912.695    23381912.266
  23381920.184                          29.400          29.700
 116718123.000 6  90949093.01646                  22210687.477
  22210692.551                          40.400          40.400
 110945955.914 7  86451497.87047  82849354.278 8  21112325.906
  21112333.426    21112334.344          43.100          46.900          51.300
 110205416.991 6  85715244.903 7                  20645161.523    20645160.430
  20645165.828                          41.700          43.100
 126653079.785 5  98690715.69044  94578601.650 7  24101270.070
  24101278.516    24101279.703          33.700          29.800          42.800
 109435904.122 7  85116705.557 7                  20450685.359    20450684.316
  20450689.016                          42.300          42.400
 108629392.777 7  84646289.82245                  20671479.578
  20671484.102                          43.300          35.300
 120667493.633 6  94026620.07543                  22962260.227
  22962265.188                          36.300          19.600
 123293654.850 5  96073056.32943                  23462018.219
  23462021.867                          33.600          19.900
 115523416.088 6  89851572.552 6                  21649034.633    21649033.633
  21649039.129                          38.800          39.700
 126887401.193 5  98873337.65544  94753613.163 7  24145876.273
  24145884.879    24145884.645          31.300          27.500          42.900
 112843700.984 7  87930229.51945  84266462.217 8  21473453.109
  21473461.285    21473459.711          42.100          32.100          49.900
 114355651.902 7  89108304.96045                  21761148.992
  21761151.965                          42.200          32.800
 111894348.873 5  87028870.392 6                  20946838.297    20946837.555
  20946840.996                          35.600          37.300
 110251646.302 7  85751189.375 7                  20632066.234    20632065.703
  20632070.703                          42.600          43.800
 131761927.573 7                  98393665.200 7  25073461.953
                  25073468.207          42.600                          45.600
 130439324.348 7                  97406002.443 8  24821778.961
                  24821783.652          44.200                          48.200
 108903456.164 6                  81324028.785 7  20723636.328
                  20723641.051          41.000                          45.500
 136467546.421 6                 101907610.201 7  25968910.672
                  25968917.164          37.800                          42.600
 120179588.988 7                  89744526.862 8  22869412.898
                  22869417.875          46.000                          49.800
 20  8 16  0 46 13.0000000  0 20R01G17G03R18G06R17G28G11G19R02G30G01
                                G22R16R15E36E02E14E15E30
 124991574.82714  97215815.517 4                  23382286.922    23382286.258
  23382293.988                          29.100          29.500
 116716260.849 6  90947641.98346                  22210332.898
  22210338.184                          40.800          40.800
 110944938.479 7  86450705.06347  82848594.522 8  21112132.039
  21112139.832    21112140.723          43.600          46.900          51.300
 110204412.380 6  85714463.528 7                  20644974.109    20644972.527
  20644977.520                          41.700          43.300
 126650198.413 5  98688470.47344  94576449.922 7  24100721.672
  24100730.238    24100731.563          33.400          29.700          42.700
 109437266.263 7  85117764.998 7                  20450939.297    20450938.754
  20450943.445                          42.600          42.700
 108628554.268 7  84645636.44045                  20671319.469
  20671324.352                          43.200          35.700
 120670268.708 5  94028782.42343                  22962788.344
  22962793.281                          35.900          19.300
 123290934.605 5  96070936.64143                  23461499.445
  23461504.145                          33.700          19.300
 115521335.133 6  89849954.028 6                  21648645.148    21648644.047
  21648649.406                          38.900          40.100
 126890226.213 5  98875538.95144  94755722.729 7  24146413.695
  24146422.418    24146422.313          30.800          28.000          43.100
 112846260.742 6  87932224.13845  84268373.724 8  21473939.602
  21473948.367    21473946.813          41.700          31.900          49.800
 114356556.240 7  89109009.64545                  21761321.453
  21761324.125                          42.600          33.200
 111893332.646 5  87028079.979 6                  20946647.508    20946646.984
  20946650.777                          35.400          37.200
 110254623.639 7  85753505.080 7                  20632623.008    20632622.875
  20632627.941                          42.600          43.700
 131763718.773 7                  98395002.782 7  25073802.945
                  25073808.980          42.500                          45.500
 130441833.720 7                  97407876.333 7  24822256.359
                  24822261.188          44.300                          47.800
 108897914.432 6                  81319890.496 7  20722581.820
                  20722586.582          40.800                          45.900
 136465817.195 6                 101906318.903 7  25968581.625
                  25968587.809          38.400                          42.300
 120179570.360 7                  89744512.951 8  22869409.188
                  22869414.344          46.100                          49.800
 20  8 16  0 46 14.0000000  0 20R01G17G03R18G06R17G28G11G19R02G30G01
                                G22R16R15E36E02E14E15E30
 124993572.20714  97217369.070 4                  23382661.359    23382659.355
  23382667.684                          29.400          29.700
 116714398.702 6  90946190.96546                  22209978.125
  22209983.867                          40.300          41.100
 110943921.696 7  86449912.76547  82847835.228 8  21111938.703
  21111946.305    21111947.215          43.500          47.000          51.100
 110203407.945 6  85713682.296 7                  20644786.039    20644784.203
  20644789.426                          41.500          43.100
 126647317.120 5  98686225.31844  94574298.371 7  24100174.281
  24100181.879    24100182.930          34.300          28.800          42.500
 109438628.511 7  85118824.513 7                  20451194.742    20451193.633
  20451198.063                          42.700          43.300
 108627716.254 7  84644983.44545                  20671160.141
  20671164.836                          43.500          35.700
 120673043.837 5  94030944.85643                  22963315.984
  22963321.273                          35.900          19.300
 123288214.365 5  96068816.98943                  23460982.164
  23460986.363                          33.400          19.600
 115519254.816 6  89848335.981 6                  21648255.602    21648254.332
  21648259.598                          39.100          39.600
 126893051.147 5  98877740.20444  94757832.279 7  24146951.914
  24146959.922    24146959.883          30.700          27.700          42.700
 112848820.671 6  87934218.88645  84270285.369 8  21474427.320
  21474435.590    21474433.840          41.900          32.600          49.900
 114357461.125 7  89109714.75045                  21761493.563
  21761496.480                          42.300          33.100
 111892317.197 5  87027290.186 6                  20946458.984    20946456.898
  20946460.766                          35.300          36.800
 110257601.584 7  85755821.255 7                  20633180.719    20633180.367
  20633185.285                          42.600          44.000
 131765509.953 7                  98396340.362 7  25074143.617
                  25074150.051          42.300                          45.500
 130444343.369 7                  97409750.399 8  24822733.781
                  24822738.770          44.000                          48.200
 108892373.173 6                  81315752.524 7  20721527.313
                  20721532.098          40.600                          45.800
 136464088.107 6                 101905027.670 7  25968252.258
                  25968258.750          38.500                          42.300
 120179552.178 7                  89744499.373 8  22869405.719
                  22869410.902          46.100                          50.100
 20  8 16  0 46 15.0000000  0 20R01G17G03R18G06R17G28G11G19R02G30G01
                                G22R16R15E36E02E14E15E30
 124995570.309 5  97218923.112 4                  23383035.430    23383033.762
  23383041.453                          30.000          29.900
 116712536.704 6  90944740.05246                  22209623.484
  22209629.406                          40.500          40.900
 110942905.592 7  86449120.99747  82847076.443 8  21111744.836
  21111752.852    21111753.891          43.000          46.800          51.000
 110202403.802 6  85712901.297 7                  20644596.930    20644596.133
  20644601.367                          41.300          43.000
 126644436.115 5  98683980.37545  94572146.974 7  24099625.813
  24099633.633    24099634.746          33.800          30.400          42.600
 109439990.956 7  85119884.202 7                  20451450.242    20451447.797
  20451452.758                          42.600          43.300
 108626878.794 7  84644330.87745                  20671000.867
  20671005.508                          43.600          35.700
 120675819.116 6  94033107.41643                  22963845.063
  22963849.395                          36.200          19.000
 123285494.170 5  96066697.33943                  23460464.102
  23460468.832                          33.700          20.900
 115517175.151 6  89846718.474 6                  21647865.938    21647864.199
  21647869.746                          38.700          39.700
 126895876.221 5  98879941.56944  94759941.912 7  24147489.188
  24147497.531    24147497.270          30.300          26.500          42.900
 112851380.899 7  87936213.87545  84272197.221 8  21474915.102
  21474922.781    21474921.090          42.100          32.800          50.200
 114358366.665 7  89110420.36845                  21761665.664
  21761668.813                          42.500          32.800
 111891302.616 5  87026501.078 6                  20946269.570    20946267.133
  20946270.832                          35.700          37.400
 110260580.231 7  85758137.984 7                  20633737.555    20633737.656
  20633742.766                          42.700          43.600
 131767301.214 7                  98397677.991 7  25074484.664
                  25074490.754          42.100                          45.500
 130446853.283 7                  97411624.709 7  24823211.305
                  24823216.281          43.900                          47.500
 108886832.371 6                  81311614.899 7  20720473.250
                  20720477.469          40.900                          45.900
 136462359.150 6                 101903736.599 7  25967923.180
                  25967929.750          38.500                          42.300
 120179534.503 7                  89744486.186 8  22869402.281
                  22869407.582          45.900                          49.900
 20  8 16  0 46 16.0000000  0 20R01G17G03R18G06R17G28G11G19R02G30G01
                                G22R16R15E36E02E14E15E30
 124997569.161 4  97220477.781 5                  23383407.930    23383407.676
  23383415.512                          29.600          30.300
 116710674.716 6  90943289.16446                  22209269.313
  22209275.117                          40.600          40.700
 110941890.087 7  86448329.69547  82846318.102 8  21111552.117
  21111559.813    21111560.633          43.400          47.000          51.300
 110201399.802 6  85712120.412 7                  20644408.945    20644407.871
  20644413.180                          41.400          43.200
 126641555.347 5  98681735.61244  94569995.714 7  24099077.078
  24099085.246    24099086.152          33.500          29.500          42.200
 109441353.566 7  85120943.991 7                  20451704.555    20451702.703
  20451707.320                          43.000          43.200
 108626041.805 7  84643678.67846                  20670841.898
  20670846.066                          43.400          36.000
 120678594.469 6  94035270.01343                  22964372.656
  22964377.398                          36.000          19.900
 123282773.975 5  96064577.72043                  23459947.531
  23459951.191                          33.500          20.600
 115515096.104 6  89845101.439 6                  21647476.703    21647474.582
  21647480.320                          38.900          39.400
 126898701.322 5  98882142.92944  94762051.549 7  24148025.797
  24148035.094    24148034.793          31.500          28.600          42.600
 112853941.309 7  87938209.00045  84274109.213 8  21475401.711
  21475410.043    21475408.352          42.000          32.900          50.200
 114359272.766 7  89111126.40745                  21761838.086
  21761841.129                          42.400          33.500
 111890288.893 5  87025712.609 6                  20946078.734    20946077.348
  20946081.160                          35.500          37.900
 110263559.431 7  85760455.141 7                  20634295.445    20634295.211
  20634300.223                          42.600          43.600
 131769092.444 7                  98399015.603 7  25074825.234
                  25074831.625          42.400                          45.600
 130449363.467 7                  97413499.178 7  24823689.336
                  24823693.988          43.700                          47.800
 108881291.959 6                  81307477.602 7  20719418.711
                  20719423.066          40.700                          45.700
 136460630.304 6                 101902445.566 7  25967594.250
                  25967600.922          38.600                          42.700
 120179517.262 7                  89744473.306 8  22869399.133
                  22869404.242          45.900                          50.200
 20  8 16  0 46 17.0000000  0 20R01G17G03R18G06R17G28G11G19R02G30G01
                                G22R16R15E36E02E14E15E30
 124999568.765 5  97222033.006 5                  23383782.836    23383781.750
  23383789.660                          30.000          30.300
 116708812.853 6  90941838.36246                  22208915.773
  22208920.879                          39.900          40.500
 110940875.295 7  86447538.94647  82845560.320 8  21111359.102
  21111366.516    21111367.598          43.000          46.800          51.300
 110200396.108 6  85711339.762 7                  20644221.703    20644220.043
  20644224.984                          41.400          43.100
 126638674.800 5  98679491.04245  94567844.689 7  24098529.188
  24098537.133    24098538.195          33.800          30.000          42.100
 109442716.355 7  85122003.969 7                  20451958.602    20451957.332
  20451962.059                          42.800          42.400
 108625205.405 7  84643026.93645                  20670682.844
  20670687.141                          43.600          35.600
 120681369.986 6  94037432.78443                  22964900.352
  22964905.457                          36.200          19.300
 123280053.886 5  96062458.19643                  23459429.977
  23459433.602                          32.800          20.100
 115513017.839 6  89843484.981 6                  21647087.125    21647085.102
  21647090.875                          39.000          39.800
 126901526.522 5  98884344.40144  94764161.277 7  24148563.891
  24148572.793    24148572.336          30.800          28.000          42.000
 112856502.018 6  87940204.35945  84276021.443 8  21475888.750
  21475897.359    21475895.660          41.700          32.300          49.900
 114360179.509 7  89111832.96445                  21762010.398
  21762013.648                          42.500          32.900
 111889276.108 5  87024924.903 6                  20945889.125    20945887.695
  20945891.578                          35.600          37.300
 110266539.302 7  85762772.806 7                  20634852.984    20634852.660
  20634857.699                          42.600          43.600
 131770883.809 7                  98400353.291 7  25075166.125
                  25075172.465          42.100                          45.300
 130451873.987 7                  97415373.926 7  24824167.164
                  24824171.793          43.600                          47.700
 108875752.081 6                  81303340.663 7  20718364.734
                  20718368.996          40.800                          46.000
 136458901.698 6                 101901154.711 7  25967265.281
                  25967271.891          38.700                          42.700
 120179500.586 7                  89744460.842 8  22869395.898
                  22869400.988          46.100                          50.000
 20  8 16  0 46 18.0000000  0 20R01G17G03R18G06R17G28G11G19R02G30G01
                                G22R16R15E36E02E14E15E30
 125001568.984 4  97223588.735 4                  23384156.773    23384156.402
  23384163.762                          29.600          28.800
 116706951.042 6  90940387.59346                  22208561.273
  22208566.539                          40.000          40.700
 110939861.134 7  86446748.69147  82844802.982 8  21111165.484
  21111173.672    21111174.438          43.200          46.900          50.900
 110199392.589 6  85710559.239 7                  20644032.242    20644032.043
  20644037.055                          41.200          43.000
 126635794.422 5  98677246.59044  94565693.736 6  24097980.688
  24097989.027    24097990.020          33.700          29.100          41.900
 109444079.238 7  85123063.971 7                  20452213.727    20452212.074
  20452216.773                          42.700          43.000
 108624369.462 7  84642375.55445                  20670523.922
  20670528.137                          43.500          35.800
 120684145.563 6  94039595.56443                  22965428.352
  22965433.652                          36.500          19.600
 123277333.825 5  96060338.65443                  23458912.148
  23458915.895                          33.500          19.600
 115510940.149 6  89841869.014 6                  21646695.969    21646695.223
  21646701.574                          38.600          39.900
 126904351.756 5  98886545.88144  94766271.020 7  24149100.797
  24149110.418    24149110.043          30.500          27.900          42.200
 112859062.909 6  87942199.86345  84277933.791 8  21476375.961
  21476384.602    21476383.055          41.700          32.700          49.900
 114361086.860 7  89112539.99245                  21762184.016
  21762186.402                          42.300          33.100
 111888264.153 6  87024137.838 6                  20945699.555    20945698.516
  20945702.145                          36.000          37.600
 110269519.749 7  85765090.929 7                  20635410.750    20635410.594
  20635415.516                          43.000          43.400
 131772675.099 7                  98401690.967 7  25075506.875
                  25075513.336          42.300                          45.500
 130454384.753 7                  97417248.837 7  24824645.047
                  24824649.465          43.900                          47.800
 108870212.581 6                  81299204.027 7  20717310.195
                  20717314.570          41.400                          45.700
 136457173.159 6                 101899863.921 7  25966936.000
                  25966942.984          39.100                          42.600
 120179484.315 7                  89744448.702 8  22869392.844
                  22869397.938          45.700                          49.600
 20  8 16  0 46 19.0000000  0 20R01G17G03R18G06R17G28G11G19R02G30G01
                                G22R16R15E36E02E14E15E30
 125003569.975 4  97225145.138 4                  23384533.438    23384531.168
  23384538.074                          29.500          28.900
 116705089.290 6  90938936.88246                  22208206.953
  22208212.438                          40.200          41.000
 110938847.631 7  86445958.95247  82844046.158 8  21110973.375
  21110980.789    21110981.602          43.300          47.000          50.900
 110198389.311 6  85709778.928 7                  20643845.031    20643844.242
  20643849.137                          41.300          42.600
 126632914.284 5  98675002.31944  94563542.993 7  24097432.289
  24097440.918    24097441.879          33.900          29.700          42.200
 109445442.301 7  85124124.124 7                  20452468.094    20452466.883
  20452471.504                          42.300          43.600
 108623534.052 7  84641724.57545                  20670364.141
  20670369.215                          43.200          35.900
 120686921.284 6  94041758.47843                  22965956.641
  22965961.824                          36.600          19.900
 123274613.713 5  96058219.09143                  23458394.570
  23458398.332                          33.200          19.900
 115508863.143 6  89840253.589 6                  21646306.906    21646305.719
  21646312.207                          39.000          39.800
 126907177.083 5  98888747.42244  94768380.826 7  24149639.141
  24149648.070    24149647.422          31.200          27.200          42.200
 112861624.074 6  87944195.56745  84279846.345 8  21476863.328
  21476871.848    21476870.305          41.700          32.400          49.500
 114361994.822 7  89113247.49145                  21762356.461
  21762359.133                          42.200          33.700
 111887253.127 5  87023351.483 6                  20945510.250    20945509.012
  20945512.977                          35.600          37.600
 110272500.842 7  85767409.559 7                  20635969.711    20635968.102
  20635973.387                          43.000          43.300
 131774466.489 6                  98403028.681 7  25075848.055
                  25075854.258          41.900                          45.700
 130456895.813 7                  97419123.976 8  24825122.672
                  24825127.379          43.500                          48.200
 108864673.530 6                  81295067.731 7  20716256.039
                  20716260.645          41.200                          45.900
 136455444.769 6                 101898573.260 7  25966607.164
                  25966614.422          39.100                          42.300
 120179468.549 7                  89744436.927 8  22869389.734
                  22869394.973          45.900                          49.800
 20  8 16  0 46 20.0000000  0 20R01G17G03R18G06R17G28G11G19R02G30G01
                                G22R16R15E36E02E14E15E30
 125005571.725 4  97226702.031 4                  23384908.289    23384905.699
  23384912.652                          29.200          29.700
 116703227.622 6  90937486.23146                  22207853.047
  22207858.000                          40.500          40.500
 110937834.800 7  86445169.73347  82843289.830 8  21110780.336
  21110788.020    21110788.777          43.000          46.900          50.800
 110197386.265 6  85708998.786 7                  20643656.906    20643656.250
  20643661.074                          41.400          42.800
 126630034.386 5  98672758.26244  94561392.392 7  24096884.039
  24096892.887    24096894.008          33.700          28.900          42.000
 109446805.508 7  85125184.409 7                  20452722.703    20452721.469
  20452726.383                          42.600          43.400
 108622699.194 7  84641074.04145                  20670205.961
  20670210.234                          43.100          35.600
 120689697.122 6  94043921.46043                  22966485.109
  22966490.074                          36.800          19.300
 123271893.776 5  96056099.67643                  23457877.375
  23457880.730                          33.100          19.600
 115506786.799 6  89838638.645 6                  21645918.383    21645916.977
  21645923.043                          38.900          39.800
 126910002.395 5  98890948.96344  94770490.678 7  24150176.313
  24150185.609    24150185.324          31.900          26.400          42.400
 112864185.460 7  87946191.45045  84281759.063 8  21477350.945
  21477359.305    21477357.773          42.100          32.500          49.300
 114362903.385 7  89113955.46745                  21762529.023
  21762531.992                          42.500          33.600
 111886242.919 5  87022565.759 6                  20945320.438    20945319.645
  20945323.797                          35.900          37.700
 110275482.627 7  85769728.732 7                  20636527.094    20636526.680
  20636531.457                          42.700          43.300
 131776257.864 7                  98404366.414 7  25076188.797
                  25076195.078          42.200                          45.500
 130459407.163 7                  97420999.339 7  24825600.695
                  24825605.219          43.100                          47.900
 108859134.957 6                  81290931.787 7  20715202.711
                  20715206.652          41.100                          45.900
 136453716.559 6                 101897282.705 7  25966278.281
                  25966285.570          39.100                          42.700
 120179453.275 7                  89744425.523 8  22869386.883
                  22869392.012          45.600                          49.800
 20  8 16  0 46 21.0000000  0 21R01G17G03R18R03G06R17G28G11G19R02G30
                                G01G22R16R15E36E02E14E15E30
 125007574.201 4  97228259.528 4                  23385283.211    23385280.113
  23385287.117                          28.000          27.800
 116701366.017 6  90936035.63246                  22207498.695
  22207503.703                          40.400          41.300
 110936822.589 7  86444380.99947  82842533.953 8  21110588.281
  21110595.434    21110596.301          43.600          46.800          51.000
 110196383.444 6  85708218.800 7                  20643469.023    20643468.336
  20643473.199                          41.100          42.900
                                                  23408211.039

 126627154.685 5  98670514.32044  94559241.966 7  24096337.195
  24096344.676    24096345.738          33.300          28.700          42.000
 109448168.872 7  85126244.800 7                  20452977.695    20452976.438
  20452981.195                          42.600          43.200
 108621864.806 7  84640423.86645                  20670047.195
  20670051.535                          43.300          35.700
 120692473.031 6  94046084.51643                  22967013.414
  22967018.305                          37.100          20.600
 123269173.792 5  96053980.17643                  23457359.258
  23457363.254                          33.500          19.000
 115504711.107 6  89837024.209 6                  21645529.094    21645528.047
  21645534.109                          38.800          39.900
 126912827.841 5  98893150.61344  94772600.531 7  24150713.992
  24150723.309    24150722.996          30.800          27.900          42.100
 112866747.061 7  87948187.50645  84283671.954 8  21477838.680
  21477846.762    21477845.035          42.300          32.300          49.400
 114363812.548 7  89114663.90845                  21762702.344
  21762705.121                          42.800          33.900
 111885233.541 5  87021780.685 6                  20945131.867    20945131.219
  20945135.055                          35.300          37.900
 110278464.994 7  85772048.345 7                  20637084.797    20637084.629
  20637089.395                          42.700          43.300
 131778049.303 7                  98405704.153 7  25076529.664
                  25076536.121          42.400                          45.400
 130461918.767 7                  97422874.887 7  24826078.438
                  24826083.102          43.500                          47.800
 108853596.788 6                  81286796.154 7  20714148.523
                  20714152.664          40.200                          45.600
 136451988.474 6                 101895992.246 7  25965949.789
                  25965956.637          38.100                          42.600
 120179438.462 7                  89744414.448 8  22869384.188
                  22869389.180          45.500                          49.600
 20  8 16  0 46 22.0000000  0 21R01G17G03R18R03G06R17G28G11G19R02G30
                                G01G22R16R15E36E02E14E15E30
 125009577.406 4  97229817.532 4                  23385655.578    23385654.504
  23385661.938                          29.000          29.300
 116699504.500 6  90934585.10046                  22207143.961
  22207149.582                          40.500          41.000
 110935811.107 7  86443592.83047  82841778.617 8  21110395.188
  21110402.977    21110403.777          43.300          46.900          51.100
 110195380.892 6  85707439.039 7                  20643280.969    20643280.523
  20643285.469                          41.200          42.800
                                                  23407466.930

 126624275.194 5  98668270.56044  94557091.722 6  24095789.430
  24095796.730    24095797.914          33.500          29.200          41.600
 109449532.460 7  85127305.368 7                  20453233.156    20453231.035
  20453235.938                          42.500          43.200
 108621030.978 7  84639774.13045                  20669888.242
  20669892.906                          43.200          35.900
 120695249.084 6  94048247.65943                  22967541.977
  22967546.586                          36.400          19.300
 123266453.855 5  96051860.75343                  23456841.617
  23456845.836                          32.500          19.600
 115502636.103 6  89835410.320 6                  21645140.719    21645138.957
  21645145.199                          38.800          40.200
 126915653.303 5  98895352.25344  94774710.507 7  24151251.953
  24151260.848    24151260.629          31.000          26.700          42.600
 112869308.938 7  87950183.76745  84285585.035 8  21478326.422
  21478334.293    21478332.625          42.200          32.300          49.600
 114364722.332 7  89115372.82945                  21762875.266
  21762878.242                          42.900          33.800
 111884225.052 5  87020996.318 6                  20944942.672    20944942.602
  20944946.191                          35.700          38.000
 110281447.989 7  85774368.456 7                  20637643.273    20637643.016
  20637647.797                          43.000          43.400
 131779840.775 7                  98407041.937 7  25076870.688
                  25076876.891          42.200                          45.300
 130464430.696 7                  97424750.680 8  24826556.766
                  24826561.152          43.400                          48.000
 108848059.126 6                  81282660.879 7  20713094.648
                  20713099.129          41.000                          46.000
 136450260.563 6                 101894701.917 7  25965620.313
                  25965627.754          38.400                          42.600
 120179424.151 7                  89744403.767 8  22869381.609
                  22869386.516          45.600                          49.300
 20  8 16  0 46 23.0000000  0 21R01G17G03R18R03G06R17G28G11G19R02G30
                                G01G22R16R15E36E02E14E15E30
 125011581.33914  97231376.139 4                  23386030.664    23386028.941
  23386036.770                          28.700          28.700
 116697643.031 6  90933134.60646                  22206789.969
  22206795.305                          40.800          41.500
 110934800.203 7  86442805.10847  82841023.720 8  21110202.977
  21110210.594    21110211.387          43.100          46.900          51.400
 110194378.536 6  85706659.439 7                  20643094.586    20643092.746
  20643097.684                          41.400          42.900
                                                  23406721.602

 126621395.901 5  98666026.95944  94554941.583 6  24095241.438
  24095248.906    24095249.652          34.000          29.700          41.500
 109450896.119 7  85128365.974 7                  20453486.891    20453485.914
  20453490.754                          42.400          43.100
 108620197.614 7  84639124.75945                  20669729.406
  20669734.219                          43.300          35.900
 120698025.198 6  94050410.84443                  22968070.453
  22968074.809                          36.700          20.100
 123263733.962 5  96049741.35743                  23456324.578
  23456328.402                          32.500          20.100
 115500561.697 6  89833796.898 6                  21644752.281    21644750.340
  21644756.449                          38.800          39.400
 126918478.839 5  98897553.97444  94776820.453 7  24151789.813
  24151798.484    24151798.438          31.000          27.500          42.500
 112871870.976 7  87952180.16445  84287498.253 8  21478813.367
  21478821.758    21478820.223          42.000          32.200          49.500
 114365632.679 7  89116082.19745                  21763048.398
  21763051.492                          43.300          33.700
 111883217.403 5  87020212.577 6                  20944753.594    20944753.766
  20944757.574                          35.800          38.300
 110284431.560 7  85776689.007 7                  20638200.969    20638201.535
  20638205.930                          42.700          43.500
 131781632.236 7                  98408379.723 7  25077211.664
                  25077217.883          42.500                          45.300
 130466942.871 7                  97426626.640 7  24827034.680
                  24827039.297          43.700                          47.900
 108842521.846 6                  81278525.901 7  20712041.078
                  20712045.414          40.800                          45.900
 136448532.715 6                 101893411.659 7  25965291.992
                  25965299.031          38.600                          42.800
 120179410.262 7                  89744393.399 8  22869379.063
                  22869383.762          45.900                          49.300
 20  8 16  0 46 24.0000000  0 21R01G17G03R18R03G06R17G28G11G19R02G30
                                G01G22R16R15E36E02E14E15E30
 125013585.939 4  97232935.321 4                  23386403.453    23386404.727
  23386411.805                          28.400          28.700
 116695781.665 6  90931684.19146                  22206435.711
  22206441.105                          40.500          41.400
 110933790.028 7  86442017.96747  82840269.366 8  21110010.633
  21110018.383    21110019.137          43.300          46.900          51.200
 110193376.441 6  85705880.034 7                  20642905.938    20642905.070
  20642910.008                          41.100          43.100
                                                  23405976.586

 126618516.915 5  98663783.60844  94552791.678 6  24094693.773
  24094701.211    24094701.828          33.100          29.600          41.400
 109452259.978 7  85129426.766 7                  20453741.344    20453740.992
  20453745.652                          42.400          43.200
 108619364.838 7  84638475.84146                  20669570.984
  20669575.590                          43.200          36.000
 120700801.459 6  94052574.17643                  22968597.773
  22968602.992                          37.000          19.000
 123261014.179 5  96047622.02943                  23455806.773
  23455810.816                          32.600          20.400
 115498488.010 6  89832184.052 6                  21644362.969    21644361.793
  21644367.824                          38.700          39.700
 126921304.492 5  98899755.77144  94778930.493 7  24152327.672
  24152336.094    24152335.977          30.800          27.900          42.100
 112874433.331 6  87954176.80545  84289411.696 8  21479300.672
  21479309.340    21479307.766          41.900          32.700          49.400
 114366543.693 7  89116792.06845                  21763222.031
  21763224.887                          42.800          33.300
 111882210.629 6  87019429.543 6                  20944565.977    20944565.281
  20944569.059                          36.000          37.400
 110287415.838 7  85779010.109 7                  20638759.703    20638759.535
  20638764.516                          42.700          43.800
 131783423.789 7                  98409717.568 7  25077552.594
                  25077558.832          42.700                          45.300
 130469455.365 7                  97428502.860 7  24827512.641
                  24827517.465          43.900                          47.500
 108836985.095 6                  81274391.316 7  20710987.609
                  20710991.918          40.500                          45.300
 136446805.114 6                 101892121.563 7  25964963.078
                  25964970.402          38.900                          42.600
 120179396.916 7                  89744383.437 8  22869376.273
                  22869381.301          45.700                          48.900
 20  8 16  0 46 25.0000000  0 21R01G17G03R18R03G06R17G28G11G19R02G30
                                G01G22R16R15E36E02E14E15E30
 125015591.325 4  97234495.041 4                  23386779.523    23386780.121
  23386787.059                          29.000          29.000
 116693920.383 6  90930233.83746                  22206081.430
  22206087.016                          40.400          41.100
 110932780.495 7  86441231.31447  82839515.494 8  21109818.422
  21109826.172    21109827.035          43.300          47.000          51.100
 110192374.569 6  85705100.791 7                  20642718.727    20642717.293
  20642722.289                          41.300          43.100
                                                  23405232.680

 126615638.092 5  98661540.37044  94550641.923 6  24094146.125
  24094153.539    24094153.957          33.600          28.900          41.800
 109453624.009 7  85130487.682 7                  20453997.047    20453996.078
  20454000.594                          42.400          43.300
 108618532.570 7  84637827.32446                  20669412.797
  20669417.465                          43.600          36.100
 120703577.825 6  94054737.60143                  22969125.922
  22969131.238                          36.700          19.600
 123258294.391 5  96045502.73343                  23455289.305
  23455293.250                          32.900          20.100
 115496414.997 6  89830571.672 6                  21643974.258    21643973.359
  21643979.465                          38.900          39.600
 126924130.103 5  98901957.55744  94781040.562 7  24152865.250
  24152873.820    24152873.746          30.700          26.900          42.100
 112876995.912 6  87956173.62345  84291325.312 8  21479788.227
  21479797.059    21479795.422          41.600          32.000          49.200
 114367455.301 7  89117502.41745                  21763395.844
  21763398.273                          42.300          33.200
 111881204.698 5  87018647.176 6                  20944377.820    20944376.941
  20944380.820                          35.700          38.200
 110290400.735 7  85781331.700 7                  20639318.648    20639318.164
  20639323.145                          42.600          43.800
 131785215.350 7                  98411055.423 7  25077893.492
                  25077899.473          42.400                          45.200
 130471968.137 7                  97430379.279 7  24827991.172
                  24827995.438          43.700                          47.500
 108831448.756 6                  81270257.050 7  20709934.063
                  20709938.445          40.500                          45.900
 136445077.637 6                 101890831.551 7  25964634.375
                  25964641.742          38.400                          42.400
 120179384.054 7                  89744373.827 8  22869373.781
                  22869378.863          45.600                          49.200
 20  8 16  0 46 26.0000000  0 21R01G17G03R18R03G06R17G28G11G19R02G30
                                G01G22R16R15E36E02E14E15E30
 125017597.382 4  97236055.314 4                  23387155.273    23387154.797
  23387162.188                          29.000          29.600
 116692059.118 6  90928783.50646                  22205727.203
  22205732.699                          40.400          41.100
 110931771.582 7  86440445.14547  82838762.083 8  21109625.883
  21109634.289    21109635.055          43.600          46.900          51.200
 110191372.902 6  85704321.694 7                  20642531.172    20642529.723
  20642534.668                          41.500          43.100
                  97444734.17315                  23404487.391
  23404494.109                                          33.100
 126612759.391 5  98659297.22544  94548492.311 7  24093597.875
  24093605.738    24093606.492          32.500          29.900          42.200
 109454988.162 7  85131548.692 7                  20454252.047    20454251.051
  20454255.461                          42.900          43.500
 108617700.789 7  84637179.16945                  20669254.859
  20669259.094                          43.200          35.700
 120706354.346 6  94056901.10643                  22969654.484
  22969659.742                          36.600          20.100
 123255574.589 5  96043383.42143                  23454771.672
  23454775.660                          32.500          21.300
 115494342.581 6  89828959.832 6                  21643586.164    21643584.684
  21643590.992                          38.900          39.800
 126926955.814 5  98904159.39044  94783150.667 7  24153403.352
  24153411.441    24153411.285          30.800          27.200          42.500
 112879558.658 6  87958170.57945  84293239.059 8  21480276.000
  21480284.691    21480283.141          41.700          31.700          49.500
 114368367.488 7  89118213.20945                  21763568.664
  21763571.938                          43.000          33.500
 111880199.646 5  87017865.419 6                  20944189.875    20944189.391
  20944192.629                          35.900          37.800
 110293386.224 7  85783653.736 7                  20639877.609    20639877.129
  20639881.813                          42.300          43.500
 131787006.916 7                  98412393.282 7  25078234.453
                  25078240.480          42.900                          45.200
 130474481.152 7                  97432255.889 7  24828469.227
                  24828473.559          44.200                          47.600
 108825912.857 6                  81266123.088 7  20708880.719
                  20708884.863          40.500                          45.800
 136443350.264 6                 101889541.625 7  25964305.789
                  25964313.055          38.000                          42.600
 120179371.612 7                  89744364.538 8  22869371.273
                  22869376.465          45.700                          49.400
 20  8 16  0 46 27.0000000  0 21R01G17G03R18R03G06R17G28G11G19R02G30
                                G01G22R16R15E36E02E14E15E30
 125019604.116 4  97237616.064 4                  23387531.250    23387530.227
  23387537.527                          29.300          28.900
 116690197.987 6  90927333.26846                  22205373.133
  22205378.617                          40.400          41.100
 110930763.349 7  86439659.50547  82838009.193 8  21109434.547
  21109442.371    21109443.086          43.800          47.000          51.200
 110190371.497 6  85703542.837 7                  20642344.109    20642342.273
  20642347.156                          41.600          43.600
                  97441634.16615                  23403744.375
  23403749.805                                          33.700
 126609881.057 5  98657054.35944  94546342.869 7  24093050.227
  24093057.953    24093058.617          32.800          29.300          42.000
 109456352.502 7  85132609.852 7                  20454506.344    20454505.852
  20454510.438                          43.300          43.700
 108616869.560 7  84636531.46245                  20669096.063
  20669100.996                          42.900          35.400
 120709130.944 6  94059064.69843                  22970182.977
  22970188.102                          36.800          20.900
 123252854.952 5  96041264.22943                  23454254.000
  23454258.016                          32.200          20.400
 115492270.883 6  89827348.500 6                  21643198.984    21643196.691
  21643202.879                          38.600          40.100
 126929781.613 5  98906361.33444  94785260.820 7  24153941.055
  24153949.191    24153948.965          30.700          27.500          42.600
 112882121.718 7  87960167.76245  84295153.032 8  21480763.852
  21480772.563    21480770.742          42.000          32.200          49.700
 114369280.310 7  89118924.50145                  21763742.688
  21763745.563                          42.600          33.000
 111879195.512 5  87017084.409 6                  20944000.961    20944001.238
  20944004.680                          35.800          38.000
 110296372.361 7  85785976.295 7                  20640436.023    20640435.902
  20640440.480                          42.000          43.900
 131788798.540 7                  98413731.182 7  25078575.375
                  25078581.402          42.500                          45.300
 130476994.499 7                  97434132.739 7  24828947.547
                  24828951.863          43.800                          47.600
 108820377.451 6                  81261989.499 7  20707827.344
                  20707831.629          40.500                          45.500
 136441623.059 6                 101888251.848 7  25963976.656
                  25963984.320          37.900                          42.600
 120179359.700 7                  89744355.657 8  22869369.203
                  22869374.188          45.800                          49.500
 20  8 16  0 46 28.0000000  0 21R01G17G03R18R03G06R17G28G11G19R02G30
                                G01G22R16R15E36E02E14E15E30
 125021611.613 4  97239177.514 4                  23387908.180    23387905.430
  23387913.055                          28.900          29.300
 116688336.902 6  90925883.07246                  22205018.813
  22205024.344                          39.900          40.900
 110929755.795 7  86438874.40147  82837256.781 8  21109242.563
  21109250.543    21109251.453          43.800          46.700          51.300
 110189370.279 6  85702764.119 7                  20642155.625    20642154.348
  20642159.672                          41.200          43.000
                  97438534.142 5                  23403000.844
  23403005.434                                          32.800
 126607002.888 5  98654811.62744  94544193.589 6  24092501.844
  24092510.254    24092510.707          33.000          28.300          41.900
 109457716.978 7  85133671.108 7                  20454762.016    20454760.875
  20454765.355                          43.400          43.100
 108616038.840 7  84635884.14245                  20668938.531
  20668942.980                          43.400          35.800
 120711907.663 6  94061228.37443                  22970711.406
  22970716.477                          36.800          19.900
 123250135.255 5  96039144.94943                  23453735.250
  23453740.480                          31.800          20.600
 115490199.849 6  89825737.677 6                  21642810.281    21642808.730
  21642814.742                          38.600          40.100
 126932607.485 5  98908563.30144  94787371.026 7  24154478.000
  24154487.082    24154486.809          30.700          26.500          42.500
 112884684.977 6  87962165.10845  84297067.152 8  21481251.539
  21481260.324    21481258.621          41.800          33.100          49.900
 114370193.722 7  89119636.25345                  21763916.289
  21763919.281                          42.500          32.700
 111878192.230 6  87016304.080 6                  20943813.352    20943813.250
  20943816.863                          36.100          37.900
 110299359.142 7  85788299.351 7                  20640995.000    20640994.844
  20640999.297                          42.200          43.600
 131790590.208 7                  98415069.098 7  25078916.000
                  25078922.367          42.400                          45.100
 130479508.109 7                  97436009.781 7  24829425.750
                  24829430.355          43.600                          47.600
 108814842.449 6                  81257856.215 7  20706774.164
                  20706778.352          40.800                          45.900
 136439896.019 6                 101886962.152 7  25963648.383
                  25963655.754          38.500                          42.900
 120179348.260 7                  89744347.106 8  22869366.898
                  22869372.109          45.600                          49.700
 20  8 16  0 46 29.0000000  0 21R01G17G03R18R03G06R17G28G11G19R02G30
                                G01G22R16R15E36E02E14E15E30
 125023619.832 4  97240739.438 4                  23388284.195    23388281.539
  23388288.734                          29.300          29.000
 116686475.896 6  90924432.93646                  22204664.664
  22204670.145                          39.800          40.600
 110928748.872 7  86438089.78747  82836504.875 8  21109051.125
  21109058.902    21109059.805          43.600          46.900          51.400
 110188369.335 6  85701985.612 7                  20641967.586    20641966.902
  20641972.176                          41.300          43.100
                  97435433.61915                  23402254.672
  23402260.746                                          32.800
 126604124.992 5  98652569.10544  94542044.476 7  24091954.008
  24091962.652    24091963.180          33.100          29.000          42.200
 109459081.645 7  85134732.506 7                  20455016.164    20455015.941
  20455020.336                          43.300          43.300
 108615208.630 7  84635237.22546                  20668780.867
  20668785.000                          43.100          36.200
 120714684.499 5  94063392.10943                  22971239.844
  22971244.902                          35.800          20.400
 123247415.576 5  96037025.73343                  23453217.773
  23453222.988                          31.800          19.900
 115488129.485 6  89824127.386 6                  21642422.836    21642420.656
  21642426.789                          38.800          39.800
 126935433.381 5  98910765.29744  94789481.267 7  24155016.070
  24155024.836    24155024.375          30.800          26.000          42.100
 112887248.470 6  87964162.63145  84298981.458 8  21481738.953
  21481748.148    21481746.430          41.400          32.600          49.800
 114371107.749 7  89120348.49245                  21764090.016
  21764093.148                          42.000          33.400
 111877189.833 5  87015524.454 6                  20943626.891    20943625.355
  20943629.113                          35.700          37.600
 110302346.568 7  85790622.892 7                  20641554.445    20641554.090
  20641558.496                          42.600          43.100
 131792381.890 7                  98416407.058 7  25079257.344
                  25079263.230          42.400                          45.100
 130482022.004 7                  97437887.056 7  24829903.961
                  24829908.480          43.600                          47.400
 108809307.902 6                  81253723.290 7  20705720.930
                  20705725.324          41.000                          45.900
 136438169.084 6                 101885672.587 7  25963320.086
                  25963326.879          39.000                          42.800
 120179337.305 7                  89744338.918 8  22869364.945
                  22869370.008          45.600                          49.500
 20  8 16  0 46 30.0000000  0 21R01G17G03R18R03G06R17G28G11G19R02G30
                                G01G22R16R15E36E02E14E15E30
 125025628.779 4  97242301.922 4                  23388659.914    23388657.340
  23388664.379                          29.500          29.200
 116684614.957 6  90922982.85846                  22204310.391
  22204316.074                          39.700          40.700
 110927742.640 7  86437305.70947  82835753.458 8  21108859.523
  21108867.531    21108868.316          43.500          46.900          51.200
 110187368.625 6  85701207.287 7                  20641781.094    20641779.762
  20641784.664                          41.400          43.300
                  97432333.689 5                  23401511.844
  23401516.207                                          33.400
 126601247.267 5  98650326.73644  94539895.535 7  24091407.000
  24091415.004    24091415.551          33.000          29.000          42.300
 109460446.451 7  85135793.999 7                  20455272.633    20455271.008
  20455275.340                          43.400          43.700
 108614378.963 7  84634590.74445                  20668622.281
  20668626.969                          42.600          35.800
 120717461.430 6  94065555.97743                  22971769.219
  22971773.430                          36.400          19.600
 123244696.038 5  96034906.62043                  23452700.508
  23452705.500                          32.600          20.100
 115486059.778 6  89822517.613 6                  21642034.742    21642032.828
  21642039.012                          38.900          40.000
 126938259.248 5  98912967.27444  94791591.554 7  24155553.789
  24155562.426    24155562.109          30.500          26.000          42.100
 112889812.205 6  87966160.35445  84300895.934 8  21482227.453
  21482236.000    21482234.227          41.700          32.100          49.600
 114372022.398 7  89121061.19045                  21764263.758
  21764267.164                          42.200          32.800
 111876188.235 5  87014745.458 6                  20943438.523    20943437.445
  20943441.508                          35.900          37.900
 110305334.586 7  85792946.923 7                  20642113.391    20642112.992
  20642117.570                          42.600          43.700
 131794173.610 7                  98417745.023 7  25079597.930
                  25079604.262          42.400                          45.000
 130484536.189 7                  97439764.516 7  24830382.500
                  24830387.105          43.800                          47.700
 108803773.811 6                  81249590.689 7  20704668.016
                  20704672.258          40.800                          45.500
 136436442.327 6                 101884383.133 7  25962991.508
                  25962998.340          38.300                          42.500
 120179326.829 7                  89744331.098 8  22869362.844
                  22869368.004          45.600                          49.700
 20  8 16  0 46 31.0000000  0 21R01G17G03R18R03G06R17G28G11G19R02G30
                                G01G22R16R15E36E02E14E15E30
 125027638.457 5  97243865.004 4                  23389034.266    23389033.754
  23389040.117                          30.000          29.500
 116682754.119 6  90921532.85046                  22203956.281
  22203961.941                          39.900          40.700
 110926737.031 7  86436522.12347  82835002.527 8  21108667.953
  21108676.063    21108676.863          43.400          46.800          51.100
 110186368.161 6  85700429.127 7                  20641592.672    20641591.898
  20641597.293                          41.400          43.600
                  97429233.758 5                  23400766.555
  23400771.598                                          32.900
 126598369.779 5  98648084.53544  94537746.749 7  24090858.984
  24090867.531    24090867.898          33.000          29.700          42.400
 109461811.374 7  85136855.625 7                  20455527.172    20455525.988
  20455530.395                          43.100          43.900
 108613549.807 7  84633944.63745                  20668464.641
  20668469.203                          43.200          35.900
 120720238.444 5  94067719.86743                  22972297.641
  22972302.059                          35.800          19.000
 123241976.451 5  96032787.48143                  23452183.984
  23452188.176                          33.000          19.900
 115483990.719 6  89820908.386 6                  21641645.570    21641644.992
  21641651.215                          39.100          40.200
 126941085.334 5  98915169.42544  94793701.891 7  24156091.258
  24156100.121    24156099.617          30.500          26.400          42.000
 112892376.186 7  87968158.25745  84302810.590 8  21482715.516
  21482724.098    21482722.055          42.100          32.500          49.500
 114372937.662 7  89121774.38845                  21764438.484
  21764441.422                          42.100          32.800
 111875187.591 5  87013967.127 6                  20943250.469    20943250.375
  20943254.277                          35.600          37.000
 110308323.223 7  85795271.401 7                  20642671.305    20642672.270
  20642676.953                          42.600          43.600
 131795965.342 7                  98419083.019 7  25079939.172
                  25079945.109          43.000                          44.800
 130487050.672 7                  97441642.210 7  24830861.086
                  24830865.531          43.800                          47.600
 108798240.180 6                  81245458.425 7  20703614.984
                  20703619.273          41.000                          45.300
 136434715.735 6                 101883093.766 7  25962662.867
                  25962670.039          38.200                          42.700
 120179316.835 7                  89744323.629 8  22869361.055
                  22869366.047          45.700                          50.000
 20  8 16  0 46 32.0000000  0 21R01G17G03R18R03G06R17G28G11G19R02G30
                                G01G22R16R15E36E02E14E15E30
 125029648.841 4  97245428.643 4                  23389409.672    23389409.773
  23389416.184                          29.200          28.500
 116680893.315 6  90920082.87846                  22203602.477
  22203607.867                          40.100          40.900
 110925732.090 7  86435739.05347  82834252.081 8  21108477.117
  21108484.828    21108485.613          43.200          46.800          51.400
 110185367.932 6  85699651.186 7                  20641405.508    20641405.141
  20641409.816                          41.600          43.500
                  97426133.799 5                  23400022.211
  23400027.098                                          32.100
 126595492.440 5  98645842.44544  94535598.123 6  24090312.234
  24090319.789    24090320.109          33.200          29.500          41.700
 109463176.444 7  85137917.352 7                  20455782.078    20455781.109
  20455785.551                          43.200          44.300
 108612721.170 7  84633298.95046                  20668307.227
  20668311.445                          43.200          36.000
 120723015.622 6  94069883.92143                  22972824.969
  22972830.566                          36.000          19.300
 123239256.978 5  96030668.42643                  23451666.945
  23451670.504                          33.200          20.600
 115481922.297 6  89819299.597 6                  21641257.930    21641257.426
  21641263.766                          38.600          40.200
 126943911.396 5  98917371.53844  94795812.282 7  24156629.633
  24156637.992    24156637.766          30.300          26.900          42.100
 112894940.407 7  87970156.34845  84304725.425 8  21483203.797
  21483212.113    21483210.141          42.200          32.900          49.600
 114373853.494 7  89122488.02045                  21764612.734
  21764615.688                          42.400          33.200
 111874187.712 5  87013189.499 6                  20943063.023    20943063.160
  20943067.152                          35.600          37.400
 110311312.481 7  85797596.388 7                  20643232.031    20643231.434
  20643236.367                          42.600          43.600
 131797757.135 7                  98420421.034 7  25080280.109
                  25080286.000          42.600                          45.100
 130489565.433 7                  97443520.117 7  24831339.703
                  24831344.258          43.600                          47.600
 108792706.994 6                  81241326.512 7  20702561.984
                  20702566.449          41.000                          45.300
 136432989.261 6                 101881804.520 7  25962334.078
                  25962341.305          38.300                          42.400
 120179307.318 7                  89744316.519 8  22869359.227
                  22869364.195          45.500                          49.700
 20  8 16  0 46 33.0000000  0 21R01G17G03R18R03G06R17G28G11G19R02G30
                                G01G22R16R15E36E02E14E15E30
 125031659.987 5  97246992.826 4                  23389784.945    23389785.801
  23389792.355                          30.000          28.500
 116679032.601 6  90918632.96746                  22203248.125
  22203253.789                          39.600          40.900
 110924727.798 7  86434956.48347  82833502.126 8  21108286.539
  21108293.813    21108294.500          43.300          46.800          51.700
 110184367.918 7  85698873.401 7                  20641218.445    20641217.488
  20641222.543                          42.000          43.600
                  97423033.853 5                  23399275.703
  23399282.664                                          32.800
 126592615.384 5  98643600.58145  94533449.659 6  24089764.922
  24089772.289    24089772.734          32.600          30.000          41.600
 109464541.713 7  85138979.212 7                  20456037.766    20456036.254
  20456040.707                          42.800          44.000
 108611893.032 7  84632653.64945                  20668149.039
  20668153.844                          43.400          35.900
 120725792.889 6  94072048.01043                  22973353.914
  22973359.078                          36.000          20.100
 123236537.484 5  96028549.31743                  23451149.336
  23451152.902                          33.500          20.600
 115479854.539 6  89817691.315 6                  21640870.156    21640869.938
  21640876.379                          38.500          40.200
 126946737.520 5  98919573.70244  94797922.706 6  24157166.523
  24157175.723    24157175.594          30.500          26.800          41.700
 112897504.823 6  87972154.60145  84306640.417 8  21483691.289
  21483699.934    21483698.141          41.700          32.400          49.800
 114374769.950 7  89123202.14345                  21764787.172
  21764789.969                          42.800          33.600
 111873188.747 5  87012412.495 6                  20942875.633    20942876.398
  20942880.184                          35.700          37.900
 110314302.365 7  85799921.860 7                  20643791.625    20643791.266
  20643795.840                          42.700          43.400
 131799548.924 7                  98421759.065 7  25080621.164
                  25080627.125          42.700                          45.000
 130492080.455 7                  97445398.213 7  24831818.313
                  24831822.844          43.700                          47.500
 108787174.284 6                  81237194.926 7  20701508.875
                  20701513.422          41.200                          45.600
 136431262.940 6                 101880515.383 7  25962005.352
                  25962012.891          38.300                          42.300
 120179298.252 7                  89744309.751 8  22869357.469
                  22869362.461          45.700                          49.600
 20  8 16  0 46 34.0000000  0 21R01G17G03R18R03G06R17G28G11G19R02G30
                                G01G22R16R15E36E02E14E15E30
 125033671.811 4  97248557.588 4                  23390159.367    23390162.641
  23390168.934                          29.300          28.400
 116677171.921 6  90917183.08546                  22202894.586
  22202899.703                          39.900          40.700
 110923724.195 7  86434174.45647  82832752.663 8  21108095.406
  21108102.863    21108103.672          43.100          46.900          50.800
 110183368.111 6  85698095.780 7                  20641030.594    20641030.258
  20641035.258                          41.300          43.100
                  97419933.872 5                  23398530.359
  23398538.043                                          33.400
 126589738.545 5  98641358.90344  94531301.345 6  24089217.117
  24089225.020    24089225.121          33.300          29.100          41.600
 109465907.123 7  85140041.220 7                  20456291.727    20456291.277
  20456295.918                          42.600          43.800
 108611065.405 7  84632008.74345                  20667991.813
  20667996.395                          43.400          35.500
 120728570.222 5  94074212.14543                  22973882.484
  22973887.547                          35.800          19.600
 123233818.092 5  96026430.29343                  23450631.852
  23450635.543                          33.400          19.300
 115477787.431 6  89816083.586 6                  21640483.789    21640482.555
  21640488.832                          38.700          40.000
 126949563.710 5  98921775.92944  94800033.156 7  24157704.711
  24157713.762    24157713.082          30.500          26.900          42.000
 112900069.490 7  87974153.04145  84308555.587 8  21484179.586
  21484188.000    21484186.266          42.000          32.400          49.700
 114375687.009 7  89123916.73345                  21764962.031
  21764964.594                          42.500          33.000
 111872190.631 5  87011636.169 6                  20942689.656    20942688.844
  20942693.398                          35.900          38.100
 110317292.887 7  85802247.807 7                  20644351.477    20644351.051
  20644355.457                          42.800          43.400
 131801340.765 7                  98423097.129 7  25080962.031
                  25080967.980          42.300                          45.100
 130494595.759 7                  97447276.533 7  24832296.914
                  24832301.258          43.800                          47.400
 108781641.980 6                  81233063.660 7  20700456.273
                  20700460.883          41.500                          45.200
 136429536.722 6                 101879226.343 7  25961676.727
                  25961684.453          38.600                          42.600
 120179289.686 7                  89744303.357 8  22869355.867
                  22869360.898          45.700                          49.800
 20  8 16  0 46 35.0000000  0 21R01G17G03R18R03G06R17G28G11G19R02G30
                                G01G22R16R15E36E02E14E15E30
 125035684.318 4  97250122.908 4                  23390539.883    23390539.148
  23390545.340                          29.900          27.800
 116675311.385 6  90915733.32146                  22202539.820
  22202545.676                          39.400          40.600
 110922721.206 7  86433392.89947  82832003.700 8  21107903.977
  21107911.992    21107912.664          43.400          46.800          50.900
 110182368.529 6  85697318.299 7                  20640844.055    20640843.043
  20640847.961                          41.100          43.000
                  97416833.978 5                  23397787.883
  23397793.438                                          32.500
 126586861.870 5  98639117.33144  94529153.228 7  24088669.844
  24088677.621    24088678.406          32.900          28.400          42.300
 109467272.669 7  85141103.312 7                  20456548.344    20456546.500
  20456551.063                          43.400          43.700
 108610238.326 7  84631364.27746                  20667834.641
  20667839.031                          43.600          36.000
 120731347.716 5  94076376.43643                  22974410.703
  22974416.082                          35.700          20.100
 123231098.717 5  96024311.32643                  23450114.359
  23450118.195                          33.600          19.600
 115475721.033 6  89814476.371 6                  21640097.188    21640095.160
  21640101.527                          38.700          40.000
 126952389.931 5  98923978.18244  94802143.665 7  24158241.539
  24158251.676    24158251.145          30.700          26.000          42.300
 112902634.391 6  87976151.66845  84310470.945 8  21484667.578
  21484676.125    21484674.484          41.800          32.500          49.300
 114376604.683 7  89124631.79745                  21765136.188
  21765139.301                          42.000          33.100
 111871193.418 5  87010860.559 6                  20942503.188    20942502.664
  20942506.746                          35.700          37.700
 110320284.024 7  85804574.261 7                  20644911.219    20644910.730
  20644915.090                          43.000          43.300
 131803132.629 7                  98424435.208 7  25081302.797
                  25081309.008          42.200                          45.400
 130497111.356 7                  97449155.058 7  24832775.922
                  24832780.063          44.100                          47.300
 108776110.136 6                  81228932.746 7  20699403.516
                  20699408.129          41.000                          45.500
 136427810.681 6                 101877937.409 7  25961348.570
                  25961356.137          38.500                          42.900
 120179281.603 7                  89744297.325 8  22869354.250
                  22869359.387          45.800                          50.000
 20  8 16  0 46 36.0000000  0 21R01G17G03R18R03G06R17G28G11G19R02G30
                                G01G22R16R15E36E02E14E15E30
 125037697.579 5  97251688.807 4                  23390917.664    23390915.781
  23390921.879                          30.100          28.500
 116673450.847 6  90914283.55346                  22202186.102
  22202191.500                          40.100          40.200
 110921718.898 7  86432611.88847  82831255.219 8  21107713.453
  21107721.254    21107721.949          43.200          46.800          51.400
 110181369.138 6  85696541.016 7                  20640656.820    20640655.672
  20640660.777                          40.900          43.100
                  97413734.112 5                  23397043.078
  23397048.824                                          33.300
 126583985.460 5  98636875.97744  94527005.241 7  24088121.977
  24088130.168    24088130.922          33.500          28.600          42.300
 109468638.375 7  85142165.503 7                  20456802.438    20456801.484
  20456806.211                          42.600          43.600
 108609411.772 7  84630720.20146                  20667677.016
  20667681.777                          43.500          36.100
 120734125.283 5  94078540.78543                  22974938.352
  22974944.445                          35.500          19.600
 123228379.307 5  96022192.28343                  23449596.914
  23449600.738                          34.000          19.300
 115473655.296 6  89812869.722 6                  21639710.680    21639708.043
  21639714.320                          38.600          39.700
 126955216.247 5  98926180.50344  94804254.214 7  24158780.383
  24158789.504    24158789.203          30.700          26.800          42.200
 112905199.518 6  87978150.47745  84312386.463 8  21485155.469
  21485164.180    21485162.426          41.800          32.700          49.300
 114377522.954 7  89125347.33845                  21765311.359
  21765314.047                          42.200          33.700
 111870197.081 5  87010085.644 6                  20942315.992    20942316.113
  20942320.105                          35.900          37.600
 110323275.775 7  85806901.174 7                  20645471.594    20645470.691
  20645475.047                          43.100          43.500
 131804924.541 7                  98425773.308 7  25081644.055
                  25081649.898          42.300                          45.300
 130499627.242 7                  97451033.804 7  24833254.375
                  24833258.871          43.900                          47.300
 108770578.737 6                  81224802.172 7  20698350.633
                  20698355.695          40.600                          45.700
 136426084.808 6                 101876648.605 7  25961020.391
                  25961027.602          38.200                          43.300
 120179274.019 7                  89744291.653 8  22869352.852
                  22869357.770          45.700                          50.100
 20  8 16  0 46 37.0000000  0 21R01G17G03R18R03G06R17G28G11G19R02G30
                                G01G22R16R15E36E02E14E15E30
 125039711.636 5  97253255.226 4                  23391295.180    23391292.324
  23391298.543                          30.100          28.600
 116671590.407 6  90912833.85846                  22201832.344
  22201837.520                          40.100          40.700
 110920717.240 7  86431831.37647  82830507.222 8  21107522.758
  21107530.609    21107531.402          43.300          46.800          51.100
 110180369.993 6  85695763.898 7                  20640469.992    20640468.496
  20640473.594                          41.400          42.900
 125242351.71015  97410634.232 5                  23396298.547    23396298.215
  23396304.301                          32.400          33.100
 126581109.270 5  98634634.79144  94524857.422 7  24087574.664
  24087582.703    24087583.508          33.000          28.400          42.400
 109470004.215 7  85143227.836 7                  20457057.469    20457056.840
  20457061.438                          42.800          43.400
 108608585.709 7  84630076.52145                  20667519.922
  20667524.641                          43.400          35.800
 120736902.984 5  94080705.21343                  22975467.750
  22975473.055                          35.100          19.300
 123225660.007 5  96020073.35043                  23449079.492
  23449083.383                          34.300          19.600
 115471590.272 6  89811263.591 6                  21639322.484    21639321.023
  21639327.301                          38.400          40.000
 126958042.597 5  98928382.85144  94806364.829 7  24159318.180
  24159327.434    24159327.063          31.900          27.000          42.200
 112907764.886 6  87980149.45745  84314302.161 8  21485643.984
  21485652.336    21485650.633          41.700          32.300          49.500
 114378441.802 7  89126063.32945                  21765485.766
  21765489.020                          42.000          33.100
 111869201.637 5  87009311.385 6                  20942129.336    20942129.801
  20942133.711                          35.900          37.300
 110326268.143 7  85809228.563 7                  20646031.203    20646030.516
  20646035.008                          42.900          43.500
 131806716.456 7                  98427111.429 7  25081985.258
                  25081990.961          42.400                          45.300
 130502143.383 7                  97452912.748 7  24833733.391
                  24833737.656          44.100                          47.400
 108765047.819 6                  81220671.917 7  20697297.891
                  20697302.824          40.600                          45.500
 136424359.047 6                 101875359.878 7  25960691.906
                  25960699.102          38.300                          43.200
 120179266.863 7                  89744286.321 8  22869351.617
                  22869356.527          45.700                          50.200
 20  8 16  0 46 38.0000000  0 21R01G17G03R18R03G06R17G28G11G19R02G30
                                G01G22R16R15E36E02E14E15E30
 125041726.295 5  97254822.189 4                  23391671.516    23391669.227
  23391675.434                          30.100          26.800
 116669730.023 6  90911384.20946                  22201478.164
  22201483.602                          40.500          40.900
 110919716.194 7  86431051.33647  82829759.702 8  21107332.922
  21107340.215    21107340.969          43.500          46.800          51.200
 110179371.057 6  85694986.950 7                  20640282.727    20640281.207
  20640286.438                          41.500          43.400
 125238366.142 5  97407534.391 5                  23395553.789    23395553.980
  23395559.832                          32.600          32.300
 126578233.220 5  98632393.71144  94522709.731 7  24087027.742
  24087035.469    24087036.266          32.900          27.900          42.200
 109471370.213 7  85144290.287 7                  20457312.867    20457312.227
  20457316.754                          42.900          43.000
 108607760.140 7  84629433.22145                  20667362.781
  20667367.563                          43.200          35.700
 120739680.745 6  94082869.70743                  22975997.250
  22976001.813                          36.100          18.600
 123222940.709 5  96017954.39543                  23448561.438
  23448566.020                          34.900          19.900
 115469525.860 6  89809657.942 6                  21638935.758    21638934.152
  21638940.465                          38.900          39.700
 126960868.973 5  98930585.22744  94808475.418 7  24159856.180
  24159865.391    24159864.957          31.900          26.900          42.000
 112910330.455 6  87982148.60245  84316217.994 8  21486132.242
  21486140.438    21486138.918          41.700          33.200          49.800
 114379361.222 6  89126779.76445                  21765660.203
  21765663.617                          41.600          33.200
 111868206.903 5  87008537.754 6                  20941944.641    20941943.727
  20941947.445                          35.600          37.400
 110329261.132 7  85811556.443 7                  20646589.859    20646590.223
  20646595.285                          42.600          43.600
 131808508.383 7                  98428449.547 7  25082326.250
                  25082331.891          42.800                          45.400
 130504659.784 7                  97454791.871 7  24834211.992
                  24834216.469          43.900                          47.800
 108759517.283 6                  81216541.971 7  20696245.547
                  20696250.645          40.700                          45.400
 136422633.383 6                 101874071.237 7  25960363.281
                  25960370.773          38.300                          42.700
 120179260.185 7                  89744281.326 8  22869350.367
                  22869355.211          45.700                          50.200
 20  8 16  0 46 39.0000000  0 21R01G17G03R18R03G06R17G28G11G19R02G30
                                G01G22R16R15E36E02E14E15E30
 125043741.645 5  97256389.711 4                  23392048.508    23392046.379
  23392052.375                          30.200          28.300
 116667869.670 6  90909934.58446                  22201124.375
  22201129.637                          40.300          40.700
 110918715.814 7  86430271.82347  82829012.651 8  21107141.836
  21107149.789    21107150.461          43.500          46.900          51.200
 110178372.378 6  85694210.195 7                  20640095.148    20640094.137
  20640099.523                          41.600          43.700
 125234380.11315  97404434.494 5                  23394809.898    23394809.320
  23394815.242                          32.500          32.600
 126575357.443 5  98630152.85044  94520562.217 7  24086479.781
  24086488.090    24086489.316          32.800          29.400          42.200
 109472736.348 7  85145352.827 7                  20457568.078    20457567.215
  20457572.164                          42.800          43.200
 108606935.065 7  84628790.30046                  20667205.828
  20667210.445                          43.200          36.100
 120742458.593 6  94085034.28543                  22976525.805
  22976530.441                          36.200          19.000
 123220221.418 5  96015835.47443                  23448044.508
  23448048.582                          34.600          20.400
 115467462.139 6  89808052.795 6                  21638549.344    21638547.465
  21638553.645                          38.900          39.500
 126963695.401 5  98932787.63144  94810586.073 6  24160395.133
  24160403.320    24160402.910          32.300          27.600          41.800
 112912896.229 6  87984147.90245  84318134.011 8  21486620.273
  21486628.766    21486627.164          41.500          33.100          50.200
 114380281.281 6  89127496.68645                  21765835.797
  21765838.758                          41.800          33.600
 111867213.072 5  87007764.738 6                  20941757.102    20941757.758
  20941761.320                          35.600          37.300
 110332254.742 7  85813884.815 7                  20647150.945    20647150.477
  20647155.398                          42.700          43.500
 131810300.320 7                  98429787.691 7  25082666.984
                  25082672.953          42.700                          45.500
 130507176.453 7                  97456671.202 8  24834691.102
                  24834695.391          44.100                          48.000
 108753987.183 6                  81212412.372 7  20695193.617
                  20695198.316          40.900                          45.500
 136420907.896 6                 101872782.693 7  25960035.398
                  25960042.141          38.000                          42.700
 120179253.984 7                  89744276.684 8  22869349.008
                  22869354.125          45.700                          50.000
