     2.11           OBSERVATION DATA    M (MIXED)           RINEX VERSION / TYPE
teqc  2016Nov7      KASI/KOREA          20200816 00:33:04UTCPGM / RUN BY / DATE
Linux 2.4.20-8|Pentium IV|gcc|Linux|486/DX+                 COMMENT
  0.0000      (antenna height)                              COMMENT
 +36.39942714 (latitude)                                    COMMENT
+127.37448264 (longitude)                                   COMMENT
0116.859      (elevation)                                   COMMENT
BIT 2 OF LLI FLAGS DATA COLLECTED UNDER A/S CONDITION       COMMENT
23902M002 (COGO code)                                       COMMENT
DAEJ                                                        MARKER NAME
23902M002                                                   MARKER NUMBER
KASI GPS            KASI/KOREA                              OBSERVER / AGENCY
5412K48145          TRIMBLE NETR9       5.44                REC # / TYPE / VERS
4923363230          TRM59800.00     SCIS                    ANT # / TYPE
 -3120042.7060  4084613.8706  3764027.2559                  APPROX POSITION XYZ
        0.0000        0.0000        0.0000                  ANTENNA: DELTA H/E/N
     1     1                                                WAVELENGTH FACT L1/2
    10    L1    L2    L5    C1    P1    P2    C5    S1    S2# / TYPES OF OBSERV
          S5                                                # / TYPES OF OBSERV
    18                                                      LEAP SECONDS
 SNR is mapped to RINEX snr flag value [0-9]                COMMENT
  L1 & L2: min(max(int(snr_dBHz/6), 0), 9)                  COMMENT
  2020     8    16     0    15    0.0000000     GPS         TIME OF FIRST OBS
                                                            END OF HEADER
 20  8 16  0 15  0.0000000  0 22R01G17G07G08G03R18R24R17G28G11G19R02
                                G30G01R14G22R16R15E36E02E14E30
 122589224.950 5  95347321.782 5                  22932877.227    22932877.324
  22932884.137                          30.200          30.800
 120312917.236 6  93750230.21245                  22894755.055
  22894760.203                          38.300          35.900
 127295105.927 5  99191048.07344                  24223468.180
  24223473.906                          32.000          24.400
 125837531.724 5  98055232.53243  93969589.308 7  23946085.445
  23946094.734    23946094.281          32.300          20.900          45.100
 113934649.477 7  88780349.38747  85081170.113 8  21681055.992
  21681063.703    21681064.297          42.200          44.100          50.400
 112522038.857 6  87517060.905 6                  21079143.813    21079142.859
  21079147.961                          39.400          41.900
 122333444.129 5  95148249.679 5                  22876974.984    22876975.398
  22876979.531                          35.000          34.500
 107196560.305 7  83374993.862 7                  20032209.953    20032209.496
  20032214.543                          43.800          44.500
 111040396.223 7  86524993.89545                  21130277.813
  21130282.711                          43.000          35.700
 115700835.173 6  90156498.17544                  22017134.664
  22017138.969                          39.300          25.600
 128437810.609 4 100081487.86142                  24440917.750
  24440924.418                          28.600          16.900
 120419964.783 5  93659997.034 6                  22566647.148    22566645.727
  22566652.473                          35.700          36.500
 121828189.793 6  94931096.87545  90975632.820 7  23183140.031
  23183147.770    23183146.895          37.900          35.100          44.600
 108556297.417 7  84589395.85246  81064830.029 8  20657586.375
  20657595.234    20657593.621          42.600          36.500          51.900
 119335117.692 6  92816224.496 6                  22386970.578    22386968.727
  22386974.375                          37.000          38.600
 113753717.086 7  88639264.49245                  21646604.500
  21646608.152                          43.600          34.000
 115237126.515 5  89628808.468 5                  21572611.703    21572611.414
  21572616.621                          32.800          35.800
 105927591.235 7  82388035.943 7                  19822877.563    19822877.699
  19822882.242                          45.700          45.400
 128491553.417 7                  95951503.109 7  24451130.000
                  24451135.797          44.700                          47.400
 126298164.634 7                  94313578.711 8  24033741.984
                  24033746.641          45.700                          49.900
 119840717.397 6                  89491462.291 6  22804929.391
                  22804933.152          36.100                          41.100
 121035273.941 7                  90383512.752 8  23032243.969
                  23032248.949          44.900                          49.000
 20  8 16  0 15  1.0000000  0 22R01G17G07G08G03R18R24R17G28G11G19R02
                                G30G01R14G22R16R15E36E02E14E30
 122589765.143 5  95347741.854 5                  22932977.852    22932977.637
  22932985.246                          30.600          30.200
 120310945.385 6  93748693.70346                  22894379.469
  22894385.043                          38.300          36.100
 127298289.540 5  99193528.81243                  24224073.391
  24224079.777                          31.000          23.500
 125839948.609 5  98057115.81843  93971394.093 7  23946544.883
  23946554.688    23946554.359          32.800          20.100          45.500
 113932517.648 7  88778688.22147  85079578.178 8  21680649.609
  21680657.828    21680658.715          42.000          44.200          50.200
 112520551.619 6  87515904.161 7                  21078865.172    21078864.355
  21078869.539                          39.500          42.300
 122336266.277 5  95150444.697 5                  22877502.844    22877502.859
  22877507.223                          34.800          35.000
 107197567.111 7  83375776.943 7                  20032399.547    20032397.539
  20032402.766                          43.600          44.500
 111038698.788 7  86523671.22445                  21129955.359
  21129959.656                          43.100          34.800
 115703345.469 6  90158454.24344                  22017611.875
  22017616.703                          39.400          24.600
 128435042.693 4 100079330.98342                  24440390.656
  24440397.566                          29.900          16.300
 120416905.212 5  93657617.323 6                  22566073.313    22566072.535
  22566078.867                          35.900          36.900
 121830703.469 6  94933055.57445  90977509.935 7  23183617.453
  23183625.934    23183625.273          37.600          34.600          44.200
 108558268.007 7  84590931.38146  81066301.571 8  20657961.672
  20657970.164    20657968.621          42.700          36.500          52.000
 119339448.869 6  92819593.189 6                  22387782.109    22387780.684
  22387787.008                          37.000          38.600
 113753450.214 7  88639056.53945                  21646554.391
  21646557.422                          43.600          34.600
 115234624.206 5  89626862.235 5                  21572142.656    21572143.172
  21572148.133                          32.800          35.900
 105929164.318 7  82389259.460 7                  19823171.555    19823172.086
  19823176.699                          45.300          45.600
 128493239.235 7                  95952762.006 7  24451450.859
                  24451456.543          44.300                          47.700
 126300051.115 7                  94314987.443 8  24034101.156
                  24034105.633          46.000                          49.800
 119834679.712 5                  89486953.634 6  22803780.430
                  22803784.238          35.600                          41.000
 121034393.531 7                  90382855.309 8  23032076.297
                  23032081.465          44.800                          49.300
 20  8 16  0 15  2.0000000  0 22R01G17G07G08G03R18R24R17G28G11G19R02
                                G30G01R14G22R16R15E36E02E14E30
 122590306.152 5  95348162.693 5                  22933081.094    22933079.000
  22933086.449                          30.400          30.000
 120308973.544 6  93747157.20246                  22894003.945
  22894009.801                          38.200          36.300
 127301473.138 5  99196009.55844                  24224678.938
  24224685.484                          31.000          24.000
 125842365.520 5  98058999.10143  93973198.961 7  23947005.703
  23947014.781    23947014.109          33.200          20.900          45.300
 113930386.422 7  88777027.53147  85077986.649 8  21680243.969
  21680252.426    21680253.172          42.000          44.200          50.300
 112519064.706 6  87514747.712 7                  21078586.563    21078585.777
  21078591.082                          39.800          42.300
 122339088.434 5  95152639.719 5                  22878031.594    22878030.684
  22878034.980                          35.100          34.300
 107198574.212 7  83376560.232 7                  20032587.188    20032585.949
  20032590.883                          43.400          44.600
 111037001.759 7  86522348.86445                  21129631.914
  21129636.813                          43.600          35.200
 115705856.005 6  90160410.51244                  22018090.688
  22018094.594                          39.100          24.700
 128432274.880 4 100077174.32742                  24439865.273
  24439870.645                          29.900          16.300
 120413845.992 6  93655237.947 6                  22565500.820    22565499.465
  22565505.586                          36.000          36.900
 121833217.509 6  94935014.56245  90979387.290 7  23184095.445
  23184104.281    23184103.555          37.500          34.500          44.400
 108560239.011 7  84592467.22146  81067773.432 8  20658336.531
  20658345.398    20658343.652          42.500          36.600          51.800
 119343780.277 6  92822962.050 6                  22388594.688    22388593.359
  22388599.559                          37.100          38.600
 113753183.999 7  88638849.09745                  21646503.586
  21646506.609                          43.500          34.800
 115232122.701 5  89624916.593 5                  21571675.938    21571674.633
  21571679.875                          32.800          35.900
 105930738.285 7  82390483.659 7                  19823466.781    19823466.520
  19823471.160                          44.900          46.100
 128494925.187 7                  95954020.981 7  24451771.688
                  24451777.430          44.300                          47.500
 126301938.010 7                  94316396.487 8  24034460.219
                  24034464.754          45.900                          49.600
 119828642.152 5                  89482445.059 6  22802631.297
                  22802635.266          35.600                          41.000
 121033513.583 7                  90382198.203 8  23031908.852
                  23031913.859          44.900                          48.900
 20  8 16  0 15  3.0000000  0 22R01G17G07G08G03R18R24R17G28G11G19R02
                                G30G01R14G22R16R15E36E02E14E30
 122590847.991 5  95348584.073 5                  22933180.102    22933180.445
  22933187.680                          30.300          30.700
 120307001.797 6  93745620.77546                  22893628.602
  22893634.605                          37.700          36.900
 127304656.686 5  99198490.21944                  24225283.953
  24225291.289                          32.000          25.700
 125844782.627 5  98060882.56043  93975003.885 7  23947465.969
  23947474.813    23947474.039          33.100          20.900          45.200
 113928255.654 6  88775367.19447  85076395.512 8  21679839.008
  21679846.852    21679847.641          41.700          44.500          50.300
 112517578.074 6  87513591.419 7                  21078308.680    21078307.000
  21078312.508                          39.900          42.300
 122341910.554 5  95154834.745 5                  22878559.383    22878558.348
  22878562.543                          35.100          34.700
 107199581.531 7  83377343.697 7                  20032775.867    20032774.109
  20032779.121                          43.100          44.800
 111035305.125 7  86521026.81545                  21129308.523
  21129314.078                          43.400          34.600
 115708366.717 6  90162366.91144                  22018568.023
  22018572.328                          38.900          24.100
 128429506.952 4 100075017.50942                  24439339.266
  24439344.168                          29.600          16.900
 120410787.164 5  93652858.854 6                  22564927.414    22564926.207
  22564932.352                          35.900          36.500
 121835731.800 6  94936973.75045  90981264.840 7  23184574.016
  23184582.938    23184582.004          36.900          34.200          44.500
 108562210.402 7  84594003.37246  81069245.581 8  20658711.898
  20658720.406    20658718.789          42.400          36.300          51.700
 119348111.891 6  92826331.090 6                  22389405.586    22389406.105
  22389412.242                          37.400          39.300
 113752918.417 7  88638642.14645                  21646453.305
  21646456.137                          43.800          34.400
 115229621.860 5  89622971.512 5                  21571207.625    21571206.520
  21571211.555                          32.400          35.600
 105932313.093 7  82391708.500 7                  19823761.234    19823761.465
  19823765.863                          44.700          45.700
 128496611.184 7                  95955280.024 7  24452092.352
                  24452098.344          44.300                          47.500
 126303825.258 7                  94317805.798 8  24034819.445
                  24034823.863          46.000                          50.100
 119822604.677 5                  89477936.582 6  22801482.656
                  22801486.555          35.600                          40.900
 121032634.076 7                  90381541.421 8  23031741.766
                  23031746.621          45.200                          49.000
 20  8 16  0 15  4.0000000  0 22R01G17G07G08G03R18R24R17G28G11G19R02
                                G30G01R14G22R16R15E36E02E14E30
 122591390.616 5  95349006.142 5                  22933281.023    22933282.105
  22933289.324                          30.100          30.800
 120305030.093 6  93744084.38346                  22893254.047
  22893259.422                          37.200          36.700
 127307840.332 5  99200970.97544                  24225890.227
  24225897.004                          31.300          25.000
 125847199.742 5  98062766.01743  93976808.917 7  23947925.008
  23947934.770    23947934.207          32.800          20.900          45.200
 113926125.424 6  88773707.27247  85074804.756 8  21679433.641
  21679441.492    21679442.305          41.800          44.300          50.300
 112516091.717 6  87512435.350 6                  21078029.773    21078028.629
  21078034.145                          39.900          41.900
 122344732.694 5  95157029.668 5                  22879086.227    22879086.055
  22879090.320                          34.900          34.700
 107200589.026 7  83378127.312 7                  20032962.813    20032962.445
  20032967.398                          43.100          44.700
 111033608.859 7  86519705.03645                  21128985.781
  21128991.234                          43.400          34.600
 115710877.602 6  90164323.44644                  22019045.445
  22019050.195                          39.000          24.700
 128426739.101 5 100072860.72342                  24438812.500
  24438817.449                          30.500          16.900
 120407728.702 5  93650480.044 6                  22564354.031    22564352.848
  22564359.301                          35.900          37.100
 121838246.310 6  94938933.10945  90983142.583 7  23185051.961
  23185061.504    23185060.551          37.100          34.200          44.700
 108564182.200 7  84595539.84546  81070718.022 8  20659087.445
  20659095.621    20659094.125          42.100          36.900          51.600
 119352443.735 6  92829700.278 6                  22390219.352    22390218.883
  22390225.008                          37.400          38.200
 113752653.439 7  88638435.67445                  21646402.977
  21646405.789                          43.400          34.300
 115227121.710 5  89621026.975 5                  21570739.031    21570738.711
  21570743.445                          32.800          35.300
 105933888.747 7  82392934.013 7                  19824056.961    19824056.273
  19824060.770                          44.700          45.600
 128498297.289 7                  95956539.122 7  24452413.367
                  24452419.133          43.900                          47.700
 126305712.891 7                  94319215.382 8  24035178.617
                  24035182.992          45.900                          49.900
 119816567.346 5                  89473428.161 6  22800333.375
                  22800337.629          35.600                          40.900
 121031754.974 7                  90380884.966 8  23031574.383
                  23031579.273          45.400                          49.000
 20  8 16  0 15  5.0000000  0 22R01G17G07G08G03R18R24R17G28G11G19R02
                                G30G01R14G22R16R15E36E02E14E30
 122591934.105 5  95349428.836 5                  22933384.117    22933383.637
  22933390.957                          30.000          31.000
 120303058.397 6  93742548.00446                  22892878.695
  22892884.195                          37.700          36.100
 127311023.825 5  99203451.60644                  24226496.313
  24226502.762                          30.700          24.700
 125849616.973 5  98064649.58043  93978613.987 7  23948384.289
  23948394.895    23948394.086          32.900          19.900          45.100
 113923995.717 6  88772047.75747  85073214.390 8  21679028.750
  21679036.223    21679037.031          41.700          44.500          50.200
 112514605.634 6  87511279.497 7                  21077750.984    21077750.199
  21077755.895                          39.600          42.200
 122347554.766 5  95159224.626 5                  22879613.992    22879613.902
  22879617.852                          35.200          34.700
 107201596.778 7  83378911.101 7                  20033152.203    20033150.770
  20033155.637                          43.200          45.200
 111031913.003 7  86518383.59445                  21128663.617
  21128668.375                          43.200          34.700
 115713388.636 6  90166280.08844                  22019523.094
  22019527.895                          38.900          24.700
 128423971.245 5 100070703.94442                  24438285.773
  24438290.742                          30.800          17.400
 120404670.628 5  93648101.551 6                  22563779.977    22563779.574
  22563786.383                          35.900          37.100
 121840761.170 6  94940892.73545  90985020.533 7  23185531.273
  23185539.883    23185539.039          36.900          34.700          44.600
 108566154.377 7  84597076.60246  81072190.741 8  20659462.000
  20659470.914    20659469.402          42.700          36.300          51.600
 119356775.762 6  92833069.631 6                  22391032.398    22391031.504
  22391037.676                          37.000          38.900
 113752389.083 7  88638229.68045                  21646352.398
  21646355.406                          43.400          34.800
 115224622.300 5  89619082.971 6                  21570272.203    21570270.707
  21570275.574                          32.800          36.000
 105935465.258 7  82394160.195 7                  19824351.133    19824351.371
  19824355.848                          44.900          45.900
 128499983.461 7                  95957798.284 7  24452734.422
                  24452740.195          43.900                          47.800
 126307600.866 7                  94320625.249 8  24035538.008
                  24035542.387          45.800                          50.100
 119810530.119 5                  89468919.816 6  22799184.867
                  22799188.793          35.600                          41.000
 121030876.317 7                  90380228.808 8  23031407.078
                  23031412.023          45.500                          49.100
 20  8 16  0 15  6.0000000  0 22R01G17G07G08G03R18R24R17G28G11G19R02
                                G30G01R14G22R16R15E36E02E14E30
 122592478.355 5  95349852.142 5                  22933487.016    22933485.820
  22933492.785                          30.000          31.200
 120301086.790 6  93741011.69346                  22892503.203
  22892509.023                          37.900          36.200
 127314207.457 5  99205932.36143                  24227102.352
  24227108.578                          30.800          23.400
 125852034.363 5  98066533.25743  93980419.161 7  23948845.461
  23948854.863    23948854.078          32.900          20.100          45.000
 113921866.538 7  88770388.66547  85071624.398 8  21678622.977
  21678630.953    21678631.883          42.100          44.300          50.200
 112513119.808 6  87510123.889 7                  21077472.281    21077472.020
  21077477.531                          39.700          42.300
 122350376.762 5  95161419.509 5                  22880142.375    22880141.402
  22880145.637                          34.600          34.500
 107202604.767 7  83379695.105 7                  20033339.813    20033338.930
  20033343.902                          43.500          45.100
 111030217.531 7  86517062.45545                  21128340.758
  21128345.855                          43.100          34.200
 115715899.846 6  90168236.87144                  22020001.656
  22020005.902                          38.800          24.000
 128421203.399 4 100068547.14142                  24437758.633
  24437764.063                          28.900          16.900
 120401612.982 6  93645723.352 6                  22563208.078    22563206.898
  22563213.465                          36.100          37.300
 121843276.238 6  94942852.52745  90986898.676 7  23186009.563
  23186018.469    23186017.703          37.000          34.800          44.900
 108568126.954 7  84598613.67846  81073663.778 8  20659837.641
  20659846.281    20659844.754          42.600          36.700          51.600
 119361107.994 6  92836439.164 6                  22391844.961    22391844.344
  22391850.422                          36.700          38.900
 113752125.372 7  88638024.19045                  21646302.367
  21646305.129                          43.600          34.500
 115222123.589 5  89617139.534 6                  21569804.984    21569802.754
  21569807.793                          32.900          36.300
 105937042.628 7  82395387.030 7                  19824646.258    19824646.340
  19824650.902                          44.600          45.600
 128501669.730 7                  95959057.502 7  24453055.430
                  24453060.828          44.100                          47.700
 126309489.247 7                  94322035.401 8  24035897.125
                  24035901.574          45.700                          49.900
 119804492.975 5                  89464411.577 6  22798035.992
                  22798039.957          35.200                          41.200
 121029998.107 7                  90379572.994 8  23031239.922
                  23031244.922          45.300                          49.200
 20  8 16  0 15  7.0000000  0 22R01G17G07G08G03R18R24R17G28G11G19R02
                                G30G01R14G22R16R15E36E02E14E30
 122593023.430 5  95350276.081 5                  22933589.117    22933587.520
  22933594.688                          30.500          30.800
 120299115.248 6  93739475.42946                  22892127.820
  22892133.969                          37.900          36.500
 127317390.941 5  99208412.99743                  24227708.016
  24227714.574                          30.800          23.400
 125854451.804 5  98068416.99943  93982224.400 7  23949304.758
  23949314.996    23949314.223          33.000          20.400          44.900
 113919737.817 7  88768729.92147  85070034.794 8  21678217.719
  21678225.879    21678226.707          42.200          44.500          50.000
 112511634.289 6  87508968.477 7                  21077194.031    21077193.504
  21077199.285                          39.900          42.300
 122353198.694 5  95163614.403 5                  22880668.766    22880668.988
  22880673.500                          34.700          34.400
 107203612.982 7  83380479.265 7                  20033529.461    20033527.320
  20033532.359                          43.500          45.100
 111028522.477 7  86515741.62445                  21128018.781
  21128023.324                          43.100          34.400
 115718411.268 6  90170193.83344                  22020478.859
  22020483.984                          39.000          25.300
 128418435.542 5 100066390.42442                  24437231.891
  24437237.418                          30.100          17.400
 120398555.693 6  93643345.469 6                  22562634.633    22562634.109
  22562640.594                          36.100          37.900
 121845791.621 6  94944812.56645  90988777.041 7  23186488.039
  23186497.051    23186496.277          36.900          34.400          45.000
 108570099.911 7  84600151.04746  81075137.095 8  20660213.336
  20660221.828    20660220.168          42.600          36.300          51.300
 119365440.474 6  92839808.852 6                  22392657.344    22392656.504
  22392663.219                          37.000          39.000
 113751862.268 7  88637819.17245                  21646251.961
  21646255.105                          43.900          34.500
 115219625.503 5  89615196.569 5                  21569337.266    21569335.359
  21569340.121                          33.300          35.900
 105938620.811 7  82396614.503 7                  19824942.641    19824941.625
  19824946.309                          45.200          45.500
 128503356.089 7                  95960316.793 7  24453375.859
                  24453381.813          44.000                          47.500
 126311377.982 7                  94323445.815 8  24036256.352
                  24036260.996          45.500                          49.600
 119798455.948 5                  89459903.419 6  22796887.188
                  22796891.148          35.300                          41.300
 121029120.289 7                  90378917.491 8  23031072.930
                  23031077.867          45.300                          49.000
 20  8 16  0 15  8.0000000  0 22R01G17G07G08G03R18R24R17G28G11G19R02
                                G30G01R14G22R16R15E36E02E14E30
 122593569.261 5  95350700.660 5                  22933690.234    22933689.973
  22933696.875                          31.000          31.200
 120297143.707 6  93737939.15746                  22891753.625
  22891758.848                          37.500          36.300
 127320574.475 5  99210893.68544                  24228313.867
  24228320.566                          31.000          25.200
 125856869.317 5  98070300.76443  93984029.695 7  23949765.305
  23949775.055    23949774.309          33.000          20.400          45.200
 113917609.669 6  88767071.62247  85068445.584 8  21677813.430
  21677820.930    21677821.832          41.800          44.200          50.000
 112510149.056 6  87507813.319 6                  21076915.953    21076915.426
  21076921.012                          39.800          41.500
 122356020.669 5  95165809.249 5                  22881196.352    22881196.781
  22881201.141                          34.700          34.400
 107204621.399 7  83381263.604 7                  20033717.445    20033716.199
  20033720.738                          43.700          45.100
 111026827.792 7  86514421.09045                  21127695.977
  21127700.797                          43.100          34.600
 115720922.847 6  90172150.91544                  22020957.031
  22020961.977                          39.200          25.600
 128415667.719 5 100064233.69242                  24436706.180
  24436710.758                          30.700          16.900
 120395498.784 5  93640967.857 6                  22562062.648    22562061.313
  22562067.883                          35.600          37.700
 121848307.236 6  94946772.78645  90990655.600 7  23186967.047
  23186975.750    23186975.051          36.600          34.600          45.200
 108572073.274 7  84601688.73646  81076610.700 8  20660588.906
  20660597.254    20660595.703          43.000          36.200          51.600
 119369773.107 6  92843178.708 6                  22393470.781    22393469.398
  22393475.918                          37.100          38.400
 113751599.807 7  88637614.66045                  21646201.891
  21646205.086                          44.000          33.200
 115217128.138 5  89613254.187 5                  21568870.188    21568867.879
  21568872.602                          32.800          35.600
 105940199.837 7  82397842.638 7                  19825237.422    19825237.227
  19825241.816                          44.900          45.700
 128505042.519 7                  95961576.138 7  24453697.141
                  24453702.766          43.900                          47.100
 126313267.103 7                  94324856.519 8  24036616.188
                  24036620.531          45.400                          49.800
 119792419.031 5                  89455395.321 6  22795738.555
                  22795742.555          35.100                          41.300
 121028242.922 7                  90378262.310 8  23030906.055
                  23030910.852          45.000                          48.700
 20  8 16  0 15  9.0000000  0 22R01G17G07G08G03R18R24R17G28G11G19R02
                                G30G01R14G22R16R15E36E02E14E30
 122594116.004 5  95351125.868 5                  22933791.922    22933792.133
  22933799.133                          31.200          31.500
 120295172.301 6  93736402.99446                  22891377.781
  22891383.750                          37.400          36.100
 127323758.045 5  99213374.37744                  24228919.711
  24228926.398                          31.800          25.500
 125859287.014 5  98072184.66843  93985835.111 7  23950225.656
  23950235.105    23950234.258          32.900          20.400          45.000
 113915482.053 7  88765413.74247  85066856.776 8  21677408.227
  21677416.000    21677416.941          42.100          44.400          50.200
 112508664.184 6  87506658.385 7                  21076637.352    21076637.207
  21076642.824                          40.000          42.100
 122358842.649 5  95168004.112 5                  22881724.586    22881724.359
  22881728.809                          35.000          34.600
 107205630.103 7  83382048.140 7                  20033906.344    20033904.266
  20033909.297                          43.700          44.500
 111025133.541 7  86513100.89445                  21127373.367
  21127378.254                          42.800          34.200
 115723434.641 6  90174108.13844                  22021434.891
  22021439.961                          39.000          25.600
 128412899.956 5 100062076.94542                  24436179.469
  24436184.102                          30.300          16.900
 120392442.239 6  93638590.606 6                  22561489.875    22561488.699
  22561495.379                          36.000          37.700
 121850823.206 6  94948733.28045  90992534.390 7  23187445.875
  23187454.230    23187453.762          36.600          34.400          45.100
 108574047.056 7  84603226.75346  81078084.641 8  20660964.391
  20660972.801    20660971.227          43.000          36.300          51.600
 119374106.036 6  92846548.764 6                  22394284.367    22394282.383
  22394288.652                          37.700          38.800
 113751337.988 7  88637410.64145                  21646152.039
  21646155.320                          44.100          34.000
 115214631.530 5  89611312.350 5                  21568402.875    21568400.402
  21568405.207                          33.400          35.300
 105941779.793 7  82399071.491 7                  19825533.500    19825533.090
  19825537.281                          45.000          45.500
 128506729.053 7                  95962835.577 7  24454018.039
                  24454023.676          44.200                          47.500
 126315156.638 7                  94326267.536 8  24036975.758
                  24036980.125          45.500                          49.800
 119786382.248 5                  89450887.345 6  22794589.609
                  22794593.844          35.600                          41.200
 121027366.022 7                  90377607.483 8  23030738.813
                  23030744.031          45.400                          48.900
 20  8 16  0 15 10.0000000  0 22R01G17G07G08G03R18R24R17G28G11G19R02
                                G30G01R14G22R16R15E36E02E14E30
 122594663.449 5  95351551.741 5                  22933895.055    22933894.449
  22933901.637                          30.600          31.500
 120293200.927 6  93734866.86746                  22891002.750
  22891008.637                          37.600          36.200
 127326941.460 5  99215854.94144                  24229524.625
  24229532.246                          31.300          26.000
 125861704.820 5  98074068.69143  93987640.585 7  23950685.750
  23950695.102    23950694.219          33.100          20.600          45.100
 113913354.961 7  88763756.26247  85065268.368 8  21677003.578
  21677011.117    21677012.109          42.100          44.700          50.200
 112507179.608 6  87505503.710 6                  21076359.672    21076359.109
  21076364.773                          39.900          41.900
 122361664.548 5  95170198.931 5                  22882253.148    22882251.551
  22882256.586                          34.600          34.400
 107206639.029 7  83382832.852 7                  20034094.758    20034092.844
  20034097.746                          43.900          44.100
 111023439.655 7  86511780.98545                  21127050.992
  21127055.906                          43.500          34.700
 115725946.629 6  90176065.54044                  22021913.219
  22021918.027                          39.300          24.500
 128410132.200 5 100059920.27442                  24435653.156
  24435657.523                          30.800          16.300
 120389386.051 6  93636213.540 6                  22560917.219    22560916.402
  22560922.762                          36.100          37.600
 121853339.377 6  94950693.93245  90994413.380 7  23187924.680
  23187933.059    23187932.453          36.400          34.700          45.000
 108576021.247 7  84604765.08146  81079558.878 8  20661339.828
  20661348.316    20661346.914          43.500          36.300          51.400
 119378439.200 6  92849918.965 6                  22395096.008    22395095.363
  22395101.508                          37.300          38.300
 113751076.801 7  88637207.12545                  21646102.805
  21646105.754                          44.300          33.800
 115212135.570 5  89609371.064 5                  21567934.656    21567933.449
  21567937.883                          33.600          35.600
 105943360.597 7  82400301.010 7                  19825828.836    19825828.512
  19825833.105                          45.000          44.900
 128508415.692 7                  95964095.080 7  24454338.781
                  24454344.645          44.400                          47.700
 126317046.530 7                  94327678.819 8  24037335.242
                  24037339.777          45.500                          49.900
 119780345.546 5                  89446379.418 6  22793441.063
                  22793445.063          35.900                          41.500
 121026489.550 7                  90376952.969 8  23030572.164
                  23030577.289          45.100                          49.100
 20  8 16  0 15 11.0000000  0 22R01G17G07G08G03R18R24R17G28G11G19R02
                                G30G01R14G22R16R15E36E02E14E30
 122595211.777 4  95351978.202 5                  22933997.945    22933997.098
  22934004.145                          29.700          30.900
 120291229.586 6  93733330.75246                  22890627.250
  22890633.336                          38.000          36.200
 127330125.072 5  99218335.68243                  24230131.766
  24230137.922                          31.900          23.500
 125864122.700 5  98075952.74743  93989446.162 7  23951146.055
  23951155.375    23951154.242          33.000          20.100          45.100
 113911228.399 7  88762099.20147  85063680.342 8  21676598.125
  21676606.492    21676607.453          42.600          44.400          50.000
 112505695.274 6  87504349.230 6                  21076082.070    21076081.125
  21076086.707                          39.800          41.900
 122364486.452 5  95172393.700 5                  22882781.828    22882779.555
  22882784.445                          34.800          33.700
 107207648.176 7  83383617.767 7                  20034283.773    20034281.383
  20034286.344                          44.100          44.000
 111021746.203 7  86510461.40745                  21126729.055
  21126733.699                          43.900          34.300
 115728458.743 6  90178023.03244                  22022391.320
  22022395.840                          39.200          24.700
 128407364.374 5 100057763.47742                  24435126.125
  24435130.805                          31.000          16.900
 120386330.180 5  93633836.766 6                  22560344.500    22560343.250
  22560350.266                          35.700          37.200
 121855855.866 6  94952654.83245  90996292.561 7  23188403.750
  23188411.949    23188411.273          37.100          34.700          45.100
 108577995.837 7  84606303.71846  81081033.399 8  20661715.609
  20661724.031    20661722.684          43.200          36.900          51.600
 119382772.539 6  92853289.364 6                  22395910.430    22395908.066
  22395914.531                          37.600          38.500
 113750816.239 7  88637004.09245                  21646052.922
  21646056.109                          43.900          34.200
 115209640.349 5  89607430.363 5                  21567465.805    21567466.383
  21567470.934                          33.100          35.300
 105944942.285 7  82401531.197 7                  19826123.703    19826124.520
  19826129.137                          44.700          45.200
 128510102.406 7                  95965354.630 7  24454660.016
                  24454665.691          44.500                          47.700
 126318936.797 7                  94329090.392 8  24037695.109
                  24037699.457          45.500                          49.800
 119774309.012 5                  89441871.616 6  22792291.766
                  22792296.430          35.500                          41.600
 121025613.510 7                  90376298.788 8  23030405.336
                  23030410.543          45.300                          48.800
 20  8 16  0 15 12.0000000  0 22R01G17G07G08G03R18R24R17G28G11G19R02
                                G30G01R14G22R16R15E36E02E14E30
 122595760.839 5  95352405.273 5                  22934099.625    22934099.953
  22934106.793                          30.500          30.300
 120289258.258 6  93731794.65946                  22890252.344
  22890258.141                          37.600          36.300
 127333308.495 5  99220816.27843                  24230737.719
  24230743.730                          31.600          22.900
 125866540.653 5  98077836.87243  93991251.783 7  23951605.750
  23951615.582    23951614.328          32.600          20.400          45.400
 113909102.305 7  88760442.50247  85062092.680 8  21676194.227
  21676202.039    21676202.914          42.500          44.600          50.100
 112504211.200 6  87503194.965 7                  21075804.078    21075803.184
  21075808.496                          39.600          42.100
 122367308.242 5  95174588.454 5                  22883307.398    22883307.297
  22883312.133                          34.600          34.000
 107208657.533 7  83384402.807 7                  20034472.000    20034470.223
  20034474.879                          44.100          44.400
 111020053.100 7  86509142.11745                  21126407.266
  21126411.563                          43.600          34.600
 115730971.028 6  90179980.67044                  22022869.180
  22022873.957                          39.600          24.200
 128404596.652 5 100055606.83542                  24434598.648
  24434604.098                          30.100          16.300
 120383274.684 6  93631460.263 6                  22559771.586    22559770.496
  22559777.781                          36.100          37.500
 121858372.555 6  94954615.88945  90998171.936 7  23188882.078
  23188890.730    23188890.227          37.300          35.200          45.200
 108579970.782 7  84607842.63546  81082508.203 8  20662091.648
  20662100.117    20662098.539          43.000          36.600          51.300
 119387106.041 6  92856659.839 6                  22396723.344    22396720.871
  22396727.633                          37.900          38.700
 113750556.281 7  88636801.52945                  21646003.617
  21646006.762                          43.400          34.200
 115207145.888 5  89605490.205 5                  21566998.219    21566999.582
  21567004.020                          33.200          35.700
 105946524.715 7  82402762.005 7                  19826420.164    19826420.500
  19826425.309                          45.000          45.100
 128511789.166 7                  95966614.231 7  24454980.797
                  24454986.648          44.400                          47.800
 126320827.403 7                  94330502.215 8  24038054.617
                  24038059.172          45.700                          49.600
 119768272.513 6                  89437363.834 6  22791143.172
                  22791147.727          36.200                          41.700
 121024737.866 7                  90375644.901 8  23030238.648
                  23030243.820          45.500                          48.800
 20  8 16  0 15 13.0000000  0 22R01G17G07G08G03R18R24R17G28G11G19R02
                                G30G01R14G22R16R15E36E02E14E30
 122596310.825 5  95352832.990 5                  22934202.320    22934202.336
  22934209.559                          30.600          30.800
 120287286.996 6  93730258.61045                  22889877.953
  22889883.156                          37.800          35.900
 127336491.965 5  99223296.91343                  24231344.086
  24231349.492                          32.200          22.300
 125868958.727 5  98079721.07443  93993057.494 7  23952065.531
  23952075.684    23952074.449          32.600          21.100          45.100
 113906976.754 7  88758786.22647  85060505.417 8  21675789.766
  21675797.520    21675798.359          42.400          44.500          50.300
 112502727.409 6  87502040.891 7                  21075525.969    21075525.160
  21075530.430                          39.700          42.300
 122370130.003 5  95176783.145 5                  22883835.273    22883835.152
  22883839.863                          34.200          34.600
 107209667.155 7  83385188.075 7                  20034660.141    20034659.094
  20034663.547                          43.600          44.300
 111018360.365 7  86507823.10045                  21126085.164
  21126089.266                          43.200          34.000
 115733483.504 6  90181938.41944                  22023347.969
  22023352.059                          39.000          24.800
 128401828.871 5 100053450.14242                  24434072.328
  24434077.254                          30.800          15.600
 120380219.527 5  93629084.086 6                  22559199.750    22559198.055
  22559205.254                          35.700          37.400
 121860889.572 6  94956577.19945  91000051.498 7  23189361.234
  23189369.648    23189369.199          37.400          34.400          45.600
 108581946.132 7  84609381.87046  81083983.294 8  20662467.398
  20662475.980    20662474.461          43.100          36.600          51.700
 119391439.732 6  92860030.494 6                  22397536.633    22397533.996
  22397540.727                          38.100          38.600
 113750296.947 7  88636599.45045                  21645953.813
  21645957.430                          43.700          34.200
 115204652.084 5  89603550.574 5                  21566531.961    21566533.383
  21566537.273                          33.100          35.600
 105948107.999 7  82403993.431 7                  19826717.305    19826716.828
  19826721.477                          44.900          45.100
 128513476.039 7                  95967873.903 8  24455302.008
                  24455307.684          44.400                          48.000
 126322718.408 7                  94331914.319 8  24038414.438
                  24038419.066          45.900                          49.800
 119762236.152 6                  89432856.165 6  22789994.859
                  22789999.133          36.000                          41.600
 121023862.666 7                  90374991.345 8  23030072.313
                  23030077.426          45.500                          49.000
 20  8 16  0 15 14.0000000  0 22R01G17G07G08G03R18R24R17G28G11G19R02
                                G30G01R14G22R16R15E36E02E14E30
 122596861.577 5  95353261.330 5                  22934306.367    22934305.328
  22934312.617                          31.200          30.400
 120285315.820 6  93728722.62746                  22889502.852
  22889508.039                          37.900          36.000
 127339675.451 5  99225777.54943                  24231950.164
  24231955.285                          31.200          22.900
 125871376.896 5  98081605.35443  93994863.262 7  23952525.773
  23952535.824    23952534.613          33.200          20.600          45.100
 113904851.734 7  88757130.36747  85058918.541 8  21675385.031
  21675393.117    21675393.973          42.000          44.700          50.300
 112501243.895 6  87500887.061 6                  21075248.852    21075247.355
  21075252.719                          39.800          41.900
 122372951.734 5  95178977.850 5                  22884362.563    22884362.816
  22884367.582                          34.000          34.400
 107210676.971 7  83385973.490 7                  20034848.664    20034847.617
  20034852.188                          43.400          44.700
 111016668.023 7  86506504.38745                  21125762.703
  21125767.270                          42.900          34.600
 115735996.145 6  90183896.30944                  22023826.047
  22023830.246                          39.200          24.900
 128399061.178 5 100051293.48942                  24433545.094
  24433550.539                          30.800          15.600
 120377164.839 5  93626708.127 6                  22558627.500    22558625.441
  22558632.762                          35.500          38.100
 121863406.852 6  94958538.71245  91001931.288 7  23189841.109
  23189848.699    23189848.211          37.800          34.900          45.200
 108583921.882 7  84610921.41646  81085458.696 8  20662843.109
  20662851.973    20662850.414          43.400          36.700          51.900
 119395773.682 6  92863401.335 6                  22398349.180    22398347.461
  22398353.824                          38.100          38.900
 113750038.244 7  88636397.86845                  21645904.727
  21645908.180                          43.400          34.300
 115202158.982 5  89601611.499 5                  21566065.281    21566066.664
  21566070.453                          33.600          35.600
 105949692.148 7  82405225.539 7                  19827013.297    19827013.246
  19827018.000                          44.600          45.100
 128515162.999 7                  95969133.645 7  24455623.008
                  24455628.609          44.300                          47.900
 126324609.788 7                  94333326.712 8  24038774.578
                  24038778.980          45.700                          49.300
 119756199.898 6                  89428348.589 6  22788846.414
                  22788850.508          36.000                          41.300
 121022987.911 7                  90374338.113 8  23029906.031
                  23029910.906          45.200                          48.800
 20  8 16  0 15 15.0000000  0 22R01G17G07G08G03R18R24R17G28G11G19R02
                                G30G01R14G22R16R15E36E02E14E30
 122597413.096 5  95353690.314 5                  22934410.539    22934408.617
  22934415.730                          30.700          31.200
 120283344.642 6  93727186.64546                  22889127.688
  22889132.891                          38.300          36.100
 127342858.857 5  99228258.13543                  24232555.039
  24232560.984                          31.600          22.600
 125873795.148 5  98083489.69043  93996669.106 7  23952986.625
  23952996.133    23952994.656          33.000          21.100          45.000
 113902727.165 6  88755474.85747  85057332.029 8  21674981.109
  21674988.809    21674989.703          41.900          44.700          50.200
 112499760.659 6  87499733.424 6                  21074970.445    21074969.633
  21074974.816                          40.100          41.900
 122375773.467 5  95181172.508 5                  22884890.766    22884890.391
  22884895.340                          33.800          34.500
 107211686.999 7  83386759.053 7                  20035037.367    20035036.422
  20035041.090                          43.600          44.100
 111014976.109 7  86505186.01545                  21125441.016
  21125445.164                          43.100          34.600
 115738508.958 6  90185854.35344                  22024304.148
  22024308.438                          39.200          24.800
 128396293.474 5 100049136.85242                  24433019.195
  24433023.883                          31.600          16.300
 120374110.519 5  93624332.627 6                  22558053.922    22558052.816
  22558060.469                          35.700          37.700
 121865924.368 6  94960500.41545  91003811.254 7  23190319.898
  23190327.680    23190327.359          38.000          33.900          45.000
 108585898.009 7  84612461.25246  81086934.367 8  20663219.500
  20663227.996    20663226.535          43.400          37.300          51.800
 119400107.835 6  92866772.339 6                  22399160.586    22399160.676
  22399167.070                          37.800          38.700
 113749780.177 7  88636196.77145                  21645856.109
  21645858.973                          43.500          33.700
 115199666.512 5  89599672.924 5                  21565598.453    21565599.984
  21565603.754                          33.700          35.600
 105951277.132 7  82406458.309 7                  19827309.930    19827309.891
  19827314.637                          44.600          45.600
 128516849.990 7                  95970393.409 7  24455944.070
                  24455949.723          44.400                          47.700
 126326501.526 7                  94334739.363 8  24039134.344
                  24039139.004          45.600                          49.300
 119750163.727 5                  89423841.030 6  22787697.680
                  22787702.078          35.400                          41.600
 121022113.541 7                  90373685.183 8  23029739.359
                  23029744.477          45.300                          48.700
 20  8 16  0 15 16.0000000  0 22R01G17G07G08G03R18R24R17G28G11G19R02
                                G30G01R14G22R16R15E36E02E14E30
 122597965.402 5  95354119.908 5                  22934514.031    22934512.258
  22934518.980                          30.600          30.500
 120281373.491 6  93725650.69346                  22888752.867
  22888757.738                          38.700          36.000
 127346042.284 5  99230738.72443                  24233161.008
  24233166.820                          32.200          23.400
 125876213.481 5  98085374.12043  93998474.992 7  23953446.938
  23953456.238    23953454.891          33.400          21.500          45.100
 113900603.130 6  88753819.76847  85055745.889 8  21674576.578
  21674584.594    21674585.555          41.500          44.700          50.100
 112498277.675 6  87498580.014 6                  21074692.469    21074691.762
  21074696.875                          39.700          41.900
 122378595.108 5  95183367.110 5                  22885418.320    22885417.406
  22885422.988                          34.100          34.400
 107212697.241 7  83387544.814 7                  20035225.898    20035225.227
  20035229.820                          43.900          44.100
 111013284.508 7  86503867.88145                  21125118.695
  21125123.340                          43.700          34.100
 115741021.914 6  90187812.51444                  22024781.930
  22024786.695                          39.300          24.700
 128393525.710 5 100046980.15842                  24432492.734
  24432497.246                          30.800          16.300
 120371056.492 5  93621957.263 6                  22557481.367    22557480.059
  22557488.145                          35.800          37.500
 121868442.164 6  94962462.33845  91005691.415 7  23190798.563
  23190806.785    23190806.629          37.800          34.000          45.100
 108587874.501 7  84614001.37646  81088410.334 8  20663595.344
  20663604.090    20663602.590          43.400          36.200          51.900
 119404442.193 6  92870143.515 6                  22399974.500    22399973.332
  22399980.180                          38.000          39.000
 113749522.692 7  88635996.13945                  21645806.828
  21645809.934                          43.600          34.500
 115197174.776 5  89597734.875 5                  21565133.242    21565133.926
  21565137.430                          33.000          35.300
 105952863.001 7  82407691.748 7                  19827607.313    19827606.516
  19827611.340                          44.900          45.300
 128518537.079 7                  95971653.262 7  24456265.016
                  24456270.730          44.600                          47.600
 126328393.614 7                  94336152.291 8  24039494.688
                  24039498.938          45.700                          49.200
 119744127.637 6                  89419333.589 6  22786549.016
                  22786553.305          36.200                          41.100
 121021239.620 7                  90373032.570 8  23029573.156
                  23029578.160          45.700                          48.800
 20  8 16  0 15 17.0000000  0 22R01G17G07G08G03R18R24R17G28G11G19R02
                                G30G01R14G22R16R15E36E02E14E30
 122598518.618 5  95354550.141 4                  22934617.578    22934615.523
  22934622.527                          30.600          29.600
 120279402.470 6  93724114.83646                  22888377.305
  22888382.578                          38.400          36.300
 127349225.723 5  99233219.31243                  24233767.148
  24233772.695                          31.800          22.900
 125878631.930 5  98087258.61843  94000280.985 7  23953907.258
  23953916.359    23953914.977          33.200          21.100          44.700
 113898479.669 6  88752165.12647  85054160.186 8  21674172.828
  21674180.711    21674181.367          41.900          44.600          50.200
 112496795.056 6  87497426.852 7                  21074414.117    21074413.844
  21074419.063                          39.900          42.100
 122381416.797 5  95185561.745 5                  22885946.133    22885945.832
  22885950.676                          34.900          34.700
 107213707.787 7  83388330.792 7                  20035415.242    20035413.938
  20035418.441                          43.800          44.400
 111011593.390 7  86502550.13445                  21124796.742
  21124801.586                          43.400          34.600
 115743535.052 6  90189770.80744                  22025260.289
  22025264.883                          39.600          24.400
 128390757.986 5 100044823.46542                  24431965.328
  24431970.504                          30.100          15.600
 120368002.958 6  93619582.316 6                  22556909.008    22556908.082
  22556915.895                          36.300          37.700
 121870960.233 6  94964424.47145  91007571.806 7  23191277.836
  23191285.891    23191285.746          38.200          33.700          45.300
 108589851.431 7  84615541.84446  81089886.614 8  20663971.313
  20663980.250    20663978.695          43.400          36.200          51.600
 119408776.780 6  92873514.863 6                  22400786.891    22400786.383
  22400793.277                          37.700          38.500
 113749265.892 7  88635796.03145                  21645757.953
  21645761.094                          43.400          34.800
 115194683.767 5  89595797.419 5                  21564667.352    21564667.270
  21564671.172                          33.600          35.300
 105954449.725 7  82408925.881 7                  19827903.172    19827903.551
  19827908.215                          44.600          45.400
 128520224.289 7                  95972913.183 8  24456585.961
                  24456591.840          44.500                          48.100
 126330286.107 7                  94337565.516 8  24039854.836
                  24039859.242          45.700                          49.200
 119738091.719 6                  89414826.245 6  22785400.383
                  22785404.684          36.100                          40.900
 121020366.161 7                  90372380.313 8  23029406.820
                  23029412.043          45.700                          49.100
 20  8 16  0 15 18.0000000  0 22R01G17G07G08G03R18R24R17G28G11G19R02
                                G30G01R14G22R16R15E36E02E14E30
 122599072.582 5  95354981.033 5                  22934720.953    22934719.438
  22934726.059                          30.800          30.800
 120277431.453 6  93722578.97146                  22888002.773
  22888007.742                          38.400          36.000
 127352409.099 5  99235699.85143                  24234372.000
  24234378.488                          32.800          23.900
 125881050.511 5  98089143.20743  94002087.041 7  23954367.117
  23954376.531    23954375.316          33.300          21.100          44.700
 113896356.664 7  88750510.83847  85052574.844 8  21673769.023
  21673776.633    21673777.379          42.100          44.500          50.200
 112495312.720 6  87496273.900 6                  21074136.750    21074136.297
  21074141.406                          40.000          41.400
 122384238.387 5  95187756.349 5                  22886473.359    22886473.547
  22886478.211                          34.500          34.900
 107214718.558 7  83389116.945 7                  20035604.734    20035602.617
  20035607.391                          43.600          44.200
 111009902.623 7  86501232.64945                  21124474.844
  21124479.793                          43.900          35.000
 115746048.416 6  90191729.26144                  22025738.695
  22025743.125                          40.300          24.900
 128387990.339 5 100042666.86742                  24431438.164
  24431443.734                          30.700          15.600
 120364949.778 6  93617207.577 6                  22556338.922    22556335.953
  22556343.813                          36.300          38.000
 121873478.566 6  94966386.80945  91009452.391 7  23191757.266
  23191765.063    23191765.086          37.500          34.400          45.400
 108591828.749 7  84617082.61845  81091363.178 8  20664348.188
  20664356.543    20664355.023          43.200          35.600          51.900
 119413111.557 6  92876886.353 6                  22401600.789    22401599.715
  22401606.363                          37.200          38.400
 113749009.709 7  88635596.40845                  21645708.898
  21645712.367                          43.400          34.800
 115192193.405 5  89593860.505 5                  21564200.703    21564201.105
  21564204.879                          33.500          35.600
 105956037.272 7  82410160.642 7                  19828201.023    19828200.594
  19828205.387                          44.600          45.300
 128521911.574 7                  95974173.159 7  24456906.984
                  24456912.953          44.400                          47.800
 126332178.980 7                  94338979.030 8  24040214.945
                  24040219.371          45.700                          49.600
 119732055.879 6                  89410318.950 6  22784252.492
                  22784256.000          36.200                          40.800
 121019493.123 7                  90371728.371 8  23029240.805
                  23029245.816          45.400                          49.200
 20  8 16  0 15 19.0000000  0 22R01G17G07G08G03R18R24R17G28G11G19R02
                                G30G01R14G22R16R15E36E02E14E30
 122599627.390 5  95355412.596 5                  22934823.219    22934822.988
  22934829.887                          30.600          30.400
 120275460.517 6  93721043.17746                  22887627.453
  22887632.684                          38.900          36.200
 127355592.538 5  99238180.43744                  24234978.570
  24234984.297                          32.400          24.100
 125883469.211 5  98091027.89043  94003893.203 7  23954827.508
  23954836.895    23954835.453          33.800          21.500          44.700
 113894234.275 7  88748857.02247  85050989.930 8  21673365.125
  21673372.820    21673373.559          42.200          44.500          50.200
 112493830.686 6  87495121.222 6                  21073859.766    21073858.840
  21073863.754                          39.900          41.900
 122387059.942 5  95189950.881 5                  22887001.563    22887001.055
  22887005.848                          34.500          34.400
 107215729.577 7  83389903.281 7                  20035792.383    20035791.617
  20035796.215                          43.100          44.300
 111008212.281 7  86499915.49745                  21124152.594
  21124158.027                          43.500          34.400
 115748561.970 6  90193687.86844                  22026217.820
  22026221.645                          40.300          24.700
 128385222.740 5 100040510.30042                  24430912.273
  24430916.898                          30.500          16.300
 120361896.970 6  93614833.224 6                  22555766.227    22555764.234
  22555771.586                          36.200          37.700
 121875997.242 6  94968349.41145  91011333.197 7  23192236.695
  23192244.398    23192244.441          37.200          33.900          45.700
 108593806.508 7  84618623.72646  81092840.082 8  20664724.609
  20664732.840    20664731.352          43.300          36.100          51.800
 119417446.568 6  92880258.045 6                  22402413.891    22402413.496
  22402419.652                          37.500          38.500
 113748754.163 7  88635397.28145                  21645660.297
  21645663.746                          43.700          35.000
 115189703.833 5  89591924.166 5                  21563736.094    21563735.160
  21563738.711                          33.200          35.500
 105957625.688 7  82411396.070 7                  19828497.594    19828497.824
  19828502.547                          45.000          45.100
 128523598.960 7                  95975433.228 7  24457228.102
                  24457233.938          44.500                          47.600
 126334072.262 7                  94340392.839 8  24040575.188
                  24040579.641          45.700                          49.700
 119726020.205 6                  89405811.796 6  22783103.969
                  22783107.844          36.700                          40.900
 121018620.562 7                  90371076.780 8  23029074.789
                  23029079.820          45.300                          49.300
 20  8 16  0 15 20.0000000  0 22R01G17G07G08G03R18R24R17G28G11G19R02
                                G30G01R14G22R16R15E36E02E14E30
 122600183.058 5  95355844.694 5                  22934927.383    22934927.457
  22934933.801                          31.000          30.100
 120273489.610 6  93719507.40546                  22887252.063
  22887257.629                          38.700          36.200
 127358775.959 5  99240661.02743                  24235584.539
  24235590.035                          31.900          22.500
 125885887.930 5  98092912.63943  94005699.397 7  23955288.047
  23955297.195    23955295.867          33.700          21.500          44.700
 113892112.346 7  88747203.56847  85049405.369 8  21672961.258
  21672969.094    21672969.773          42.400          44.600          50.200
 112492348.859 6  87493968.680 6                  21073582.781    21073580.719
  21073586.191                          39.900          41.600
 122389881.474 5  95192145.388 5                  22887529.719    22887528.316
  22887533.453                          34.100          34.500
 107216740.755 7  83390689.752 7                  20035981.719    20035980.598
  20035985.266                          43.200          44.600
 111006522.306 7  86498598.63845                  21123831.969
  21123836.484                          43.400          34.200
 115751075.630 6  90195646.55943                  22026695.648
  22026700.094                          39.900          23.200
 128382455.09115 100038353.66752                  24430385.859
  24430390.035                          30.300          16.900
 120358844.504 6  93612459.047 6                  22555194.297    22555192.453
  22555199.344                          36.100          37.400
 121878516.088 6  94970312.15145  91013214.176 7  23192716.258
  23192723.617    23192723.727          37.200          33.500          45.400
 108595784.612 7  84620165.10446  81094317.227 8  20665101.094
  20665109.348    20665107.777          43.600          36.100          51.300
 119421781.775 6  92883629.879 6                  22403226.625    22403225.914
  22403232.922                          37.500          38.800
 113748499.193 7  88635198.61145                  21645611.711
  21645615.238                          43.200          34.600
 115187214.896 5  89589988.352 5                  21563269.313    21563269.363
  21563272.656                          33.600          35.800
 105959214.891 7  82412632.119 7                  19828795.594    19828795.465
  19828800.094                          44.500          44.700
 128525286.385 7                  95976693.320 7  24457549.055
                  24457555.055          44.600                          47.400
 126335965.872 7                  94341806.896 8  24040935.469
                  24040939.949          45.700                          49.900
 119719984.573 6                  89401304.686 6  22781955.094
                  22781959.242          36.500                          41.200
 121017748.372 7                  90370425.470 8  23028908.898
                  23028914.000          45.600                          49.400
 20  8 16  0 15 21.0000000  0 22R01G17G07G08G03R18R24R17G28G11G19R02
                                G30G01R14G22R16R15E36E02E14E30
 122600739.354 5  95356277.429 5                  22935032.836    22935031.172
  22935038.012                          30.700          31.000
 120271518.708 6  93717971.63946                  22886876.750
  22886882.391                          38.700          36.100
 127361959.265 5  99243141.53644                  24236189.656
  24236195.758                          32.400          25.000
 125888306.665 5  98094797.35843  94007505.632 7  23955748.180
  23955757.227    23955756.047          33.700          21.500          44.700
 113889990.891 7  88745550.49047  85047821.173 8  21672557.359
  21672565.336    21672566.031          42.300          44.600          50.100
 112490867.301 6  87492816.371 6                  21073304.703    21073303.363
  21073308.578                          40.300          41.800
 122392702.978 5  95194339.881 5                  22888058.680    22888056.426
  22888061.055                          34.300          34.400
 107217752.148 7  83391476.399 7                  20036170.719    20036169.801
  20036174.184                          43.600          44.300
 111004832.684 7  86497282.05245                  21123510.227
  21123515.066                          43.800          34.000
 115753589.474 6  90197605.41644                  22027174.047
  22027178.516                          39.800          24.700
 128379687.413 4 100036197.05942                  24429858.656
  24429863.313                          29.900          17.400
 120355792.348 6  93610085.136 6                  22554622.484    22554620.020
  22554627.285                          36.000          37.400
 121881035.209 6  94972275.10245  91015095.349 7  23193195.414
  23193203.043    23193203.148          37.400          33.800          45.600
 108597763.088 7  84621706.76946  81095794.654 8  20665477.141
  20665485.758    20665484.211          43.200          36.700          51.300
 119426117.206 6  92887001.856 6                  22404041.023    22404039.387
  22404046.250                          37.400          38.700
 113748244.868 7  88635000.43145                  21645563.672
  21645566.738                          43.200          34.700
 115184726.664 5  89588053.036 5                  21562803.172    21562803.023
  21562806.832                          33.200          35.800
 105960804.972 7  82413868.836 7                  19829093.031    19829093.078
  19829097.508                          44.300          44.400
 128526973.898 7                  95977953.476 7  24457870.383
                  24457876.270          44.200                          47.200
 126337859.829 7                  94343221.209 8  24041295.727
                  24041300.469          45.600                          49.700
 119713949.075 6                  89396797.631 6  22780806.305
                  22780810.629          36.500                          41.600
 121016876.596 7                  90369774.477 8  23028742.852
                  23028747.879          45.200                          49.400
 20  8 16  0 15 22.0000000  0 22R01G17G07G08G03R18R24R17G28G11G19R02
                                G30G01R14G22R16R15E36E02E14E30
 122601296.636 5  95356710.867 5                  22935136.578    22935135.906
  22935142.324                          31.500          30.800
 120269547.952 6  93716435.98946                  22886501.227
  22886507.387                          38.400          36.500
 127365142.678 5  99245622.10443                  24236795.391
  24236801.695                          32.000          22.800
 125890725.645 5  98096682.27743  94009311.985 7  23956208.922
  23956217.496    23956216.469          34.300          20.900          44.700
 113887870.056 7  88743897.88747  85046237.418 8  21672153.523
  21672161.758    21672162.473          42.000          44.600          50.000
 112489386.072 6  87491664.316 6                  21073026.594    21073025.684
  21073031.047                          39.900          41.400
 122395524.460 5  95196534.394 5                  22888585.125    22888584.617
  22888588.625                          34.500          34.600
 107218763.875 7  83392263.299 7                  20036358.805    20036358.824
  20036363.215                          43.200          44.800
 111003143.551 7  86495965.84345                  21123188.688
  21123193.707                          44.100          33.700
 115756103.568 6  90199564.44844                  22027651.750
  22027656.910                          40.300          25.100
 128376919.809 5 100034040.46342                  24429332.398
  24429336.777                          30.100          16.900
 120352740.681 6  93607711.628 6                  22554050.414    22554048.656
  22554055.453                          36.500          37.300
 121883554.701 6  94974238.33845  91016976.775 7  23193674.516
  23193682.441    23193682.684          37.200          34.000          45.800
 108599742.026 7  84623248.80546  81097272.440 8  20665853.680
  20665862.160    20665860.793          43.500          36.000          51.400
 119430452.911 6  92890374.066 6                  22404853.516    22404852.879
  22404859.547                          37.100          38.800
 113747991.201 7  88634802.77645                  21645515.500
  21645518.547                          43.200          34.400
 115182239.184 5  89586118.314 6                  21562338.516    21562337.711
  21562341.129                          33.900          36.100
 105962395.977 7  82415106.281 7                  19829391.398    19829390.438
  19829395.133                          44.600          44.600
 128528661.556 7                  95979213.743 7  24458191.531
                  24458197.434          44.500                          47.300
 126339754.222 7                  94344635.863 8  24041656.453
                  24041660.855          45.400                          49.500
 119707913.694 6                  89392290.717 6  22779658.227
                  22779662.082          36.900                          41.700
 121016005.327 7                  90369123.849 8  23028577.109
                  23028582.223          45.500                          49.500
 20  8 16  0 15 23.0000000  0 22R01G17G07G08G03R18R24R17G28G11G19R02
                                G30G01R14G22R16R15E36E02E14E30
 122601854.613 5  95357144.862 5                  22935241.609    22935240.652
  22935246.723                          31.000          30.100
 120267577.213 6  93714900.34746                  22886127.219
  22886132.375                          38.100          36.600
 127368326.019 5  99248102.62243                  24237400.391
  24237407.570                          31.500          23.300
 125893144.673 5  98098567.24743  94011118.409 7  23956668.555
  23956677.820    23956676.898          34.200          20.400          44.500
 113885749.704 7  88742245.67147  85044654.030 8  21671750.516
  21671758.289    21671758.984          42.100          44.700          50.000
 112487905.126 6  87490512.472 6                  21072749.172    21072748.402
  21072753.492                          40.200          41.500
 122398345.880 5  95198728.841 5                  22889113.141    22889112.227
  22889116.133                          34.400          34.400
 107219775.768 7  83393050.349 7                  20036548.875    20036548.043
  20036552.336                          43.200          44.700
 111001454.797 7  86494649.92745                  21122867.297
  21122872.285                          43.900          34.600
 115758617.813 6  90201523.59244                  22028131.023
  22028135.375                          40.300          25.100
 128374152.219 5 100031883.90442                  24428805.977
  24428810.109                          30.100          16.900
 120349689.316 6  93605338.379 6                  22553479.344    22553477.566
  22553483.605                          36.700          37.600
 121886074.398 6  94976201.74445  91018858.375 7  23194155.102
  23194161.832    23194162.355          37.000          33.800          45.600
 108601721.336 7  84624791.11846  81098750.499 8  20666230.461
  20666238.945    20666237.512          43.200          36.400          51.600
 119434788.762 6  92893746.391 6                  22405667.172    22405666.008
  22405673.055                          37.300          39.000
 113747738.164 7  88634605.60245                  21645467.008
  21645470.301                          43.600          34.600
 115179752.337 5  89584184.112 6                  21561872.641    21561872.016
  21561875.754                          33.400          36.000
 105963987.788 7  82416344.375 7                  19829688.758    19829688.461
  19829693.063                          44.500          45.100
 128530349.286 7                  95980474.042 7  24458512.570
                  24458518.586          43.900                          47.000
 126341648.983 7                  94346050.777 8  24042016.750
                  24042021.359          45.600                          49.200
 119701878.438 6                  89387783.849 6  22778509.898
                  22778513.500          36.700                          41.500
 121015134.467 7                  90368473.535 8  23028411.594
                  23028416.469          45.500                          49.200
 20  8 16  0 15 24.0000000  0 22R01G17G07G08G03R18R24R17G28G11G19R02
                                G30G01R14G22R16R15E36E02E14E30
 122602413.435 5  95357579.465 5                  22935346.578    22935344.605
  22935351.191                          31.500          31.100
 120265606.499 6  93713364.72346                  22885752.336
  22885757.352                          38.400          36.500
 127371509.368 5  99250583.15544                  24238006.172
  24238013.520                          31.900          24.200
 125895563.809 5  98100452.27643  94012924.886 7  23957128.797
  23957138.160    23957137.137          33.700          19.900          44.900
 113883629.845 7  88740593.82947  85043071.028 8  21671346.891
  21671355.016    21671355.500          42.200          44.700          49.800
 112486424.448 6  87489360.839 6                  21072472.258    21072470.910
  21072476.102                          40.000          41.800
 122401167.224 5  95200923.233 5                  22889639.906    22889639.824
  22889643.879                          34.900          34.600
 107220787.869 7  83393837.530 7                  20036738.539    20036737.188
  20036741.539                          42.700          44.300
 110999766.402 7  86493334.29845                  21122546.109
  21122550.883                          43.500          34.500
 115761132.194 6  90203482.84544                  22028608.570
  22028613.699                          40.300          24.600
 128371384.660 5 100029727.40542                  24428278.828
  24428283.281                          30.800          17.800
 120346638.356 6  93602965.417 6                  22552905.898    22552905.883
  22552912.008                          36.800          37.200
 121888594.354 6  94978165.34845  91020740.156 7  23194634.109
  23194641.332    23194641.844          37.000          33.800          45.400
 108603701.011 7  84626333.71945  81100228.822 8  20666607.422
  20666615.660    20666614.188          43.300          35.800          51.500
 119439124.782 6  92897118.853 6                  22406479.688    22406479.609
  22406486.555                          37.000          38.900
 113747485.706 7  88634408.87945                  21645418.781
  21645422.324                          43.800          34.700
 115177266.200 5  89582250.438 5                  21561406.227    21561406.418
  21561410.305                          33.200          35.900
 105965580.462 7  82417583.107 7                  19829987.008    19829986.633
  19829991.121                          44.300          44.800
 128532037.053 7                  95981734.410 7  24458834.063
                  24458839.695          44.200                          47.400
 126343544.096 7                  94347465.962 8  24042377.516
                  24042382.098          45.300                          49.400
 119695843.261 6                  89383277.050 6  22777361.234
                  22777365.184          36.200                          41.400
 121014264.029 7                  90367823.516 8  23028245.883
                  23028250.840          45.300                          49.500
 20  8 16  0 15 25.0000000  0 22R01G17G07G08G03R18R24R17G28G11G19R02
                                G30G01R14G22R16R15E36E02E14E30
 122602973.077 5  95358014.722 5                  22935451.211    22935449.094
  22935455.797                          31.200          31.200
 120263635.838 6  93711829.15046                  22885377.305
  22885382.445                          38.300          36.400
 127374692.629 5  99253063.61143                  24238612.172
  24238619.281                          32.200          22.500
 125897982.996 5  98102337.35043  94014731.433 7  23957589.117
  23957598.586    23957597.383          33.700          19.900          45.100
 113881510.463 7  88738942.36247  85041488.391 8  21670943.688
  21670951.688    21670952.371          42.400          44.600          50.100
 112484944.052 6  87488209.406 7                  21072194.328    21072193.707
  21072198.809                          40.200          42.100
 122403988.533 5  95203117.568 5                  22890167.211    22890167.688
  22890171.445                          34.500          34.400
 107221800.220 7  83394624.895 7                  20036927.109    20036926.410
  20036930.570                          43.000          43.900
 110998078.336 7  86492018.91545                  21122224.938
  21122229.688                          43.400          34.100
 115763646.731 6  90205442.22744                  22029087.188
  22029092.238                          39.900          25.400
 128368617.046 5 100027570.82542                  24427752.203
  24427756.539                          31.500          17.800
 120343587.766 6  93600592.727 6                  22552335.656    22552334.043
  22552340.270                          36.400          37.700
 121891114.588 6  94980129.16745  91022622.141 7  23195112.852
  23195120.844    23195121.352          36.900          33.600          45.700
 108605681.059 7  84627876.61645  81101707.436 8  20666984.367
  20666992.516    20666990.941          43.100          35.700          51.500
 119443461.022 6  92900491.475 6                  22407293.813    22407293.301
  22407299.941                          37.200          38.800
 113747233.870 7  88634212.64445                  21645371.039
  21645374.484                          43.900          34.700
 115174780.713 5  89580317.275 5                  21560941.914    21560941.172
  21560944.941                          33.500          35.400
 105967173.964 7  82418822.501 7                  19830284.797    19830284.895
  19830289.309                          44.600          44.800
 128533724.889 7                  95982994.808 7  24459155.000
                  24459160.809          44.200                          47.700
 126345439.535 7                  94348881.399 8  24042738.258
                  24042742.746          44.800                          49.500
 119689808.145 6                  89378770.335 6  22776212.836
                  22776216.734          36.200                          41.400
 121013393.982 7                  90367173.812 8  23028080.227
                  23028085.344          45.700                          49.300
 20  8 16  0 15 26.0000000  0 22R01G17G07G08G03R18R24R17G28G11G19R02
                                G30G01R14G22R16R15E36E02E14E30
 122603533.580 5  95358450.671 5                  22935553.867    22935554.219
  22935560.813                          30.900          31.000
 120261665.299 6  93710293.65646                  22885002.000
  22885007.406                          37.900          36.200
 127377876.036 5  99255544.18243                  24239218.211
  24239224.969                          32.500          22.800
 125900402.356 5  98104222.57043  94016538.111 7  23958049.219
  23958058.848    23958058.039          33.800          19.900          45.300
 113879391.742 7  88737291.41347  85039906.215 8  21670540.398
  21670548.586    21670549.211          42.400          44.500          50.200
 112483464.013 6  87487058.268 7                  21071918.281    21071916.594
  21071921.656                          40.400          42.100
 122406809.934 5  95205311.988 5                  22890693.414    22890695.215
  22890699.051                          34.400          34.400
 107222812.872 7  83395412.524 7                  20037116.555    20037115.707
  20037119.828                          43.000          44.000
 110996390.809 7  86490703.96445                  21121903.758
  21121908.715                          43.500          34.400
 115766161.553 6  90207401.83044                  22029566.109
  22029570.805                          40.200          26.200
 128365849.507 5 100025414.26942                  24427225.750
  24427229.945                          31.300          16.900
 120340537.602 6  93598220.351 6                  22551765.234    22551762.324
  22551768.844                          36.700          37.300
 121893635.180 6  94982093.26345  91024504.375 7  23195592.852
  23195600.414    23195601.324          37.100          33.900          45.800
 108607661.597 7  84629419.89746  81103186.407 8  20667361.266
  20667369.527    20667367.879          43.000          36.300          51.400
 119447797.550 6  92903864.345 6                  22408107.750    22408106.832
  22408113.465                          37.300          38.400
 113746982.727 7  88634016.95145                  21645323.336
  21645326.730                          43.600          35.100
 115172296.091 5  89578384.814 5                  21560476.078    21560476.188
  21560479.754                          33.200          35.200
 105968768.365 7  82420062.598 7                  19830583.836    19830583.145
  19830587.715                          44.900          45.200
 128535412.920 7                  95984255.350 7  24459476.109
                  24459482.039          44.200                          47.700
 126347335.460 7                  94350297.182 8  24043098.953
                  24043103.473          44.900                          49.400
 119683773.267 6                  89374263.787 6  22775064.273
                  22775068.477          36.300                          41.600
 121012524.461 7                  90366524.503 8  23027914.828
                  23027919.855          45.600                          48.900
 20  8 16  0 15 27.0000000  0 22R01G17G07G08G03R18R24R17G28G11G19R02
                                G30G01R14G22R16R15E36E02E14E30
 122604094.817 5  95358887.248 4                  22935659.461    22935659.219
  22935665.820                          31.500          29.600
 120259694.747 6  93708758.17446                  22884626.398
  22884632.371                          38.300          36.100
 127381059.384 5  99258024.72643                  24239823.781
  24239830.762                          31.900          22.900
 125902821.808 5  98106107.85543  94018344.850 7  23958509.625
  23958519.285    23958518.367          33.500          20.100          45.100
 113877273.489 7  88735640.82447  85038324.392 8  21670137.625
  21670145.477    21670146.031          42.400          44.600          50.100
 112481984.205 6  87485907.323 7                  21071639.742    21071639.227
  21071644.578                          40.300          42.300
 122409631.262 5  95207506.339 5                  22891221.445    22891222.434
  22891226.625                          34.700          34.700
 107223825.700 7  83396200.266 7                  20037304.875    20037305.137
  20037309.094                          43.400          44.000
 110994703.620 7  86489389.26345                  21121583.305
  21121587.594                          43.500          33.800
 115768676.493 6  90209361.52543                  22030045.055
  22030049.363                          39.700          23.400
 128363081.980 5 100023257.78842                  24426698.977
  24426703.277                          31.000          15.600
 120337487.840 6  93595848.298 6                  22551194.961    22551190.754
  22551197.250                          36.700          37.400
 121896155.983 6  94984057.52245  91026386.812 7  23196072.484
  23196080.086    23196081.059          37.500          33.500          45.900
 108609642.484 7  84630963.44745  81104665.641 8  20667737.977
  20667746.566    20667744.824          42.600          35.900          51.400
 119452134.274 6  92907237.331 6                  22408921.133    22408920.559
  22408927.074                          37.200          38.600
 113746732.201 7  88633821.73445                  21645275.477
  21645279.031                          43.800          35.000
 115169812.094 5  89576452.833 5                  21560010.688    21560010.598
  21560014.664                          33.300          35.600
 105970363.553 7  82421303.294 7                  19830881.984    19830881.594
  19830886.199                          44.600          45.500
 128537100.984 7                  95985515.914 7  24459797.336
                  24459803.316          44.400                          47.300
 126349231.717 7                  94351713.221 8  24043459.852
                  24043464.336          45.600                          49.500
 119677738.481 6                  89369757.260 6  22773915.820
                  22773920.234          36.000                          41.800
 121011655.341 7                  90365875.483 8  23027749.398
                  23027754.414          45.300                          49.200
 20  8 16  0 15 28.0000000  0 22R01G17G07G08G03R18R24R17G28G11G19R02
                                G30G01R14G22R16R15E36E02E14E30
 122604656.921 5  95359324.436 5                  22935764.891    22935764.375
  22935770.949                          31.300          30.300
 120257724.260 6  93707222.71846                  22884251.680
  22884257.363                          38.300          36.300
 127384242.640 5  99260505.17843                  24240429.563
  24240436.598                          31.800          23.200
 125905241.336 5  98107993.17343  94020151.641 7  23958970.719
  23958979.773    23958978.824          33.200          20.100          44.700
 113875155.729 7  88733990.62247  85036742.952 8  21669734.531
  21669742.410    21669743.250          42.300          44.600          50.000
 112480504.680 6  87484756.568 7                  21071362.375    21071361.910
  21071367.320                          40.300          42.500
 122412452.491 5  95209700.644 5                  22891750.523    22891750.609
  22891754.078                          35.100          35.000
 107224838.731 7  83396988.176 7                  20037495.273    20037494.340
  20037498.539                          43.400          44.100
 110993016.781 7  86488074.85345                  21121261.484
  21121266.535                          43.700          34.000
 115771191.595 6  90211321.34044                  22030523.141
  22030528.086                          38.700          24.500
 128360314.482 5 100021101.26942                  24426172.250
  24426176.555                          31.200          15.600
 120334438.372 6  93593476.519 6                  22550621.125    22550619.133
  22550625.660                          36.500          37.500
 121898677.027 6  94986021.96345  91028269.399 7  23196551.625
  23196559.871    23196560.918          36.900          33.300          45.900
 108611623.746 7  84632507.28946  81106145.161 8  20668114.961
  20668123.500    20668121.773          42.800          36.100          51.400
 119456471.160 6  92910610.482 6                  22409735.258    22409734.016
  22409740.684                          37.300          38.700
 113746482.278 7  88633626.98945                  21645228.188
  21645231.551                          43.300          34.700
 115167328.782 5  89574521.379 6                  21559547.500    21559545.781
  21559549.953                          32.900          36.000
 105971959.578 7  82422544.650 7                  19831180.578    19831180.254
  19831184.926                          45.100          45.900
 128538789.103 7                  95986776.518 7  24460118.758
                  24460124.492          44.700                          47.300
 126351128.329 7                  94353129.519 8  24043820.695
                  24043825.273          45.300                          49.900
 119671703.754 5                  89365250.818 6  22772767.203
                  22772771.793          35.800                          41.400
 121010786.639 7                  90365226.781 8  23027584.180
                  23027589.145          45.300                          49.200
 20  8 16  0 15 29.0000000  0 22R01G17G07G08G03R18R24R17G28G11G19R02
                                G30G01R14G22R16R15E36E02E14E30
 122605219.852 5  95359762.265 4                  22935870.344    22935869.801
  22935876.297                          31.500          29.900
 120255753.864 6  93705687.34846                  22883876.672
  22883882.453                          38.800          36.400
 127387425.973 5  99262985.69643                  24241034.844
  24241042.512                          32.800          23.800
 125907661.066 5  98109878.69443  94021958.559 7  23959431.172
  23959440.188    23959439.398          33.300          20.100          44.900
 113873038.554 7  88732340.87447  85035161.938 8  21669331.648
  21669339.559    21669340.176          42.400          44.800          49.900
 112479025.498 6  87483606.107 7                  21071085.000    21071085.012
  21071090.270                          39.800          42.800
 122415273.793 5  95211894.978 5                  22892277.977    22892277.570
  22892281.551                          34.600          34.800
 107225852.060 7  83397776.333 7                  20037685.281    20037683.809
  20037687.828                          43.600          44.000
 110991330.433 7  86486760.81345                  21120941.063
  21120945.652                          43.100          34.600
 115773706.919 6  90213281.32844                  22031002.031
  22031006.797                          39.000          24.800
 128357547.092 5 100018944.85242                  24425645.555
  24425649.977                          31.000          16.900
 120331389.395 6  93591105.111 6                  22550049.617    22550047.957
  22550054.133                          36.200          37.100
 121901198.378 6  94987986.65645  91030152.265 7  23197031.617
  23197039.836    23197040.801          37.700          33.400          45.500
 108613605.468 7  84634051.49246  81107625.010 8  20668492.125
  20668500.648    20668498.953          42.900          36.600          51.400
 119460808.347 6  92913983.864 6                  22410547.773    22410547.945
  22410554.359                          37.300          38.600
 113746233.020 7  88633432.76245                  21645180.477
  21645183.973                          43.600          35.500
 115164846.201 5  89572590.448 6                  21559082.656    21559080.750
  21559085.277                          33.000          36.000
 105973556.537 7  82423786.723 7                  19831479.219    19831479.156
  19831483.621                          45.000          45.600
 128540477.366 7                  95988037.237 7  24460440.086
                  24460445.699          44.300                          47.300
 126353025.376 7                  94354546.132 8  24044181.820
                  24044186.234          45.500                          50.100
 119665669.201 6                  89360744.490 6  22771618.766
                  22771623.336          36.800                          41.000
 121009918.423 7                  90364578.441 8  23027418.922
                  23027423.926          45.300                          49.200
 20  8 16  0 15 30.0000000  0 22R01G17G07G08G03R18R24R17G28G11G19R02
                                G30G01R14G22R16R15E36E02E14E30
 122605783.551 5  95360200.700 5                  22935973.789    22935975.922
  22935981.582                          31.600          30.700
 120253783.417 6  93704151.93246                  22883501.516
  22883507.602                          38.900          36.200
 127390609.215 5  99265466.13744                  24241641.148
  24241648.285                          31.600          24.000
 125910080.781 5  98111764.19443  94023765.484 7  23959891.703
  23959900.609    23959899.820          33.800          20.600          44.900
 113870921.801 6  88730691.45447  85033581.264 8  21668928.336
  21668936.719    21668937.438          41.800          44.700          50.000
 112477546.512 6  87482455.790 7                  21070807.766    21070807.879
  21070813.355                          40.000          42.400
 122418094.969 5  95214089.234 5                  22892806.383    22892805.066
  22892808.949                          34.100          35.100
 107226865.570 7  83398564.621 7                  20037873.430    20037873.012
  20037877.242                          43.400          44.100
 110989644.393 7  86485447.01345                  21120620.797
  21120624.883                          43.200          34.400
 115776222.368 6  90215241.41344                  22031480.844
  22031485.402                          38.800          24.100
 128354779.515 5 100016788.28942                  24425118.953
  24425123.320                          30.800          17.400
 120328340.734 6  93588733.854 6                  22549478.492    22549476.262
  22549482.793                          36.400          37.200
 121903719.940 6  94989951.51345  91032035.234 7  23197511.516
  23197519.508    23197520.531          37.100          33.700          45.400
 108615587.492 7  84635595.92246  81109105.097 8  20668869.008
  20668877.766    20668875.992          42.800          36.800          51.300
 119465145.676 6  92917357.308 6                  22411361.383    22411361.863
  22411368.016                          37.100          38.800
 113745984.332 7  88633238.97945                  21645133.305
  21645136.684                          43.600          35.200
 115162364.224 5  89570660.041 5                  21558617.406    21558616.105
  21558620.746                          33.300          35.600
 105975154.277 7  82425029.408 7                  19831779.086    19831778.406
  19831782.695                          44.900          45.300
 128542165.632 7                  95989297.956 7  24460761.156
                  24460766.996          43.900                          47.400
 126354922.690 7                  94355962.970 8  24044542.805
                  24044547.328          45.300                          49.800
 119659634.651 6                  89356238.198 6  22770470.711
                  22770474.918          37.100                          41.100
 121009050.557 7                  90363930.360 8  23027253.789
                  23027258.773          45.600                          49.300
 20  8 16  0 15 31.0000000  0 22R01G17G07G08G03R18R24R17G28G11G19R02
                                G30G01R14G22R16R15E36E02E14E30
 122606348.074 5  95360639.749 5                  22936080.695    22936081.379
  22936087.277                          31.100          30.600
 120251813.069 6  93702616.59546                  22883127.273
  22883132.535                          38.500          36.000
 127393792.471 5  99267946.58443                  24242247.273
  24242253.902                          31.200          22.500
 125912500.679 5  98113649.81243  94025572.504 7  23960351.766
  23960361.016    23960360.234          34.100          19.600          44.600
 113868805.602 6  88729042.46847  85032000.985 8  21668525.484
  21668534.039    21668534.789          41.800          44.600          50.000
 112476067.863 6  87481305.703 7                  21070532.328    21070530.891
  21070536.383                          39.400          42.300
 122420916.087 5  95216283.444 5                  22893333.391    22893332.648
  22893336.566                          33.300          35.100
 107227879.312 7  83399353.088 7                  20038063.305    20038062.480
  20038066.715                          43.600          44.200
 110987958.750 7  86484133.52745                  21120299.305
  21120304.215                          43.400          34.500
 115778737.987 6  90217201.63844                  22031959.117
  22031964.063                          39.200          24.400
 128352012.032 5 100014631.83242                  24424592.859
  24424596.879                          32.200          17.800
 120325292.376 6  93586362.940 6                  22548906.547    22548905.141
  22548911.465                          36.400          36.600
 121906241.848 6  94991916.63645  91033918.436 7  23197991.086
  23197999.195    23198000.500          37.200          33.900          45.400
 108617569.933 7  84637140.68146  81110585.495 8  20669246.289
  20669254.859    20669253.316          43.100          36.800          51.300
 119469483.163 6  92920730.943 6                  22412175.961    22412175.336
  22412181.711                          37.500          38.700
 113745736.289 7  88633045.69245                  21645086.594
  21645089.340                          43.500          34.900
 115159883.036 5  89568730.198 5                  21558152.719    21558151.891
  21558156.285                          33.300          35.600
 105976752.869 7  82426272.765 7                  19832078.063    19832077.734
  19832081.809                          44.900          45.500
 128543854.025 7                  95990558.760 7  24461082.719
                  24461088.301          43.700                          47.200
 126356820.437 7                  94357380.108 8  24044903.844
                  24044908.422          45.500                          49.800
 119653600.274 6                  89351732.005 6  22769322.172
                  22769326.902          36.300                          41.500
 121008183.169 7                  90363282.614 8  23027088.703
                  23027093.598          45.300                          49.400
 20  8 16  0 15 32.0000000  0 22R01G17G07G08G03R18R24R17G28G11G19R02
                                G30G01R14G22R16R15E36E02E14E30
 122606913.412 5  95361079.470 5                  22936185.875    22936187.090
  22936193.055                          31.400          30.800
 120249842.778 6  93701081.30346                  22882752.289
  22882757.613                          38.300          36.100
 127396975.695 5  99270427.03643                  24242853.023
  24242859.633                          31.300          23.900
 125914920.641 5  98115535.50343  94027379.629 7  23960812.398
  23960821.695    23960820.930          34.300          20.100          45.000
 113866689.951 6  88727393.91447  85030421.108 8  21668122.898
  21668131.340    21668132.141          41.700          44.700          49.900
 112474589.503 6  87480155.883 7                  21070254.383    21070254.020
  21070259.496                          39.500          42.300
 122423737.180 5  95218477.609 5                  22893861.148    22893860.223
  22893864.117                          33.900          34.700
 107228893.277 7  83400141.721 7                  20038253.289    20038251.828
  20038256.086                          43.600          43.800
 110986273.493 7  86482820.34945                  21119979.133
  21119983.426                          43.100          34.600
 115781253.813 6  90219162.01944                  22032437.594
  22032442.816                          38.900          24.700
 128349244.530 5 100012475.30342                  24424066.828
  24424070.359                          31.600          16.900
 120322244.427 6  93583992.372 6                  22548335.133    22548333.336
  22548340.328                          36.200          37.000
 121908763.971 6  94993881.92945  91035801.856 7  23198470.570
  23198479.215    23198480.563          36.900          34.000          45.500
 108619552.776 7  84638685.75446  81112066.191 8  20669624.148
  20669632.195    20669630.641          43.400          36.000          51.200
 119473820.906 6  92924104.727 6                  22412990.453    22412988.809
  22412995.250                          37.500          38.900
 113745488.865 7  88632852.89545                  21645039.664
  21645042.254                          43.700          35.300
 115157402.545 5  89566800.977 5                  21557687.992    21557687.191
  21557691.859                          33.100          35.600
 105978352.273 7  82427516.755 7                  19832377.703    19832377.043
  19832381.270                          44.700          45.200
 128545542.484 7                  95991819.634 7  24461403.805
                  24461409.734          43.600                          47.300
 126358718.549 7                  94358797.535 8  24045265.023
                  24045269.668          45.400                          49.800
 119647566.011 6                  89347225.870 6  22768173.969
                  22768178.320          36.700                          41.500
 121007316.200 7                  90362635.215 8  23026923.680
                  23026928.648          45.000                          49.000
 20  8 16  0 15 33.0000000  0 22R01G17G07G08G03R18R24R17G28G11G19R02
                                G30G01R14G22R16R15E36E02E14E30
 122607479.581 5  95361519.802 5                  22936292.438    22936292.840
  22936298.969                          30.600          30.700
 120247872.520 6  93699546.03346                  22882376.797
  22882382.664                          38.300          36.200
 127400158.983 5  99272907.50443                  24243459.094
  24243465.480                          31.500          22.500
 125917340.682 5  98117421.22443  94029186.829 7  23961273.023
  23961282.188    23961281.504          33.800          20.400          45.300
 113864574.807 7  88725745.74947  85028841.613 8  21667721.305
  21667728.934    21667729.727          42.000          44.700          50.000
 112473111.400 6  87479006.246 7                  21069977.188    21069977.270
  21069982.672                          39.400          42.600
 122426558.258 5  95220671.788 5                  22894387.859    22894387.141
  22894391.660                          33.900          34.700
 107229907.477 7  83400930.534 7                  20038442.523    20038441.582
  20038445.648                          43.700          44.100
 110984588.672 7  86481507.49845                  21119658.086
  21119662.691                          42.900          34.100
 115783769.792 6  90221122.53744                  22032916.383
  22032921.543                          39.200          24.600
 128346477.091 5 100010318.89642                  24423540.570
  24423543.594                          32.000          16.900
 120319196.870 6  93581621.919 6                  22547763.625    22547762.230
  22547769.219                          36.000          37.400
 121911286.378 6  94995847.42845  91037685.485 7  23198951.070
  23198959.250    23198960.773          36.100          32.700          45.600
 108621536.033 7  84640231.15446  81113547.187 8  20670000.922
  20670009.656    20670007.980          42.900          36.000          51.400
 119478158.873 6  92927478.696 6                  22413804.750    22413802.570
  22413809.047                          36.800          38.800
 113745242.079 7  88632660.59445                  21644992.531
  21644995.297                          43.900          34.200
 115154922.790 5  89564872.253 5                  21557222.977    21557223.031
  21557227.656                          33.400          35.500
 105979952.561 7  82428761.411 7                  19832677.227    19832676.527
  19832680.734                          44.600          45.500
 128547231.062 7                  95993080.576 7  24461725.195
                  24461730.965          43.800                          47.400
 126360617.047 7                  94360215.235 8  24045626.328
                  24045630.906          45.600                          49.800
 119641531.839 6                  89342719.871 6  22767025.398
                  22767030.113          36.400                          41.600
 121006449.674 7                  90361988.128 8  23026758.859
                  23026763.848          45.500                          49.000
 20  8 16  0 15 34.0000000  0 22R01G17G07G08G03R18R24R17G28G11G19R02
                                G30G01R14G22R16R15E36E02E14E30
 122608046.468 5  95361960.705 5                  22936397.695    22936398.406
  22936405.117                          30.300          30.000
 120245902.332 6  93698010.82446                  22882002.492
  22882007.711                          38.600          36.000
 127403342.156 5  99275387.90143                  24244064.672
  24244071.148                          31.300          22.300
 125919760.820 5  98119307.08843  94030994.064 7  23961733.773
  23961742.789    23961741.914          34.000          20.900          44.800
 113862460.137 6  88724097.95647  85027262.499 8  21667318.945
  21667326.480    21667327.238          41.800          44.700          50.200
 112471633.538 6  87477856.819 7                  21069700.102    21069700.234
  21069705.895                          39.800          42.700
 122429379.303 5  95222865.927 5                  22894915.961    22894914.629
  22894919.207                          33.800          35.100
 107230921.870 7  83401719.524 7                  20038631.961    20038630.820
  20038635.195                          43.700          44.000
 110982904.194 7  86480194.90945                  21119338.078
  21119342.152                          43.300          34.700
 115786285.929 6  90223083.15144                  22033395.031
  22033400.285                          38.800          25.300
 128343709.621 5 100008162.37342                  24423013.531
  24423016.727                          31.000          17.400
 120316149.607 5  93579251.934 6                  22547193.727    22547191.066
  22547198.137                          35.400          37.100
 121913809.036 6  94997813.14045  91039569.285 7  23199431.195
  23199439.227    23199440.711          36.300          33.200          46.100
 108623519.626 7  84641776.81146  81115028.447 8  20670378.539
  20670387.242    20670385.523          42.600          36.100          51.400
 119482497.009 6  92930852.821 6                  22414616.898    22414616.945
  22414622.742                          37.300          38.200
 113744995.904 7  88632468.77245                  21644945.594
  21644948.512                          43.900          35.000
 115152443.641 5  89562944.052 6                  21556758.703    21556759.113
  21556763.477                          33.100          36.000
 105981553.682 7  82430006.737 7                  19832976.273    19832976.398
  19832980.297                          44.900          45.200
 128548919.672 7                  95994341.553 7  24462046.422
                  24462052.148          44.000                          47.500
 126362515.876 7                  94361633.201 8  24045987.695
                  24045992.289          45.500                          49.900
 119635497.799 6                  89338213.904 6  22765877.352
                  22765881.879          36.200                          41.100
 121005583.539 7                  90361341.351 8  23026594.141
                  23026599.039          45.700                          48.900
 20  8 16  0 15 35.0000000  0 22R01G17G07G08G03R18R24R17G28G11G19R02
                                G30G01R14G22R16R15E36E02E14E30
 122608614.240 5  95362402.353 5                  22936503.234    22936505.063
  22936511.359                          30.700          30.700
 120243932.204 6  93696475.66746                  22881627.234
  22881632.809                          38.000          36.300
 127406525.391 5  99277868.34543                  24244670.898
  24244677.059                          31.300          22.300
 125922181.120 5  98121193.02443  94032801.419 7  23962194.594
  23962203.500    23962202.410          34.500          20.400          44.900
 113860346.078 6  88722450.64247  85025683.808 8  21666915.945
  21666924.141    21666925.016          41.300          44.700          49.900
 112470156.041 6  87476707.620 7                  21069424.820    21069423.164
  21069429.059                          39.700          43.100
 122432200.374 5  95225060.097 5                  22895443.203    22895442.316
  22895446.703                          33.000          34.900
 107231936.543 7  83402508.714 7                  20038821.703    20038820.445
  20038824.816                          43.800          44.100
 110981220.194 7  86478882.71245                  21119017.117
  21119021.668                          42.800          34.900
 115788802.305 6  90225043.96344                  22033874.078
  22033879.340                          38.700          24.700
 128340942.264 5 100006006.01842                  24422486.625
  24422490.203                          30.800          16.900
 120313102.827 5  93576882.212 6                  22546623.797    22546619.902
  22546627.199                          35.600          37.400
 121916332.003 6  94999779.09345  91041453.316 7  23199911.195
  23199919.184    23199920.883          37.100          32.700          45.900
 108625503.690 7  84643322.83646  81116510.053 8  20670756.047
  20670764.742    20670762.934          42.500          36.100          51.900
 119486835.429 6  92934227.115 6                  22415430.422    22415430.027
  22415436.684                          37.200          38.300
 113744750.418 7  88632277.48645                  21644898.813
  21644901.754                          43.700          34.800
 115149965.275 5  89561016.397 5                  21556294.508    21556295.012
  21556299.527                          33.000          35.600
 105983155.738 7  82431252.769 7                  19833275.789    19833275.965
  19833280.090                          45.100          45.000
 128550608.421 7                  95995602.629 7  24462367.758
                  24462373.805          43.900                          47.300
 126364415.146 7                  94363051.486 8  24046349.180
                  24046353.605          45.500                          49.900
 119629463.878 5                  89333708.059 6  22764729.484
                  22764733.656          35.900                          41.400
 121004717.894 7                  90360694.929 8  23026429.188
                  23026434.324          45.900                          49.000
 20  8 16  0 15 36.0000000  0 22R01G17G07G08G03R18R24R17G28G11G19R02
                                G30G01R14G22R16R15E36E02E14E30
 122609182.808 5  95362844.516 4                  22936611.086    22936611.141
  22936617.559                          30.800          29.300
 120241962.104 6  93694940.52746                  22881252.938
  22881257.910                          38.300          36.500
 127409708.547 5  99280348.74143                  24245277.172
  24245282.777                          31.500          22.000
 125924601.422 5  98123078.94943  94034608.825 7  23962654.266
  23962664.348    23962663.125          34.600          20.400          45.300
 113858232.502 6  88720803.69647  85024105.483 8  21666513.969
  21666521.879    21666522.703          41.900          44.600          50.200
 112468678.777 6  87475558.652 7                  21069147.695    21069146.863
  21069152.371                          39.700          42.700
 122435021.337 5  95227254.190 5                  22895970.883    22895969.934
  22895974.316                          32.800          35.300
 107232951.432 7  83403298.073 7                  20039011.633    20039010.406
  20039014.496                          43.900          44.200
 110979536.541 7  86477570.76945                  21118696.477
  21118701.363                          43.000          34.800
 115791318.822 6  90227004.88244                  22034353.547
  22034358.207                          39.000          25.100
 128338174.850 5 100003849.59442                  24421959.281
  24421963.488                          30.300          16.900
 120310056.431 5  93574512.815 6                  22546050.078    22546049.012
  22546056.293                          35.900          36.800
 121918855.235 6  95001745.24545  91043337.535 7  23200390.750
  23200399.160    23200401.086          36.500          33.400          45.500
 108627488.107 7  84644869.13746  81117991.928 8  20671133.859
  20671142.473    20671140.645          42.700          36.400          51.800
 119491174.017 6  92937601.575 6                  22416245.133    22416244.320
  22416250.691                          37.200          38.500
 113744505.500 7  88632086.63645                  21644852.844
  21644855.281                          43.600          34.600
 115147487.590 5  89559089.302 5                  21555831.484    21555831.016
  21555835.645                          33.400          35.900
 105984758.585 7  82432499.439 7                  19833577.164    19833575.898
  19833580.133                          45.100          45.300
 128552297.225 7                  95996863.763 7  24462689.203
                  24462695.066          44.000                          47.200
 126366314.756 7                  94364470.012 8  24046710.359
                  24046715.164          45.300                          49.200
 119623430.098 6                  89329202.304 6  22763581.195
                  22763585.336          36.500                          41.300
 121003852.666 7                  90360048.812 8  23026264.500
                  23026269.559          45.600                          49.100
 20  8 16  0 15 37.0000000  0 22R01G17G07G08G03R18R24R17G28G11G19R02
                                G30G01R14G22R16R15E36E02E14E30
 122609752.128 5  95363287.373 4                  22936718.211    22936717.707
  22936723.867                          30.300          29.500
 120239992.088 6  93693405.44746                  22880877.742
  22880883.133                          38.300          36.000
 127412891.849 5  99282829.22043                  24245881.797
  24245888.535                          31.300          22.000
 125927021.903 5  98124965.05743  94036416.322 7  23963114.867
  23963125.066    23963123.672          34.800          20.600          45.300
 113856119.451 6  88719157.16347  85022527.562 8  21666111.703
  21666119.801    21666120.633          41.600          44.500          50.200
 112467201.867 6  87474409.932 7                  21068870.477    21068869.867
  21068875.621                          40.100          42.400
 122437842.308 5  95229448.232 5                  22896498.078    22896497.949
  22896501.914                          33.200          35.000
 107233966.571 7  83404087.630 7                  20039200.500    20039200.137
  20039204.242                          43.500          44.500
 110977853.265 7  86476259.12645                  21118376.453
  21118381.172                          42.900          34.100
 115793835.497 6  90228965.92344                  22034832.063
  22034837.074                          39.200          25.000
 128335407.436 5 100001693.17242                  24421433.141
  24421436.871                          30.800          16.300
 120307010.441 5  93572143.629 6                  22545480.578    22545478.223
  22545485.488                          35.900          36.500
 121921378.711 5  95003711.58645  91045221.962 7  23200871.531
  23200879.395    23200881.402          35.700          33.100          45.800
 108629472.944 7  84646415.76046  81119474.117 8  20671511.930
  20671519.980    20671518.375          42.400          36.100          51.500
 119495512.805 6  92940976.205 6                  22417059.469    22417058.273
  22417064.629                          37.300          38.600
 113744261.248 7  88631896.31145                  21644805.578
  21644808.766                          43.700          35.200
 115145010.616 5  89557162.781 5                  21555369.367    21555367.922
  21555371.949                          34.000          35.400
 105986362.283 7  82433746.732 7                  19833875.922    19833875.902
  19833880.227                          45.000          45.200
 128553986.137 7                  95998124.960 7  24463010.625
                  24463016.332          44.200                          47.300
 126368214.761 7                  94365888.854 8  24047071.945
                  24047076.797          45.600                          49.300
 119617396.393 6                  89324696.633 6  22762433.453
                  22762437.188          36.300                          41.000
 121002987.894 7                  90359403.032 8  23026100.000
                  23026105.063          45.300                          49.200
 20  8 16  0 15 38.0000000  0 22R01G17G07G08G03R18R24R17G28G11G19R02
                                G30G01R14G22R16R15E36E02E14E30
 122610322.323 5  95363730.845 5                  22936824.711    22936824.262
  22936830.523                          30.300          30.700
 120238022.087 6  93691870.38245                  22880502.656
  22880508.125                          38.800          35.900
 127416074.920 5  99285309.51743                  24246486.781
  24246494.285                          31.000          22.800
 125929442.464 5  98126851.20343  94038223.861 7  23963575.211
  23963585.535    23963584.137          34.500          21.300          45.000
 113854006.902 6  88717511.02047  85020950.011 8  21665710.297
  21665717.688    21665718.574          41.500          44.500          50.200
 112465725.171 6  87473261.416 7                  21068594.703    21068592.957
  21068598.977                          40.000          42.200
 122440663.206 5  95231642.278 5                  22897025.977    22897025.594
  22897029.563                          33.600          35.300
 107234981.930 7  83404877.346 7                  20039391.133    20039389.418
  20039394.051                          43.700          44.100
 110976170.422 7  86474947.82145                  21118056.398
  21118060.895                          42.900          34.900
 115796352.377 6  90230927.12944                  22035311.070
  22035315.969                          39.100          25.700
 128332640.060 5  99999536.78142                  24420907.281
  24420910.465                          31.600          17.400
 120303964.807 6  93569774.853 6                  22544909.578    22544907.465
  22544914.898                          36.500          36.900
 121923902.499 5  95005678.18745  91047106.601 7  23201352.602
  23201359.660    23201361.664          35.500          33.600          45.800
 108631458.166 7  84647962.68446  81120956.573 8  20671889.672
  20671897.883    20671896.078          42.900          36.300          51.600
 119499851.792 6  92944350.955 6                  22417873.266    22417872.297
  22417878.656                          37.100          39.100
 113744017.591 7  88631706.45345                  21644758.953
  21644762.496                          43.800          34.500
 115142534.320 5  89555236.772 5                  21554905.148    21554904.566
  21554908.234                          34.000          35.600
 105987966.762 7  82434994.688 7                  19834175.477    19834176.375
  19834180.469                          45.000          45.600
 128555675.120 7                  95999386.215 7  24463331.969
                  24463337.781          44.100                          47.600
 126370115.122 7                  94367307.950 8  24047433.367
                  24047438.328          45.600                          49.500
 119611362.790 6                  89320191.036 6  22761285.078
                  22761288.863          36.200                          41.400
 121002123.521 7                  90358757.554 8  23025935.461
                  23025940.531          45.600                          49.300
 20  8 16  0 15 39.0000000  0 22R01G17G07G08G03R18R24R17G28G11G19R02
                                G30G01R14G22R16R15E36E02E14E30
 122610893.254 5  95364174.911 5                  22936932.195    22936930.793
  22936937.332                          30.700          30.300
 120236052.126 6  93690335.34346                  22880127.898
  22880133.168                          38.700          36.100
 127419258.106 5  99287789.92343                  24247093.344
  24247100.051                          30.700          22.800
 125931863.114 5  98128737.40843  94040031.477 7  23964036.781
  23964046.246    23964044.582          34.800          21.500          44.600
 113851894.875 6  88715865.29047  85019372.853 8  21665307.992
  21665315.934    21665316.547          41.900          44.600          49.900
 112464248.738 6  87472113.078 7                  21068317.344    21068316.418
  21068322.461                          39.900          42.300
 122443484.117 5  95233836.309 5                  22897553.609    22897552.953
  22897557.090                          33.700          34.600
 107235997.496 7  83405667.227 7                  20039580.078    20039579.414
  20039583.645                          44.200          44.000
 110974487.950 7  86473636.80645                  21117735.500
  21117740.746                          42.600          34.400
 115798869.430 6  90232888.46944                  22035789.945
  22035794.836                          39.000          25.200
 128329872.708 5  99997380.43542                  24420379.852
  24420383.969                          31.000          16.900
 120300919.481 6  93567406.318 6                  22544335.672    22544337.043
  22544344.328                          36.400          37.100
 121926426.498 6  95007644.93545  91048991.382 7  23201832.914
  23201839.910    23201842.000          36.000          33.900          46.000
 108633443.743 7  84649509.89346  81122439.318 8  20672267.266
  20672275.758    20672273.957          42.400          36.200          51.700
 119504190.986 6  92947725.876 6                  22418687.203    22418686.188
  22418692.750                          36.900          38.900
 113743774.569 7  88631517.07845                  21644713.070
  21644716.230                          43.900          34.800
 115140058.713 5  89553311.281 5                  21554441.047    21554441.551
  21554444.777                          33.700          35.200
 105989572.109 7  82436243.288 7                  19834477.031    19834476.734
  19834480.895                          45.000          45.500
 128557364.170 7                  96000647.510 7  24463653.281
                  24463659.117          44.200                          47.500
 126372015.833 7                  94368727.309 8  24047795.305
                  24047800.016          45.400                          49.200
 119605329.288 6                  89315685.488 6  22760136.914
                  22760140.691          36.000                          41.100
 121001259.566 7                  90358112.397 8  23025771.008
                  23025775.992          45.100                          49.000
 20  8 16  0 15 40.0000000  0 22R01G17G07G08G03R18R24R17G28G11G19R02
                                G30G01R14G22R16R15E36E02E14E30
 122611465.067 5  95364619.640 5                  22937039.711    22937037.699
  22937044.238                          30.300          30.800
 120234082.226 6  93688800.35545                  22879753.305
  22879758.305                          39.000          35.900
 127422441.261 5  99290270.30543                  24247698.672
  24247705.680                          32.300          23.200
 125934283.843 5  98130623.71643  94041839.210 7  23964497.719
  23964506.844    23964505.219          34.300          22.200          44.600
 113849783.361 7  88714219.95947  85017796.093 8  21664905.766
  21664913.910    21664914.930          42.200          44.500          50.100
 112462772.632 6  87470964.972 7                  21068041.320    21068040.070
  21068045.707                          39.900          42.300
 122446304.970 5  95236030.334 5                  22898082.234    22898080.191
  22898084.590                          33.300          34.700
 107237013.294 7  83406457.292 7                  20039770.016    20039769.344
  20039773.488                          43.900          43.900
 110972805.909 7  86472326.11945                  21117415.797
  21117420.563                          42.800          35.000
 115801386.619 6  90234849.92043                  22036269.078
  22036273.914                          38.600          23.300
 128327105.364 5  99995224.03642                  24419853.625
  24419857.539                          31.800          17.400
 120297874.559 6  93565038.075 6                  22543766.250    22543766.598
  22543773.605                          36.400          37.000
 121928950.796 6  95009611.92145  91050876.423 7  23202313.398
  23202320.234    23202322.188          36.700          33.400          46.400
 108635429.741 7  84651057.41946  81123922.357 8  20672645.086
  20672653.621    20672651.938          42.600          36.400          51.500
 119508530.407 6  92951100.980 6                  22419501.383    22419500.184
  22419506.984                          36.800          38.700
 113743532.185 7  88631328.20045                  21644666.711
  21644670.000                          43.400          34.900
 115137583.860 5  89551386.391 5                  21553978.063    21553977.570
  21553981.316                          33.600          35.700
 105991178.333 7  82437492.586 7                  19834777.891    19834777.461
  19834781.418                          45.000          45.100
 128559053.304 7                  96001908.880 7  24463974.523
                  24463980.594          44.600                          47.700
 126373916.943 7                  94370146.973 8  24048157.219
                  24048161.648          45.500                          49.300
 119599295.911 6                  89311180.078 6  22758988.898
                  22758992.504          36.200                          40.900
 121000396.060 7                  90357467.578 8  23025606.641
                  23025611.879          45.300                          49.000
 20  8 16  0 15 41.0000000  0 22R01G17G07G08G03R18R24R17G28G11G19R02
                                G30G01R14G22R16R15E36E02E14E30
 122612037.681 5  95365064.985 4                  22937145.648    22937144.844
  22937151.309                          30.600          29.600
 120232112.366 6  93687265.40446                  22879377.797
  22879383.344                          38.700          36.200
 127425624.310 5  99292750.59444                  24248304.984
  24248311.254                          31.200          24.300
 125936704.676 5  98132510.07843  94043646.961 7  23964958.906
  23964967.371    23964965.980          34.700          21.100          44.700
 113847672.377 7  88712575.03347  85016219.684 8  21664504.703
  21664512.258    21664513.160          42.300          44.600          50.200
 112461296.714 6  87469817.064 6                  21067764.195    21067763.566
  21067769.270                          39.700          41.900
 122449125.735 5  95238224.273 5                  22898609.188    22898607.902
  22898612.074                          33.800          34.800
 107238029.304 7  83407247.520 7                  20039959.875    20039959.020
  20039963.359                          43.900          44.200
 110971124.173 7  86471015.67645                  21117096.375
  21117100.477                          42.800          34.600
 115803903.992 6  90236811.51143                  22036748.695
  22036752.883                          39.200          23.300
 128324338.079 5  99993067.73442                  24419325.531
  24419331.031                          30.100          16.900
 120294830.052 6  93562670.088 6                  22543196.930    22543196.195
  22543203.043                          36.200          37.000
 121931475.326 6  95011579.08145  91052761.620 7  23202793.031
  23202800.707    23202802.551          36.300          33.600          46.400
 108637416.090 7  84652605.22746  81125405.685 8  20673022.797
  20673031.531    20673029.848          42.800          36.100          51.400
 119512870.003 6  92954476.241 6                  22420314.648    22420314.172
  22420321.098                          36.800          38.900
 113743290.376 7  88631139.78245                  21644620.859
  21644624.020                          43.300          34.300
 115135109.654 5  89549462.050 5                  21553515.219    21553514.723
  21553518.215                          33.600          35.900
 105992785.406 7  82438742.517 7                  19835077.906    19835077.824
  19835082.125                          44.900          45.400
 128560742.505 7                  96003170.292 7  24464296.367
                  24464302.125          44.600                          47.700
 126375818.407 7                  94371566.887 8  24048518.992
                  24048523.707          45.700                          49.600
 119593262.649 6                  89306674.697 6  22757840.438
                  22757844.539          36.100                          41.200
 120999532.977 7                  90356823.062 8  23025442.617
                  23025447.652          45.300                          49.100
 20  8 16  0 15 42.0000000  0 22R01G17G07G08G03R18R24R17G28G11G19R02
                                G30G01R14G22R16R15E36E02E14E30
 122612611.103 5  95365510.964 4                  22937252.891    22937251.996
  22937258.496                          30.800          29.800
 120230142.559 6  93685730.48145                  22879002.313
  22879008.527                          38.700          35.900
 127428807.496 5  99295231.00244                  24248911.609
  24248916.879                          31.600          25.000
 125939125.663 5  98134396.57043  94045454.834 7  23965419.852
  23965428.094    23965426.758          34.300          21.500          44.500
 113845561.932 7  88710930.53447  85014643.712 8  21664102.531
  21664110.617    21664111.520          42.000          44.700          50.400
 112459821.163 6  87468669.416 6                  21067488.164    21067487.313
  21067492.797                          39.900          41.800
 122451946.535 5  95240418.204 5                  22899136.258    22899135.152
  22899139.598                          33.900          35.100
 107239045.559 7  83408037.953 7                  20040150.234    20040149.313
  20040153.289                          43.600          44.300
 110969442.918 7  86469705.60345                  21116775.898
  21116780.527                          42.600          34.600
 115806421.563 6  90238773.25544                  22037227.570
  22037231.848                          38.900          25.000
 128321570.709 4  99990911.32243                  24418799.539
  24418804.531                          29.400          18.600
 120291785.885 6  93560302.362 6                  22542626.289    22542625.992
  22542632.426                          36.400          37.000
 121934000.139 6  95013546.46845  91054647.045 7  23203273.352
  23203281.102    23203282.996          36.300          33.800          46.200
 108639402.898 7  84654153.38446  81126889.334 8  20673401.602
  20673409.652    20673407.871          43.100          36.900          51.200
 119517209.820 6  92957851.643 6                  22421128.719    22421128.273
  22421135.180                          36.700          38.700
 113743049.244 7  88630951.88545                  21644575.305
  21644578.145                          43.200          35.000
 115132636.207 5  89547538.263 6                  21553053.648    21553051.645
  21553055.184                          33.500          36.100
 105994393.328 7  82439993.122 7                  19835379.742    19835378.840
  19835383.078                          45.000          45.600
 128562431.827 7                  96004431.805 7  24464617.609
                  24464623.441          44.500                          47.700
 126377720.258 7                  94372987.116 8  24048880.859
                  24048885.406          45.600                          49.700
 119587229.543 5                  89302169.439 6  22756692.609
                  22756696.336          35.700                          41.100
 120998670.344 7                  90356178.889 8  23025278.438
                  23025283.484          45.300                          49.100
 20  8 16  0 15 43.0000000  0 22R01G17G07G08G03R18R24R17G28G11G19R02
                                G30G01R14G22R16R15E36E02E14E30
 122613185.339 5  95365957.629 5                  22937360.734    22937359.285
  22937366.051                          30.700          31.100
 120228172.841 6  93684195.64646                  22878627.289
  22878633.707                          38.100          36.000
 127431990.542 5  99297711.30244                  24249516.516
  24249522.688                          31.600          24.000
 125941546.750 5  98136283.13243  94047262.778 7  23965880.633
  23965888.801    23965887.391          34.800          21.700          44.300
 113843452.033 7  88709286.45647  85013068.119 8  21663701.656
  21663709.246    21663710.094          42.400          44.700          50.700
 112458345.908 6  87467521.973 7                  21067213.289    21067211.199
  21067216.250                          40.100          42.000
 122454767.259 5  95242612.083 5                  22899663.125    22899662.848
  22899667.250                          34.000          34.500
 107240062.039 7  83408828.534 7                  20040340.133    20040339.219
  20040343.285                          43.900          44.200
 110967762.032 7  86468395.82545                  21116456.391
  21116460.797                          42.500          34.500
 115808939.281 6  90240735.11644                  22037706.367
  22037710.969                          39.000          25.100
 128318803.410 5  99988755.00443                  24418272.914
  24418277.977                          30.500          18.600
 120288742.164 6  93557935.064 6                  22542055.539    22542055.352
  22542061.844                          36.300          37.100
 121936525.267 5  95015514.10845  91056532.666 7  23203753.570
  23203761.707    23203763.609          35.900          33.500          46.300
 108641390.076 7  84655701.83546  81128373.263 8  20673779.898
  20673787.809    20673786.012          42.800          36.400          51.200
 119521549.890 6  92961227.235 6                  22421943.156    22421942.520
  22421949.285                          36.800          38.400
 113742808.720 7  88630764.46445                  21644529.555
  21644532.453                          43.600          34.400
 115130163.504 5  89545615.005 5                  21552589.844    21552588.926
  21552592.293                          33.200          35.600
 105996002.086 7  82441244.367 7                  19835679.992    19835679.785
  19835684.004                          44.600          45.800
 128564121.223 7                  96005693.365 7  24464939.219
                  24464945.016          44.300                          47.400
 126379622.488 7                  94374407.612 8  24049242.852
                  24049247.563          45.700                          50.100
 119581196.503 6                  89297664.232 6  22755544.484
                  22755548.305          36.200                          41.500
 120997808.151 7                  90355535.050 8  23025114.227
                  23025119.359          45.300                          49.400
 20  8 16  0 15 44.0000000  0 22R01G17G07G08G03R18R24R17G28G11G19R02
                                G30G01R14G22R16R15E36E02E14E30
 122613760.318 5  95366404.829 5                  22937467.531    22937467.383
  22937473.516                          31.600          31.200
 120226203.104 6  93682660.78646                  22878252.875
  22878259.133                          38.200          36.000
 127435173.644 5  99300191.63643                  24250122.133
  24250128.313                          31.300          23.200
 125943967.910 5  98138169.73743  94049070.774 7  23966340.563
  23966349.426    23966348.289          34.500          21.800          44.300
 113841342.609 7  88707642.74747  85011492.912 8  21663300.375
  21663307.781    21663308.570          42.100          44.700          50.300
 112456870.910 6  87466374.780 7                  21066935.766    21066934.508
  21066939.930                          40.500          42.100
 122457587.891 5  95244805.963 5                  22900191.039    22900189.738
  22900194.664                          33.700          34.400
 107241078.753 7  83409619.313 7                  20040530.016    20040529.078
  20040533.289                          43.700          43.900
 110966081.538 7  86467086.35045                  21116135.758
  21116140.930                          43.100          35.100
 115811457.188 6  90242697.10144                  22038185.000
  22038190.156                          39.000          24.800
 128316036.114 4  99986598.64743                  24417746.117
  24417751.465                          29.900          18.600
 120285698.782 5  93555567.950 6                  22541486.672    22541484.855
  22541491.430                          35.800          37.000
 121939050.597 6  95017481.89945  91058418.480 7  23204234.063
  23204242.242    23204244.051          36.200          33.200          46.600
 108643377.622 7  84657250.56746  81129857.473 8  20674157.508
  20674166.023    20674164.406          43.000          36.700          51.300
 119525890.129 6  92964602.982 6                  22422757.859    22422756.797
  22422763.555                          36.700          38.700
 113742568.837 7  88630577.53545                  21644483.625
  21644486.801                          43.200          34.100
 115127691.393 5  89543692.289 6                  21552126.344    21552126.004
  21552129.504                          33.400          36.000
 105997611.660 7  82442496.277 7                  19835980.367    19835980.758
  19835985.352                          44.600          45.800
 128565810.694 7                  96006954.988 7  24465260.875
                  24465266.523          44.300                          47.500
 126381525.083 7                  94375828.373 8  24049605.117
                  24049609.465          45.500                          50.000
 119575163.529 6                  89293159.140 6  22754396.523
                  22754400.332          36.800                          41.700
 120996946.367 7                  90354891.506 8  23024950.250
                  23024955.438          45.100                          49.200
 20  8 16  0 15 45.0000000  0 22R01G17G07G08G03R18R24R17G28G11G19R02
                                G30G01R14G22R16R15E36E02E14E30
 122614336.171 5  95366852.749 5                  22937575.141    22937575.074
  22937581.191                          31.400          32.200
 120224233.474 6  93681126.01646                  22877878.398
  22877884.266                          38.400          36.100
 127438356.728 5  99302671.94244                  24250727.125
  24250734.105                          31.500          24.400
 125946389.216 5  98140056.47443  94050878.888 7  23966801.359
  23966810.043    23966808.945          34.600          21.800          44.300
 113839233.732 7  88705999.47147  85009918.113 8  21662898.750
  21662906.410    21662907.340          42.100          44.600          50.400
 112455396.231 6  87465227.806 7                  21066658.656    21066658.457
  21066663.695                          40.800          42.000
 122460408.577 5  95246999.824 5                  22900718.398    22900717.074
  22900722.117                          33.400          35.000
 107242095.730 7  83410410.311 7                  20040720.977    20040719.156
  20040723.270                          43.800          44.400
 110964401.459 7  86465777.19745                  21115816.867
  21115821.281                          42.700          34.700
 115813975.302 6  90244659.27244                  22038664.578
  22038669.340                          38.900          25.300
 128313268.839 5  99984442.33842                  24417218.875
  24417225.070                          30.300          17.400
 120282655.851 6  93553201.222 6                  22540914.922    22540915.023
  22540921.102                          36.300          36.800
 121941576.251 6  95019449.94345  91060304.520 7  23204715.672
  23204722.965    23204724.574          36.100          32.700          46.300
 108645365.584 7  84658799.63746  81131341.997 8  20674536.102
  20674544.359    20674542.648          42.900          36.400          51.200
 119530230.642 6  92967978.927 6                  22423571.016    22423570.699
  22423577.898                          36.900          38.600
 113742329.588 7  88630391.11045                  21644438.344
  21644441.074                          43.900          34.600
 115125220.059 5  89541770.124 5                  21551663.352    21551663.508
  21551666.891                          32.800          35.800
 105999222.152 7  82443748.878 7                  19836282.250    19836282.168
  19836286.898                          44.400          46.000
 128567500.279 7                  96008216.691 7  24465582.219
                  24465587.992          44.300                          47.400
 126383428.083 7                  94377249.436 8  24049967.195
                  24049971.660          45.500                          49.900
 119569130.802 6                  89288654.125 6  22753248.688
                  22753252.406          37.000                          41.600
 120996085.058 7                  90354248.317 8  23024786.672
                  23024791.664          45.200                          49.300
 20  8 16  0 15 46.0000000  0 22R01G17G07G08G03R18R24R17G28G11G19R02
                                G30G01R14G22R16R15E36E02E14E30
 122614912.857 5  95367301.227 5                  22937682.656    22937683.375
  22937689.125                          31.500          32.100
 120222263.901 6  93679591.28746                  22877504.273
  22877509.477                          38.300          36.000
 127441539.808 5  99305152.27643                  24251334.016
  24251339.898                          31.500          22.600
 125948810.586 5  98141943.26143  94052687.051 7  23967262.273
  23967270.730    23967269.625          34.300          22.200          44.100
 113837125.376 7  88704356.59847  85008343.684 8  21662497.461
  21662505.297    21662506.074          42.100          44.700          50.500
 112453921.846 6  87464081.046 6                  21066383.180    21066382.191
  21066387.602                          40.500          41.900
 122463229.230 5  95249193.667 5                  22901245.656    22901244.859
  22901249.652                          33.500          35.000
 107243112.923 7  83411201.439 7                  20040911.000    20040909.449
  20040913.375                          43.500          44.700
 110962721.772 7  86464468.34745                  21115496.875
  21115501.797                          43.200          34.200
 115816493.527 6  90246621.52044                  22039144.023
  22039148.324                          39.100          24.900
 128310501.550 5  99982285.98742                  24416692.063
  24416698.551                          30.700          17.400
 120279613.257 5  93550834.804 6                  22540344.375    22540344.703
  22540350.879                          35.900          37.000
 121944102.110 6  95021418.14045  91062190.728 7  23205196.211
  23205203.637    23205205.164          36.000          32.200          46.300
 108647353.931 7  84660348.99546  81132826.801 8  20674914.836
  20674922.699    20674921.051          42.700          36.600          51.300
 119534571.276 6  92971354.989 6                  22424386.398    22424384.625
  22424392.145                          36.400          38.500
 113742090.975 7  88630205.17945                  21644392.727
  21644395.605                          43.300          34.000
 115122749.381 5  89539848.511 5                  21551200.352    21551201.023
  21551204.270                          32.900          35.600
 106000833.518 7  82445002.166 7                  19836584.211    19836584.027
  19836588.516                          44.500          46.100
 128569189.931 7                  96009478.443 7  24465903.766
                  24465909.492          43.900                          47.400
 126385331.433 7                  94378670.777 8  24050329.273
                  24050333.738          45.600                          49.500
 119563098.116 6                  89284149.213 6  22752101.148
                  22752104.621          36.800                          41.300
 120995224.155 7                  90353605.439 8  23024622.789
                  23024627.805          45.300                          49.100
 20  8 16  0 15 47.0000000  0 22R01G17G07G08G03R18R24R17G28G11G19R02
                                G30G01R14G22R16R15E36E02E14E30
 122615490.288 5  95367750.381 5                  22937791.461    22937791.180
  22937797.258                          31.000          31.400
 120220294.318 6  93678056.55046                  22877129.117
  22877134.875                          38.100          36.100
 127444722.836 5  99307632.55244                  24251940.102
  24251945.676                          31.500          24.700
 125951232.004 5  98143830.06743  94054495.262 7  23967722.695
  23967731.520    23967730.383          34.600          21.300          44.500
 113835017.515 7  88702714.10647  85006769.641 8  21662096.367
  21662104.094    21662104.969          42.400          44.500          50.500
 112452447.693 6  87462934.513 7                  21066107.867    21066105.848
  21066111.418                          40.000          42.000
 122466049.849 5  95251387.461 5                  22901772.242    22901772.266
  22901777.277                          33.400          35.800
 107244130.275 7  83411992.728 7                  20041100.781    20041099.148
  20041103.426                          43.700          44.900
 110961042.449 7  86463159.79345                  21115177.734
  21115182.164                          43.000          34.400
 115819011.950 6  90248583.93544                  22039622.766
  22039627.547                          39.400          25.100
 128307734.345 5  99980129.72942                  24416165.594
  24416172.008                          30.100          17.400
 120276571.039 5  93548468.677 6                  22539773.203    22539774.363
  22539780.785                          35.400          37.100
 121946628.246 6  95023386.56045  91064077.119 7  23205677.344
  23205684.379    23205685.879          36.400          32.400          46.300
 108649342.655 7  84661898.65446  81134311.892 8  20675292.430
  20675301.234    20675299.398          42.800          36.800          51.400
 119538912.125 6  92974731.183 6                  22425200.320    22425199.223
  22425206.613                          36.500          38.300
 113741852.942 7  88630019.68945                  21644347.789
  21644350.293                          43.200          33.800
 115120279.460 5  89537927.444 5                  21550739.844    21550738.539
  21550741.848                          32.800          35.700
 106002445.701 7  82446256.079 7                  19836885.656    19836885.816
  19836890.129                          44.400          46.100
 128570879.631 7                  96010740.233 7  24466225.375
                  24466231.164          43.800                          47.000
 126387235.121 7                  94380092.370 8  24050691.641
                  24050696.172          45.800                          49.500
 119557065.509 6                  89279644.361 6  22750952.703
                  22750956.684          36.900                          41.300
 120994363.671 7                  90352962.866 8  23024458.961
                  23024464.004          45.300                          49.000
 20  8 16  0 15 48.0000000  0 22R01G17G07G08G03R18R24R17G28G11G19R02
                                G30G01R14G22R16R15E36E02E14E30
 122616068.529 5  95368200.104 5                  22937899.594    22937899.441
  22937905.492                          31.400          30.800
 120218324.853 6  93676521.89546                  22876754.344
  22876760.051                          38.700          36.100
 127447905.902 5  99310112.84344                  24252545.461
  24252551.473                          31.500          24.800
 125953653.580 5  98145717.00343  94056303.583 7  23968183.039
  23968192.289    23968191.492          34.600          20.900          44.500
 113832910.199 7  88701072.04647  85005195.996 8  21661695.242
  21661703.031    21661703.910          42.600          44.800          50.500
 112450973.865 6  87461788.173 7                  21065831.805    21065830.020
  21065835.117                          39.900          42.100
 122468870.427 5  95253581.242 5                  22902299.359    22902299.910
  22902304.797                          33.700          35.200
 107245147.922 7  83412784.212 7                  20041289.711    20041289.496
  20041293.785                          43.800          44.600
 110959363.542 7  86461851.55745                  21114858.109
  21114862.574                          42.900          34.600
 115821530.575 6  90250546.50544                  22040102.555
  22040107.023                          39.600          24.900
 128304967.110 4  99977973.43542                  24415638.758
  24415645.477                          29.400          17.400
 120273529.271 5  93546102.826 6                  22539205.563    22539204.191
  22539210.824                          35.700          36.700
 121949154.695 6  95025355.21745  91065963.757 7  23206157.727
  23206164.984    23206166.918          36.400          32.800          46.300
 108651331.796 7  84663448.63446  81135797.278 8  20675670.836
  20675679.648    20675677.934          43.200          36.300          51.700
 119543253.175 6  92978107.550 6                  22426015.594    22426013.750
  22426020.961                          37.300          38.300
 113741615.573 7  88629834.73145                  21644301.734
  21644305.098                          43.200          33.800
 115117810.224 5  89536006.920 5                  21550276.313    21550276.121
  21550279.695                          32.900          35.400
 106004058.695 7  82447510.624 7                  19837188.398    19837187.402
  19837192.031                          44.500          45.500
 128572569.455 7                  96012002.114 7  24466546.742
                  24466552.594          44.100                          47.000
 126389139.235 7                  94381514.252 8  24051054.016
                  24051058.555          46.000                          49.200
 119551033.037 6                  89275139.615 6  22749805.211
                  22749808.887          36.900                          41.600
 120993503.638 7                  90352320.641 8  23024295.297
                  23024300.402          45.500                          49.000
 20  8 16  0 15 49.0000000  0 22R01G17G07G08G03R18R24R17G28G11G19R02
                                G30G01R14G22R16R15E36E02E14E30
 122616647.648 5  95368650.509 5                  22938008.297    22938007.648
  22938013.762                          31.200          31.200
 120216355.363 6  93674987.22945                  22876379.336
  22876385.207                          38.600          35.700
 127451088.837 5  99312593.04643                  24253151.695
  24253157.207                          32.200          22.800
 125956075.235 5  98147604.01543  94058111.956 7  23968643.555
  23968653.105    23968652.094          35.000          21.700          44.300
 113830803.411 7  88699430.39547  85003622.741 8  21661294.430
  21661302.172    21661303.047          42.600          44.400          50.700
 112449500.291 6  87460642.072 6                  21065555.648    21065554.102
  21065559.234                          40.200          41.900
 122471690.953 5  95255774.952 5                  22902826.313    22902827.234
  22902832.281                          33.400          34.700
 107246165.793 7  83413575.901 7                  20041479.414    20041479.547
  20041483.898                          43.800          44.700
 110957685.030 7  86460543.61945                  21114538.578
  21114543.090                          42.600          34.000
 115824049.330 6  90252509.15444                  22040581.555
  22040586.254                          39.600          25.300
 128302199.898 4  99975817.18442                  24415112.320
  24415118.969                          29.900          16.900
 120270487.874 5  93543737.269 6                  22538635.109    22538634.059
  22538640.789                          35.300          36.900
 121951681.388 6  95027324.06845  91067850.559 7  23206638.102
  23206645.680    23206647.555          36.600          32.500          46.300
 108653321.310 7  84664998.90346  81137282.957 8  20676049.797
  20676058.230    20676056.563          43.200          36.300          51.100
 119547594.446 6  92981484.096 6                  22426829.266    22426828.336
  22426835.273                          37.300          38.000
 113741378.828 7  88629650.25745                  21644256.898
  21644260.121                          43.000          33.900
 115115341.686 5  89534086.978 5                  21549813.852    21549814.004
  21549817.527                          32.600          35.900
 106005672.495 7  82448765.801 7                  19837489.336    19837489.504
  19837494.047                          44.600          45.500
 128574259.330 7                  96013264.047 7  24466868.414
                  24466874.207          43.900                          47.800
 126391043.683 7                  94382936.425 8  24051416.242
                  24051421.004          45.900                          49.700
 119545000.740 6                  89270634.934 6  22748656.992
                  22748660.844          36.600                          41.400
 120992644.033 7                  90351678.723 8  23024131.844
                  23024136.852          45.200                          49.100
 20  8 16  0 15 50.0000000  0 22R01G17G07G08G03R18R24R17G28G11G19R02
                                G30G01R14G22R16R15E36E02E14E30
 122617227.506 5  95369101.508 5                  22938116.539    22938116.223
  22938122.316                          30.600          30.600
 120214385.991 6  93673452.65346                  22876004.742
  22876010.563                          38.200          36.100
 127454271.879 5  99315073.35443                  24253756.906
  24253762.785                          31.000          22.000
 125958497.007 5  98149491.08843  94059920.424 7  23969104.797
  23969113.879    23969113.043          35.100          21.100          44.500
 113828697.153 7  88697789.15647  85002049.891 8  21660893.703
  21660901.199    21660902.180          42.700          44.500          50.500
 112448026.995 6  87459496.180 6                  21065278.984    21065277.875
  21065283.207                          40.300          41.800
 122474511.388 5  95257968.651 5                  22903354.055    22903355.227
  22903359.711                          33.700          35.400
 107247183.876 7  83414367.751 7                  20041670.813    20041669.770
  20041674.141                          43.800          44.100
 110956006.915 7  86459235.99645                  21114218.813
  21114223.816                          42.900          34.600
 115826568.329 6  90254472.02344                  22041061.008
  22041065.734                          39.300          24.700
 128299432.765 4  99973660.92242                  24414585.516
  24414592.324                          29.900          17.400
 120267446.863 5  93541372.004 6                  22538064.570    22538063.707
  22538070.820                          35.100          36.700
 121954208.387 6  95029293.16345  91069737.593 7  23207119.852
  23207126.508    23207128.414          36.400          33.500          46.300
 108655311.237 7  84666549.49546  81138768.943 8  20676428.531
  20676436.867    20676435.273          43.400          36.400          51.400
 119551935.927 6  92984860.830 6                  22427644.539    22427642.820
  22427649.727                          37.200          38.000
 113741142.705 7  88629466.26345                  21644212.211
  21644215.195                          42.900          34.300
 115112873.897 5  89532167.519 5                  21549353.008    21549352.336
  21549355.566                          33.200          35.600
 106007287.173 7  82450021.667 7                  19837791.102    19837791.727
  19837796.199                          44.600          45.500
 128575949.321 7                  96014526.047 7  24467189.922
                  24467195.832          44.200                          47.600
 126392948.549 7                  94384358.873 8  24051778.891
                  24051783.484          46.000                          49.600
 119538968.488 6                  89266130.347 6  22747508.914
                  22747513.102          37.000                          41.500
 120991784.871 7                  90351037.140 8  23023968.328
                  23023973.379          45.200                          49.100
 20  8 16  0 15 51.0000000  0 22R01G17G07G08G03R18R24R17G28G11G19R02
                                G30G01R14G22R16R15E36E02E14E30
 122617808.199 5  95369553.203 5                  22938224.383    22938224.652
  22938230.855                          30.300          30.800
 120212416.687 6  93671918.13746                  22875629.594
  22875635.836                          38.300          36.000
 127457454.891 5  99317553.61043                  24254362.391
  24254368.520                          31.000          22.900
 125960918.871 5  98151378.25343  94061728.964 7  23969564.930
  23969574.688    23969573.816          34.800          20.600          44.200
 113826591.433 7  88696148.33447  85000477.431 8  21660492.961
  21660500.629    21660501.422          42.300          44.500          50.300
 112446554.047 6  87458350.539 7                  21065003.445    21065001.891
  21065007.211                          40.400          42.500
 122477331.920 5  95260162.378 5                  22903882.125    22903881.980
  22903887.223                          33.200          35.500
 107248202.244 7  83415159.813 7                  20041861.859    20041860.125
  20041864.418                          44.000          44.100
 110954329.215 7  86457928.70645                  21113900.555
  21113904.578                          42.800          34.600
 115829087.494 6  90256435.00243                  22041540.922
  22041544.973                          39.400          23.200
 128296665.583 5  99971504.68742                  24414059.883
  24414065.789                          30.300          16.300
 120264406.248 5  93539007.076 6                  22537493.492    22537493.379
  22537500.945                          35.300          37.100
 121956735.612 5  95031262.44145  91071624.822 7  23207599.828
  23207607.469    23207609.332          35.800          32.500          46.300
 108657301.569 7  84668100.40446  81140255.232 8  20676807.039
  20676815.684    20676813.996          42.800          36.700          51.800
 119556277.706 6  92988237.742 6                  22428457.969    22428456.828
  22428464.063                          37.000          38.400
 113740907.229 7  88629282.78845                  21644167.617
  21644170.590                          42.700          34.100
 115110406.699 5  89530248.649 5                  21548890.945    21548890.188
  21548893.785                          33.200          35.500
 106008902.757 7  82451278.223 7                  19838093.844    19838093.980
  19838098.492                          44.200          45.800
 128577639.421 7                  96015788.136 7  24467511.805
                  24467517.398          44.000                          47.700
 126394853.786 7                  94385781.628 8  24052141.508
                  24052145.977          45.900                          49.400
 119532936.410 6                  89261625.884 6  22746361.031
                  22746365.133          36.700                          41.800
 120990926.160 7                  90350395.900 8  23023805.133
                  23023809.941          45.100                          49.000
 20  8 16  0 15 52.0000000  0 22R01G17G07G08G03R18R24R17G28G11G19R02
                                G30G01R14G22R16R15E36E02E14E30
 122618389.751 5  95370005.537 5                  22938333.094    22938332.789
  22938339.582                          30.800          31.500
 120210447.399 6  93670383.62546                  22875255.109
  22875260.902                          37.600          36.200
 127460637.820 5  99320033.80443                  24254967.617
  24254974.262                          30.800          23.000
 125963340.857 5  98153265.50743  94063537.550 7  23970026.523
  23970035.563    23970034.797          34.500          21.500          44.500
 113824486.222 6  88694507.91347  84998905.352 8  21660092.352
  21660099.852    21660100.754          41.600          44.400          50.100
 112445081.326 6  87457205.101 7                  21064727.250    21064726.031
  21064731.336                          40.200          42.100
 122480152.368 5  95262356.051 5                  22904410.180    22904409.840
  22904414.645                          34.000          35.600
 107249220.785 7  83415952.017 7                  20042052.016    20042050.469
  20042054.746                          43.900          44.200
 110952651.937 7  86456621.73045                  21113580.953
  21113585.309                          43.100          34.000
 115831606.819 6  90258398.11544                  22042019.984
  22042024.449                          39.900          24.400
 128293898.431 5  99969348.50642                  24413533.125
  24413539.340                          30.100          17.400
 120261365.910 5  93536642.390 6                  22536924.852    22536923.957
  22536931.176                          35.600          36.900
 121959263.148 6  95033231.93745  91073512.249 7  23208081.156
  23208088.387    23208090.293          36.700          33.200          46.100
 108659292.279 7  84669651.60546  81141741.804 8  20677185.672
  20677194.457    20677192.742          42.900          36.700          51.700
 119560619.618 6  92991614.774 6                  22429273.672    22429271.449
  22429278.543                          37.100          38.100
 113740672.383 7  88629099.79145                  21644122.703
  21644125.754                          43.000          34.800
 115107940.305 5  89528330.295 5                  21548428.938    21548428.254
  21548432.000                          33.200          35.700
 106010519.193 7  82452535.456 7                  19838396.766    19838396.293
  19838401.027                          44.500          45.800
 128579329.564 7                  96017050.255 7  24467833.289
                  24467838.828          44.100                          47.700
 126396759.393 7                  94387204.631 8  24052504.344
                  24052508.711          46.100                          49.100
 119526904.418 6                  89257121.475 7  22745213.125
                  22745217.590          37.000                          42.300
 120990067.891 7                  90349754.971 8  23023641.656
                  23023646.563          44.700                          49.000
 20  8 16  0 15 53.0000000  0 22R01G17G07G08G03R18R24R17G28G11G19R02
                                G30G01R14G22R16R15E36E02E14E30
 122618972.072 5  95370458.446 5                  22938441.516    22938441.664
  22938448.563                          31.000          31.500
 120208478.139 6  93668849.13746                  22874880.422
  22874886.305                          37.500          36.300
 127463820.825 5  99322514.07744                  24255573.648
  24255580.020                          31.000          24.700
 125965762.884 5  98155152.81343  94065346.238 7  23970487.148
  23970496.289    23970495.520          34.800          21.500          44.500
 113822381.516 6  88692867.87947  84997333.673 8  21659691.727
  21659699.543    21659700.324          41.900          44.400          50.200
 112443608.934 6  87456059.894 7                  21064451.500    21064450.508
  21064455.508                          40.100          42.400
 122482972.756 5  95264549.712 5                  22904936.484    22904936.914
  22904942.000                          34.000          35.000
 107250239.569 7  83416744.401 7                  20042241.719    20042240.781
  20042245.152                          43.700          44.000
 110950975.000 7  86455315.02945                  21113262.063
  21113266.270                          43.200          35.000
 115834126.305 6  90260361.34544                  22042498.727
  22042503.777                          39.900          26.200
 128291131.276 4  99967192.27842                  24413006.406
  24413012.770                          29.900          16.900
 120258325.957 6  93534278.022 6                  22536355.969    22536354.516
  22536361.461                          36.000          36.400
 121961790.934 6  95035201.64345  91075399.876 7  23208562.344
  23208569.480    23208571.223          36.300          33.200          46.100
 108661283.405 7  84671203.13246  81143228.664 8  20677565.000
  20677573.297    20677571.695          43.000          37.100          51.400
 119564961.717 6  92994991.983 6                  22430087.289    22430085.992
  22430092.988                          36.900          38.000
 113740438.173 7  88628917.29045                  21644078.203
  21644081.141                          43.700          34.900
 115105474.524 5  89526412.469 5                  21547967.570    21547966.902
  21547970.531                          33.300          35.300
 106012136.472 7  82453793.339 7                  19838698.961    19838698.824
  19838703.672                          44.300          45.600
 128581019.817 7                  96018312.448 7  24468154.930
                  24468160.586          44.100                          47.700
 126398665.369 7                  94388627.930 8  24052866.641
                  24052871.336          45.500                          49.400
 119520872.565 6                  89252617.166 7  22744065.805
                  22744069.730          37.500                          42.500
 120989210.024 7                  90349114.375 8  23023478.586
                  23023483.449          44.900                          49.000
 20  8 16  0 15 54.0000000  0 22R01G17G07G08G03R18R24R17G28G11G19R02
                                G30G01R14G22R16R15E36E02E14E30
 122619555.221 5  95370912.019 5                  22938550.875    22938551.051
  22938557.762                          31.300          31.800
 120206508.960 6  93667314.72146                  22874505.477
  22874511.672                          37.200          36.200
 127467003.807 5  99324994.31244                  24256178.906
  24256185.598                          30.800          25.600
 125968184.983 5  98157040.16543  94067154.959 7  23970948.305
  23970957.242    23970956.516          35.400          21.100          44.700
 113820277.354 7  88691228.27647  84995762.388 8  21659290.938
  21659299.078    21659299.852          42.100          44.500          50.500
 112442136.806 6  87454914.923 6                  21064174.781    21064175.043
  21064179.672                          40.000          41.900
 122485793.077 5  95266743.297 5                  22905464.680    22905464.402
  22905469.402                          34.000          35.000
 107251258.598 7  83417536.978 7                  20042431.867    20042431.555
  20042435.555                          44.100          44.200
 110949298.502 7  86454008.66845                  21112942.711
  21112947.352                          43.100          35.000
 115836645.985 6  90262324.74244                  22042978.430
  22042983.316                          39.300          26.200
 128288364.153 5  99965036.09242                  24412480.078
  24412486.195                          30.300          16.900
 120255286.332 5  93531913.976 6                  22535788.320    22535784.875
  22535791.625                          35.700          36.700
 121964318.963 6  95037171.52845  91077287.706 7  23209042.977
  23209050.441    23209052.359          36.700          32.700          45.800
 108663274.888 7  84672754.93546  81144715.822 8  20677944.016
  20677952.277    20677950.508          43.300          37.200          51.900
 119569304.018 6  92998369.321 6                  22430902.820    22430900.523
  22430907.520                          37.100          38.500
 113740204.568 7  88628735.25845                  21644033.984
  21644036.684                          43.600          34.900
 115103009.514 5  89524495.253 5                  21547506.516    21547505.355
  21547509.137                          33.400          35.700
 106013754.543 7  82455051.846 7                  19839001.242    19839001.816
  19839006.340                          44.700          45.700
 128582710.161 7                  96019574.710 7  24468476.625
                  24468482.320          44.100                          47.800
 126400571.714 7                  94390051.494 8  24053229.766
                  24053234.129          45.200                          49.500
 119514840.794 6                  89248112.941 7  22742918.117
                  22742922.086          36.900                          42.800
 120988352.607 7                  90348474.089 8  23023315.297
                  23023320.129          45.100                          49.000
 20  8 16  0 15 55.0000000  0 22R01G17G07G08G03R18R24R17G28G11G19R02
                                G30G01R14G22R16R15E36E02E14E30
 122620139.181 5  95371366.186 5                  22938660.445    22938659.875
  22938667.059                          31.200          31.700
 120204539.852 6  93665780.34746                  22874131.211
  22874136.973                          37.300          36.300
 127470186.698 5  99327474.49843                  24256784.734
  24256791.395                          30.800          23.500
 125970607.233 5  98158927.62543  94068963.780 7  23971409.625
  23971417.957    23971417.328          35.100          20.900          44.300
 113818173.716 7  88689589.07447  84994191.483 8  21658890.773
  21658898.660    21658899.605          42.200          44.400          50.400
 112440664.973 6  87453770.150 6                  21063899.891    21063898.703
  21063903.871                          40.000          41.600
 122488613.369 5  95268936.846 5                  22905993.023    22905991.887
  22905996.895                          34.100          35.200
 107252277.835 7  83418329.722 7                  20042623.469    20042622.152
  20042625.949                          44.100          43.900
 110947622.347 7  86452702.56645                  21112623.469
  21112628.313                          42.800          34.900
 115839165.815 6  90264288.25044                  22043458.734
  22043462.902                          39.600          25.700
 128285597.051 4  99962879.89942                  24411953.320
  24411959.613                          29.600          16.900
 120252247.203 5  93529550.089 6                  22535218.195    22535215.648
  22535222.094                          35.700          36.300
 121966847.304 6  95039141.66545  91079175.728 7  23209524.797
  23209531.598    23209533.328          37.100          33.000          45.600
 108665266.759 7  84674307.04146  81146203.277 8  20678322.813
  20678331.285    20678329.668          42.800          36.800          51.800
 119573646.568 6  93001746.837 6                  22431717.641    22431715.488
  22431722.164                          37.100          38.400
 113739971.602 7  88628553.73145                  21643989.273
  21643992.348                          43.000          34.800
 115100545.184 5  89522578.568 5                  21547043.680    21547043.770
  21547047.930                          33.400          35.600
 106015373.442 7  82456310.975 7                  19839304.828    19839304.625
  19839309.332                          44.500          45.600
 128584400.549 7                  96020837.023 7  24468798.188
                  24468803.961          44.100                          47.700
 126402478.422 7                  94391475.348 8  24053592.352
                  24053596.914          45.300                          49.400
 119508809.161 6                  89243608.805 7  22741769.984
                  22741774.285          37.400                          42.700
 120987495.622 7                  90347834.136 8  23023151.969
                  23023157.152          45.600                          49.000
 20  8 16  0 15 56.0000000  0 22R01G17G07G08G03R18R24R17G28G11G19R02
                                G30G01R14G22R16R15E36E02E14E30
 122620723.891 5  95371821.008 5                  22938769.438    22938769.254
  22938776.418                          30.600          31.200
 120202570.765 6  93664245.99046                  22873756.875
  22873762.199                          37.000          36.500
 127473369.587 5  99329954.65444                  24257389.289
  24257397.176                          31.000          24.600
 125973029.569 5  98160815.15543  94070772.643 7  23971869.758
  23971878.805    23971878.133          34.700          21.300          44.300
 113816070.617 7  88687950.29547  84992620.975 8  21658490.891
  21658498.734    21658499.375          42.100          44.900          50.600
 112439193.374 6  87452625.594 6                  21063623.117    21063623.273
  21063628.320                          40.300          41.800
 122491433.679 5  95271130.407 5                  22906520.781    22906519.383
  22906524.285                          33.400          34.900
 107253297.318 7  83419122.645 7                  20042814.484    20042812.590
  20042816.625                          44.100          44.000
 110945946.610 7  86451396.80145                  21112305.094
  21112309.543                          42.800          34.900
 115841685.840 6  90266251.90244                  22043937.813
  22043942.414                          39.800          24.100
 128282829.994 4  99960723.72742                  24411426.570
  24411433.074                          29.600          16.300
 120249208.408 5  93527186.651 6                  22534647.805    22534646.535
  22534652.574                          35.300          36.400
 121969375.860 6  95041111.96745  91081063.951 7  23210005.672
  23210012.777    23210014.383          36.900          32.300          45.600
 108667259.039 7  84675859.46746  81147691.001 8  20678701.500
  20678710.262    20678708.773          42.700          36.900          51.700
 119577989.294 6  93005124.518 6                  22432531.047    22432530.324
  22432536.957                          37.100          38.000
 113739739.249 7  88628372.67545                  21643945.156
  21643948.242                          43.100          35.100
 115098081.605 5  89520662.442 5                  21546583.000    21546582.328
  21546586.727                          33.600          35.500
 106016993.204 7  82457570.785 7                  19839607.070    19839607.813
  19839612.430                          44.500          45.600
 128586091.029 7                  96022099.401 7  24469119.914
                  24469125.684          44.000                          47.900
 126404385.505 7                  94392899.470 8  24053955.320
                  24053959.910          45.600                          49.500
 119502777.637 6                  89239104.732 7  22740621.961
                  22740626.387          37.600                          43.100
 120986639.068 7                  90347194.489 8  23022989.266
                  23022994.164          45.700                          49.000
 20  8 16  0 15 57.0000000  0 22R01G17G07G08G03R18R24R17G28G11G19R02
                                G30G01R14G22R16R15E36E02E14E30
 122621309.480 5  95372276.451 5                  22938878.594    22938879.180
  22938885.938                          30.900          31.400
 120200601.735 6  93662711.67646                  22873381.766
  22873387.539                          36.900          36.200
 127476552.453 5  99332434.80344                  24257995.063
  24258002.828                          31.500          24.700
 125975452.022 5  98162702.77543  94072581.627 7  23972330.867
  23972339.758    23972339.172          35.300          20.900          44.100
 113813968.012 7  88686311.90247  84991050.865 8  21658090.273
  21658098.512    21658099.285          42.000          44.600          50.300
 112437722.114 6  87451481.245 6                  21063348.570    21063347.516
  21063352.668                          40.400          41.900
 122494253.938 5  95273323.974 5                  22907047.617    22907046.863
  22907051.734                          33.300          34.700
 107254317.049 7  83419915.767 7                  20043002.625    20043002.781
  20043007.152                          43.700          44.100
 110944271.284 7  86450091.35545                  21111985.836
  21111990.680                          43.000          35.200
 115844206.050 6  90268215.69044                  22044417.344
  22044422.055                          39.500          25.400
 128280062.921 4  99958567.59342                  24410900.000
  24410906.367                          29.900          16.900
 120246170.041 5  93524823.417 6                  22534077.477    22534077.004
  22534083.188                          35.700          36.500
 121971904.728 6  95043082.50145  91082952.376 7  23210486.242
  23210494.016    23210495.926          36.800          31.800          45.800
 108669251.740 7  84677412.21946  81149179.053 8  20679081.492
  20679089.613    20679088.000          42.900          37.000          51.500
 119582332.241 6  93008502.369 6                  22433345.539    22433345.098
  22433351.617                          37.100          38.100
 113739507.531 7  88628192.11545                  21643901.047
  21643904.180                          43.000          34.600
 115095618.754 5  89518746.876 5                  21546121.469    21546121.617
  21546125.719                          33.700          35.300
 106018613.842 7  82458831.291 7                  19839911.070    19839910.918
  19839915.711                          44.300          45.600
 128587781.633 7                  96023361.852 7  24469441.773
                  24469447.293          44.200                          47.600
 126406292.993 7                  94394323.878 8  24054318.297
                  24054322.945          45.900                          49.800
 119496746.244 6                  89234600.758 7  22739474.063
                  22739478.898          37.900                          42.900
 120985782.977 7                  90346555.202 8  23022826.250
                  23022831.234          45.400                          48.900
 20  8 16  0 15 58.0000000  0 22R01G17G07G08G03R18R24R17G28G11G19R02
                                G30G01R14G22R16R15E36E02E14E30
 122621895.955 5  95372732.579 5                  22938988.883    22938988.398
  22938995.621                          30.100          31.500
 120198632.772 6  93661177.42646                  22873006.906
  22873012.805                          36.700          36.600
 127479735.444 5  99334915.06444                  24258601.117
  24258608.426                          31.200          25.700
 125977874.558 5  98164590.49543  94074390.654 7  23972792.477
  23972800.828    23972800.219          34.400          20.600          44.300
 113811865.956 7  88684673.94147  84989481.149 8  21657691.141
  21657698.391    21657699.352          42.200          44.500          50.400
 112436251.064 6  87450337.139 7                  21063071.844    21063071.777
  21063076.961                          40.200          42.100
 122497074.159 5  95275517.437 5                  22907574.859    22907574.152
  22907579.172                          33.200          34.600
 107255336.988 7  83420709.059 7                  20043194.188    20043193.402
  20043197.738                          43.700          44.200
 110942596.384 7  86448786.23945                  21111667.516
  21111671.953                          43.300          35.000
 115846726.414 6  90270179.61143                  22044896.852
  22044901.695                          39.500          23.000
 128277295.859 4  99956411.39042                  24410373.078
  24410379.605                          29.900          16.900
 120243132.052 5  93522460.529 6                  22533509.031    22533507.590
  22533513.852                          35.800          36.200
 121974433.827 6  95045053.24045  91084841.013 7  23210968.523
  23210975.328    23210976.871          36.100          32.100          45.800
 108671244.798 7  84678965.25246  81150667.383 8  20679460.148
  20679469.070    20679467.266          42.400          36.500          51.400
 119586675.458 6  93011880.439 6                  22434160.539    22434159.727
  22434166.348                          37.000          37.800
 113739276.456 7  88628012.06145                  21643857.133
  21643860.176                          43.100          34.300
 115093156.587 5  89516831.847 5                  21545661.242    21545661.133
  21545664.914                          34.000          35.600
 106020235.351 7  82460092.465 7                  19840214.352    19840214.313
  19840219.141                          44.300          45.500
 128589472.284 7                  96024624.371 7  24469763.570
                  24469769.059          44.200                          47.400
 126408200.847 7                  94395748.585 8  24054681.297
                  24054685.895          45.800                          49.200
 119490714.968 6                  89230096.888 7  22738326.563
                  22738331.223          37.400                          42.800
 120984927.295 7                  90345916.227 8  23022663.469
                  23022668.457          45.000                          48.900
 20  8 16  0 15 59.0000000  0 22R01G17G07G08G03R18R24R17G28G11G19R02
                                G30G01R14G22R16R15E36E02E14E30
 122622483.114 5  95373189.264 5                  22939099.008    22939098.230
  22939105.488                          30.900          32.600
 120196663.846 6  93659643.19446                  22872632.148
  22872638.125                          37.000          36.600
 127482918.286 5  99337395.17244                  24259207.523
  24259214.016                          30.700          25.700
 125980297.174 5  98166478.22343  94076199.748 7  23973252.313
  23973261.766    23973261.055          34.400          20.600          44.500
 113809764.394 6  88683036.36447  84987911.800 8  21657290.523
  21657298.473    21657299.320          41.700          44.500          50.200
 112434780.337 6  87449193.226 7                  21062795.867    21062796.379
  21062801.457                          40.300          42.300
 122499894.294 5  95277710.913 5                  22908101.945    22908101.871
  22908106.500                          33.300          34.500
 107256357.134 7  83421502.499 7                  20043384.844    20043384.316
  20043388.355                          43.600          43.700
 110940921.830 7  86447481.38545                  21111348.734
  21111353.281                          43.000          35.000
 115849246.961 6  90272143.67844                  22045376.031
  22045381.359                          39.400          25.300
 128274528.868 5  99954255.35342                  24409846.305
  24409853.020                          30.100          17.400
 120240094.419 6  93520097.921 6                  22532940.805    22532938.617
  22532944.637                          36.000          36.600
 121976963.223 6  95047024.20545  91086729.819 7  23211449.727
  23211456.992    23211458.250          36.100          32.700          45.600
 108673238.233 7  84680518.58346  81152155.998 8  20679839.664
  20679848.234    20679846.605          42.900          36.800          51.200
 119591018.779 6  93015258.562 6                  22434976.461    22434974.379
  22434981.207                          36.800          37.900
 113739045.959 7  88627832.45145                  21643813.273
  21643816.344                          43.200          34.400
 115090695.064 5  89514917.359 6                  21545200.977    21545200.219
  21545204.148                          34.000          36.000
 106021857.629 7  82461354.235 7                  19840518.367    19840517.980
  19840522.645                          44.300          45.500
 128591162.994 7                  96025886.913 7  24470085.047
                  24470090.734          44.400                          47.300
 126410109.029 7                  94397173.525 8  24055044.539
                  24055049.117          45.700                          49.500
 119484683.756 6                  89225593.075 7  22737178.938
                  22737183.738          37.800                          42.800
 120984072.023 7                  90345277.550 8  23022500.727
                  23022505.625          45.100                          49.300
 20  8 16  0 16  0.0000000  0 22R01G17G07G08G03R18R24R17G28G11G19R02
                                G30G01R14G22R16R15E36E02E14E30
 122623071.148 5  95373646.597 5                  22939207.906    22939208.016
  22939215.621                          30.700          31.500
 120194694.975 6  93658109.00946                  22872257.055
  22872263.508                          36.900          36.400
 127486101.146 5  99339875.33044                  24259813.258
  24259819.789                          31.500          24.600
 125982719.888 5  98168366.07043  94078008.927 7  23973714.148
  23973722.895    23973722.246          34.700          20.600          44.500
 113807663.382 6  88681399.21147  84986342.848 8  21656891.508
  21656898.613    21656899.543          41.800          44.300          50.200
 112433309.916 6  87448049.534 6                  21062521.594    21062520.781
  21062526.000                          40.500          41.500
 122502714.514 5  95279904.378 5                  22908629.039    22908629.086
  22908633.719                          33.100          34.100
 107257377.494 7  83422296.130 7                  20043575.672    20043574.855
  20043578.969                          43.600          43.600
 110939247.671 7  86446176.84945                  21111030.609
  21111034.723                          43.300          34.600
 115851767.670 6  90274107.86344                  22045855.938
  22045860.914                          39.800          24.700
 128271761.836 5  99952099.20842                  24409319.711
  24409326.477                          30.300          15.600
 120237057.188 6  93517735.658 6                  22532370.117    22532369.391
  22532375.582                          36.100          36.300
 121979492.847 6  95048995.34045  91088618.839 7  23211930.828
  23211938.211    23211939.629          36.700          32.600          45.600
 108675232.063 7  84682072.21646  81153644.893 8  20680218.828
  20680227.668    20680226.059          42.300          36.200          51.200
 119595362.300 6  93018636.872 6                  22435789.680    22435788.703
  22435795.965                          36.800          38.300
 113738816.131 7  88627653.36145                  21643769.984
  21643772.477                          43.000          34.400
 115088234.269 5  89513003.373 6                  21544740.906    21544739.348
  21544743.547                          34.100          36.000
 106023480.769 7  82462616.696 7                  19840821.305    19840821.910
  19840826.328                          44.700          44.800
 128592853.828 7                  96027149.544 7  24470406.844
                  24470412.578          44.800                          47.100
 126412017.628 7                  94398598.765 8  24055407.680
                  24055412.355          45.500                          49.400
 119478652.721 6                  89221089.355 7  22736031.102
                  22736035.910          37.200                          42.600
 120983217.220 7                  90344639.217 8  23022337.914
                  23022343.074          45.100                          49.300
 20  8 16  0 16  1.0000000  0 22R01G17G07G08G03R18R24R17G28G11G19R02
                                G30G01R14G22R16R15E36E02E14E30
 122623659.980 5  95374104.593 5                  22939319.414    22939318.453
  22939325.828                          30.900          31.900
 120192726.132 6  93656574.84446                  22871882.711
  22871888.727                          36.700          36.500
 127489283.964 5  99342355.44544                  24260418.352
  24260425.391                          31.800          24.300
 125985142.691 5  98170253.94643  94079818.156 7  23974174.969
  23974183.844    23974183.434          34.500          20.900          44.700
 113805562.864 6  88679762.44647  84984774.297 8  21656491.172
  21656499.102    21656499.867          41.700          44.500          50.200
 112431839.741 6  87446906.073 6                  21062246.641    21062245.543
  21062250.566                          40.200          41.600
 122505534.593 5  95282097.794 5                  22909157.188    22909156.422
  22909161.102                          33.700          35.200
 107258398.108 7  83423089.924 7                  20043766.719    20043765.629
  20043769.594                          43.400          44.000
 110937573.930 7  86444872.64045                  21110711.547
  21110716.188                          43.400          34.300
 115854288.572 6  90276072.19944                  22046336.078
  22046340.559                          39.500          24.400
 128268994.773 4  99949943.05442                  24408793.344
  24408799.938                          29.900          16.300
 120234020.300 6  93515373.677 6                  22531800.656    22531800.215
  22531806.363                          36.100          36.800
 121982022.739 6  95050966.67845  91090508.046 7  23212412.570
  23212419.637    23212421.055          36.400          32.500          45.500
 108677226.310 6  84683626.16946  81155134.085 8  20680598.492
  20680607.207    20680605.500          41.900          36.500          51.400
 119599706.051 6  93022015.338 6                  22436604.023    22436603.816
  22436610.762                          37.100          38.100
 113738586.912 7  88627474.75445                  21643725.664
  21643728.719                          43.500          34.100
 115085774.169 5  89511089.974 6                  21544279.313    21544279.375
  21544283.023                          34.000          36.200
 106025104.802 7  82463879.810 7                  19841125.227    19841125.746
  19841130.176                          44.500          45.400
 128594544.720 7                  96028412.235 7  24470728.594
                  24470734.145          44.600                          47.500
 126413926.566 7                  94400024.281 8  24055771.086
                  24055775.664          45.700                          49.500
 119472621.732 6                  89216585.722 7  22734883.164
                  22734888.445          37.600                          42.300
 120982362.827 7                  90344001.201 8  23022175.344
                  23022180.488          45.100                          48.900
 20  8 16  0 16  2.0000000  0 22R01G17G07G08G03R18R24R17G28G11G19R02
                                G30G01R14G22R16R15E36E02E14E30
 122624249.641 5  95374563.213 5                  22939429.461    22939429.031
  22939436.230                          30.700          31.500
 120190757.413 6  93655040.77545                  22871507.305
  22871513.969                          36.400          35.900
 127492466.848 5  99344835.59144                  24261024.406
  24261031.230                          31.600          24.700
 125987565.663 5  98172141.98343  94081627.533 7  23974636.266
  23974644.910    23974644.598          34.200          21.100          44.900
 113803462.935 7  88678126.13047  84983206.163 8  21656091.242
  21656099.410    21656100.051          42.300          44.600          50.100
 112430369.898 6  87445762.900 7                  21061971.922    21061970.059
  21061975.074                          40.200          42.200
 122508354.687 5  95284291.198 5                  22909685.453    22909683.402
  22909688.551                          33.600          34.700
 107259418.979 7  83423883.949 7                  20043956.891    20043956.238
  20043960.352                          43.500          44.000
 110935900.601 7  86443568.73545                  21110393.188
  21110397.609                          43.500          34.200
 115856809.727 6  90278036.72244                  22046815.828
  22046820.254                          39.800          24.000
 128266227.814 4  99947786.96742                  24408267.461
  24408273.387                          29.400          16.300
 120230983.876 6  93513011.947 6                  22531233.117    22531230.805
  22531237.414                          36.400          36.500
 121984552.986 6  95052938.30245  91092397.495 7  23212893.453
  23212901.125    23212902.488          36.800          32.700          45.400
 108679220.954 7  84685180.44246  81156623.609 8  20680978.438
  20680986.828    20680985.145          42.500          36.300          51.400
 119604050.000 6  93025393.985 6                  22437419.211    22437419.109
  22437425.715                          36.600          38.000
 113738358.385 7  88627296.68345                  21643682.273
  21643685.320                          43.300          34.300
 115083314.820 5  89509177.178 5                  21543819.031    21543819.266
  21543822.680                          34.000          35.800
 106026729.723 7  82465143.633 7                  19841430.500    19841429.984
  19841434.250                          44.800          45.200
 128596235.772 7                  96029675.019 7  24471050.172
                  24471056.031          44.500                          47.300
 126415835.942 7                  94401450.118 8  24056134.320
                  24056138.828          45.800                          49.400
 119466590.940 6                  89212082.206 6  22733735.500
                  22733740.926          37.200                          41.900
 120981508.931 7                  90343363.544 8  23022012.758
                  23022017.934          45.300                          48.900
 20  8 16  0 16  3.0000000  0 22R01G17G07G08G03R18R24R17G28G11G19R02
                                G30G01R14G22R16R15E36E02E14E30
 122624840.036 5  95375022.441 5                  22939538.273    22939539.277
  22939546.676                          31.100          31.400
 120188788.655 6  93653506.68045                  22871133.328
  22871139.133                          36.600          35.800
 127495649.622 5  99347315.66843                  24261630.109
  24261636.938                          31.900          23.600
 125989988.741 5  98174030.11343  94083436.967 7  23975097.070
  23975105.949    23975105.625          34.100          20.600          44.900
 113801363.473 6  88676490.18847  84981638.377 8  21655692.367
  21655699.965    21655700.773          41.800          44.600          50.200
 112428900.257 6  87444619.823 7                  21061694.273    21061694.949
  21061699.836                          40.400          42.200
 122511174.737 5  95286484.553 5                  22910212.047    22910210.699
  22910215.938                          33.600          35.600
 107260440.032 7  83424678.090 7                  20044148.805    20044147.223
  20044151.172                          43.600          43.600
 110934227.647 7  86442265.13345                  21110074.305
  21110079.305                          43.200          34.400
 115859330.976 6  90280001.35744                  22047295.125
  22047299.992                          38.700          24.300
 128263460.876 5  99945630.90842                  24407741.461
  24407746.820                          30.300          15.600
 120227947.831 6  93510650.589 6                  22530663.156    22530662.344
  22530668.457                          36.600          36.800
 121987083.392 5  95054910.04445  91094287.102 7  23213375.617
  23213382.691    23213383.801          35.900          32.300          45.500
 108681215.952 7  84686734.99546  81158113.379 8  20681357.766
  20681366.398    20681364.715          42.300          36.000          51.200
 119608394.183 6  93028772.761 6                  22438234.203    22438233.895
  22438240.668                          36.800          38.100
 113738130.417 7  88627119.04145                  21643639.258
  21643641.965                          43.400          34.300
 115080856.197 5  89507264.895 6                  21543360.594    21543358.770
  21543362.395                          34.100          36.400
 106028355.390 7  82466408.063 7                  19841734.555    19841734.113
  19841738.402                          44.800          45.500
 128597926.802 7                  96030937.823 7  24471372.383
                  24471377.930          44.200                          47.400
 126417745.632 7                  94402876.186 8  24056497.672
                  24056502.379          45.600                          49.700
 119460560.224 6                  89207578.755 6  22732588.125
                  22732593.129          37.300                          41.900
 120980655.416 7                  90342726.177 8  23021850.641
                  23021855.492          45.400                          49.100
 20  8 16  0 16  4.0000000  0 22R01G17G07G08G03R18R24R17G28G11G19R02
                                G30G01R14G22R16R15E36E02E14E30
 122625431.260 5  95375482.239 5                  22939649.930    22939649.703
  22939657.277                          30.800          31.600
 120186819.991 6  93651972.66245                  22870758.398
  22870764.680                          36.500          35.900
 127498832.413 5  99349795.78944                  24262236.438
  24262242.570                          31.600          25.600
 125992411.840 5  98175918.22943  94085246.450 7  23975558.508
  23975567.031    23975566.926          34.300          20.600          44.800
 113799264.522 7  88674854.63947  84980070.994 8  21655292.758
  21655300.504    21655301.230          42.000          44.600          50.400
 112427430.890 6  87443476.999 7                  21061420.250    21061419.660
  21061424.527                          40.500          42.000
 122513994.732 5  95288677.879 5                  22910740.203    22910738.035
  22910743.445                          34.000          35.400
 107261461.327 7  83425472.417 7                  20044338.031    20044338.340
  20044342.043                          43.800          44.100
 110932555.057 7  86440961.82245                  21109756.625
  21109760.922                          43.200          34.600
 115861852.409 6  90281966.09944                  22047774.602
  22047779.645                          38.900          25.000
 128260693.890 4  99943474.80442                  24407214.555
  24407220.238                          29.900          14.800
 120224912.109 6  93508289.483 6                  22530094.219    22530093.254
  22530099.676                          36.400          37.200
 121989614.070 5  95056881.98945  91096176.890 7  23213856.734
  23213864.379    23213865.551          35.700          32.400          45.800
 108683211.357 7  84688289.85446  81159603.440 8  20681737.516
  20681746.004    20681744.457          42.900          36.200          51.300
 119612738.498 6  93032151.674 6                  22439049.703    22439048.707
  22439055.730                          36.500          38.100
 113737903.068 7  88626941.88545                  21643595.930
  21643598.871                          43.400          34.300
 115078398.298 5  89505353.203 5                  21542899.453    21542898.219
  21542902.195                          33.900          35.900
 106029981.897 7  82467673.118 7                  19842038.914    19842038.512
  19842042.883                          45.100          45.400
 128599617.974 7                  96032200.685 7  24471694.000
                  24471699.594          44.500                          47.700
 126419655.699 7                  94404302.527 8  24056861.102
                  24056865.813          46.000                          49.800
 119454529.610 6                  89203075.376 7  22731440.500
                  22731445.461          37.900                          42.100
 120979802.324 7                  90342089.122 8  23021687.961
                  23021693.273          45.500                          48.800
 20  8 16  0 16  5.0000000  0 22R01G17G07G08G03R18R24R17G28G11G19R02
                                G30G01R14G22R16R15E36E02E14E30
 122626023.298 5  95375942.685 5                  22939761.711    22939760.816
  22939768.082                          30.500          32.300
 120184851.373 6  93650438.67546                  22870384.336
  22870390.137                          36.700          36.500
 127502015.167 5  99352275.84644                  24262841.586
  24262848.262                          31.600          24.300
 125994835.133 5  98177806.51143  94087056.010 7  23976019.344
  23976028.266    23976028.098          34.800          21.100          44.900
 113797166.115 7  88673219.51947  84978504.009 8  21654893.320
  21654901.309    21654901.910          42.000          44.900          50.000
 112425961.873 6  87442334.393 7                  21061144.922    21061144.098
  21061149.383                          40.200          42.200
 122516814.648 5  95290871.181 5                  22911267.492    22911265.121
  22911270.793                          33.700          34.900
 107262482.796 7  83426266.926 7                  20044529.391    20044529.008
  20044533.055                          43.600          44.000
 110930882.877 7  86439658.82745                  21109438.844
  21109442.691                          43.100          35.000
 115864374.021 6  90283930.99544                  22048254.773
  22048259.535                          38.700          25.000
 128257926.987 4  99941318.77542                  24406688.219
  24406693.641                          29.900          15.600
 120221876.796 6  93505928.628 6                  22529525.820    22529524.738
  22529531.055                          36.500          37.000
 121992145.019 6  95058854.16445  91098066.887 7  23214338.289
  23214346.027    23214347.102          36.100          33.000          45.900
 108685207.114 7  84689844.99146  81161093.803 8  20682117.484
  20682125.734    20682124.191          42.800          36.200          51.100
 119617083.058 6  93035530.796 6                  22439864.430    22439863.695
  22439870.703                          36.500          38.300
 113737676.351 7  88626765.22245                  21643552.547
  21643555.641                          43.700          34.000
 115075941.064 5  89503442.020 5                  21542438.945    21542438.301
  21542442.258                          33.700          35.700
 106031609.265 7  82468938.835 7                  19842344.227    19842342.785
  19842347.398                          45.200          45.500
 128601309.184 7                  96033463.608 7  24472015.641
                  24472021.574          44.500                          47.400
 126421566.142 7                  94405729.152 8  24057224.453
                  24057229.422          45.700                          49.900
 119448499.144 6                  89198572.086 6  22730293.484
                  22730297.723          37.300                          41.900
 120978949.672 7                  90341452.406 8  23021525.711
                  23021531.008          45.600                          48.800
 20  8 16  0 16  6.0000000  0 22R01G17G07G08G03R18R24R17G28G11G19R02
                                G30G01R14G22R16R15E36E02E14E30
 122626616.064 5  95376403.824 5                  22939873.219    22939871.820
  22939879.063                          31.100          31.400
 120182882.764 6  93648904.68246                  22870009.898
  22870015.414                          37.200          36.400
 127505197.900 5  99354755.90144                  24263446.125
  24263453.758                          32.200          24.300
 125997258.482 5  98179694.81043  94088865.660 7  23976480.055
  23976489.383    23976489.270          34.400          20.600          44.700
 113795068.248 6  88671584.81047  84976937.398 8  21654494.094
  21654502.102    21654502.719          41.800          44.600          49.900
 112424493.136 6  87441192.074 6                  21060869.422    21060869.324
  21060874.152                          39.900          41.700
 122519634.573 5  95293064.461 5                  22911794.156    22911793.082
  22911798.180                          33.700          35.400
 107263504.564 7  83427061.609 7                  20044720.953    20044719.883
  20044723.941                          44.000          44.100
 110929211.118 7  86438356.16245                  21109120.523
  21109124.539                          43.300          34.200
 115866895.792 6  90285895.99244                  22048734.172
  22048739.648                          39.000          24.200
 128255160.062 5  99939162.75442                  24406161.648
  24406166.980                          30.300          16.300
 120218841.817 5  93503568.168 6                  22528956.398    22528955.980
  22528962.500                          35.900          37.400
 121994676.261 6  95060826.56345  91099957.100 7  23214819.750
  23214827.680    23214828.730          36.200          33.100          45.600
 108687203.328 7  84691400.47445  81162584.472 8  20682497.227
  20682505.676    20682504.145          43.000          35.800          51.400
 119621427.861 6  93038910.092 6                  22440679.898    22440678.770
  22440685.691                          36.800          37.700
 113737450.278 7  88626589.06245                  21643509.406
  21643512.695                          43.500          34.100
 115073484.566 5  89501531.455 6                  21541979.539    21541978.527
  21541982.445                          34.100          36.100
 106033237.519 7  82470205.252 7                  19842648.438    19842647.918
  19842652.180                          45.100          45.400
 128603000.504 7                  96034726.612 7  24472337.969
                  24472343.555          44.500                          47.300
 126423476.947 7                  94407156.071 8  24057588.359
                  24057592.891          45.600                          49.300
 119442468.787 6                  89194068.898 6  22729145.758
                  22729150.449          37.700                          41.800
 120978097.458 7                  90340816.015 8  23021363.555
                  23021368.809          45.300                          49.000
 20  8 16  0 16  7.0000000  0 22R01G17G07G08G03R18R24R17G28G11G19R02
                                G30G01R14G22R16R15E36E02E14E30
 122627209.746 5  95376865.510 5                  22939983.977    22939982.926
  22939990.145                          30.800          32.100
 120180914.245 6  93647370.78546                  22869635.102
  22869640.879                          36.600          36.400
 127508380.563 5  99357235.89744                  24264052.273
  24264059.477                          31.900          25.800
 125999681.942 5  98181583.20543  94090675.368 7  23976941.633
  23976950.613    23976950.336          34.700          20.400          44.700
 113792970.879 7  88669950.49947  84975371.190 8  21654094.992
  21654102.770    21654103.535          42.100          44.600          50.000
 112423024.696 6  87440049.943 6                  21060594.656    21060594.168
  21060599.125                          40.000          41.900
 122522454.461 5  95295257.692 5                  22912322.539    22912320.344
  22912325.520                          33.700          35.300
 107264526.519 7  83427856.488 7                  20044911.602    20044910.879
  20044915.031                          43.800          44.500
 110927539.744 7  86437053.78945                  21108801.930
  21108806.629                          43.200          34.400
 115869417.737 6  90287861.15744                  22049214.156
  22049219.543                          38.900          25.300
 128252393.048 4  99937006.63642                  24405635.617
  24405640.379                          29.400          15.600
 120215807.217 6  93501207.921 6                  22528386.695    22528387.094
  22528393.828                          36.000          37.400
 121997207.775 6  95062799.16745  91101847.484 7  23215301.719
  23215309.336    23215310.402          36.700          33.000          45.400
 108689199.860 7  84692956.21845  81164075.387 8  20682876.820
  20682885.656    20682884.074          43.200          35.900          51.400
 119625772.814 6  93042289.488 6                  22441494.594    22441493.801
  22441500.836                          36.600          37.600
 113737224.807 7  88626413.37245                  21643466.430
  21643469.703                          43.900          34.300
 115071028.726 5  89499621.339 6                  21541518.906    21541518.637
  21541522.672                          34.200          36.300
 106034866.595 7  82471472.312 7                  19842952.844    19842952.789
  19842956.914                          44.800          45.400
 128604691.891 7                  96035989.664 7  24472659.367
                  24472665.184          44.600                          47.700
 126425388.130 7                  94408583.251 8  24057951.953
                  24057956.543          45.700                          49.500
 119436438.494 6                  89189565.762 7  22727997.961
                  22728002.734          37.700                          42.400
 120977245.677 7                  90340179.943 8  23021201.297
                  23021206.773          45.200                          49.200
 20  8 16  0 16  8.0000000  0 22R01G17G07G08G03R18R24R17G28G11G19R02
                                G30G01R14G22R16R15E36E02E14E30
 122627804.240 5  95377327.864 5                  22940094.258    22940094.496
  22940101.398                          31.200          31.900
 120178945.783 6  93645836.91846                  22869260.438
  22869266.285                          36.700          36.100
 127511563.321 5  99359715.97643                  24264658.875
  24264665.367                          32.300          23.000
 126002105.476 5  98183471.69543  94092485.156 7  23977402.117
  23977411.895    23977411.488          33.300          21.100          44.700
 113790874.068 7  88668316.63147  84973805.381 8  21653696.289
  21653703.707    21653704.523          42.300          44.300          50.200
 112421556.526 6  87438908.048 6                  21060320.172    21060319.414
  21060324.125                          40.100          41.900
 122525274.349 5  95297450.925 5                  22912848.539    22912847.945
  22912852.832                          33.800          35.700
 107265548.773 7  83428651.558 7                  20045103.375    20045101.941
  20045106.113                          43.900          44.300
 110925868.787 7  86435751.74845                  21108484.172
  21108488.633                          43.200          34.400
 115871939.870 6  90289826.45844                  22049694.359
  22049699.500                          38.400          25.100
 128249626.201 5  99934850.66142                  24405109.422
  24405113.785                          30.100          16.300
 120212773.035 6  93498848.015 6                  22527817.563    22527818.918
  22527825.270                          36.300          37.000
 121999739.541 5  95064771.97545  91103738.100 7  23215783.781
  23215791.188    23215792.434          35.900          33.100          45.700
 108691196.841 7  84694512.31146  81165566.641 8  20683257.281
  20683265.727    20683264.141          43.200          36.600          51.200
 119630117.957 6  93045669.030 6                  22442310.742    22442308.883
  22442315.844                          36.500          37.600
 113736999.994 7  88626238.18845                  21643424.102
  21643426.973                          43.900          34.100
 115068573.636 5  89497711.777 6                  21541058.617    21541059.426
  21541062.992                          34.100          36.400
 106036496.499 7  82472740.033 7                  19843257.977    19843257.969
  19843262.043                          45.100          45.400
 128606383.395 7                  96037252.791 7  24472981.344
                  24472987.168          44.400                          47.700
 126427299.712 7                  94410010.721 8  24058316.023
                  24058320.426          46.000                          49.500
 119430408.379 6                  89185062.760 7  22726850.578
                  22726855.406          37.400                          42.300
 120976394.336 7                  90339544.198 8  23021039.617
                  23021044.629          44.900                          49.200
 20  8 16  0 16  9.0000000  0 22R01G17G07G08G03R18R24R17G28G11G19R02
                                G30G01R14G22R16R15E36E02E14E30
 122628399.498 5  95377790.897 5                  22940205.633    22940205.574
  22940212.777                          30.900          32.500
 120176977.437 6  93644303.14346                  22868886.016
  22868891.754                          36.700          36.000
 127514746.020 5  99362195.99044                  24265264.320
  24265271.000                          32.300          24.300
 126004529.117 5  98185360.23443  94094295.032 7  23977863.438
  23977873.141    23977872.496          34.200          20.600          44.400
 113788777.771 7  88666683.14647  84972239.974 8  21653296.820
  21653304.988    21653305.703          42.300          44.600          49.900
 112420088.646 6  87437766.363 6                  21060044.063    21060044.004
  21060049.063                          40.400          41.900
 122528094.159 5  95299644.156 5                  22913374.867    22913375.504
  22913380.254                          33.200          35.800
 107266571.206 7  83429446.788 7                  20045293.563    20045292.992
  20045297.121                          43.900          44.000
 110924198.248 7  86434450.03145                  21108166.445
  21108170.703                          43.100          34.800
 115874462.193 6  90291791.89844                  22050174.633
  22050179.355                          38.600          24.500
 128246859.296 4  99932694.58942                  24404582.547
  24404587.352                          29.900          16.300
 120209739.296 5  93496488.375 6                  22527249.867    22527250.129
  22527256.699                          35.700          36.600
 122002271.602 5  95066745.00645  91105628.921 7  23216264.445
  23216272.887    23216274.082          35.900          33.100          45.400
 108693194.223 7  84696068.70446  81167058.195 8  20683637.281
  20683645.621    20683644.246          43.200          36.300          51.400
 119634463.381 6  93049048.804 6                  22443125.555    22443123.641
  22443131.074                          36.500          37.600
 113736775.818 7  88626063.50145                  21643381.195
  21643384.250                          43.400          34.400
 115066119.231 5  89495802.789 6                  21540598.266    21540599.762
  21540603.426                          33.400          36.000
 106038127.266 7  82474008.407 7                  19843563.578    19843563.020
  19843567.352                          45.000          45.300
 128608074.981 7                  96038515.997 7  24473303.133
                  24473309.074          44.700                          47.100
 126429211.680 7                  94411438.479 8  24058679.836
                  24058684.176          45.700                          49.600
 119424378.393 6                  89180559.839 7  22725702.695
                  22725707.652          37.300                          42.300
 120975543.451 7                  90338908.807 8  23020877.570
                  23020882.746          45.000                          49.300
 20  8 16  0 16 10.0000000  0 22R01G17G07G08G03R18R24R17G28G11G19R02
                                G30G01R14G22R16R15E36E02E14E30
 122628995.632 5  95378254.526 5                  22940317.320    22940317.297
  22940324.273                          30.500          31.200
 120175009.035 6  93642769.32345                  22868511.352
  22868517.184                          36.800          35.700
 127517928.716 5  99364675.99043                  24265869.063
  24265876.410                          31.800          22.800
 126006952.867 5  98187248.88643  94096104.998 7  23978325.461
  23978334.301    23978333.730          34.000          20.600          44.500
 113786682.025 6  88665050.09847  84970674.956 8  21652898.281
  21652906.086    21652906.871          41.600          44.300          50.200
 112418621.023 6  87436624.870 6                  21059770.023    21059769.059
  21059774.098                          40.200          41.600
 122530913.999 5  95301837.320 5                  22913902.859    22913902.656
  22913907.543                          33.500          35.600
 107267593.859 7  83430242.184 7                  20045485.961    20045484.168
  20045488.234                          44.000          43.700
 110922528.087 7  86433148.59545                  21107849.273
  21107853.000                          43.100          34.300
 115876984.685 6  90293757.48644                  22050654.445
  22050659.574                          38.500          24.700
 128244092.443 5  99930538.64542                  24404055.797
  24404060.863                          30.100          15.600
 120206705.922 6  93494129.165 6                  22526682.008    22526681.391
  22526688.313                          36.200          36.600
 122004803.925 6  95068718.24045  91107519.945 7  23216746.750
  23216754.957    23216755.930          36.500          33.100          45.100
 108695192.006 7  84697625.42246  81168550.040 8  20684018.070
  20684025.816    20684024.277          43.200          36.000          51.600
 119638809.011 6  93052428.728 6                  22443941.016    22443939.320
  22443946.137                          36.900          37.600
 113736552.262 7  88625889.30145                  21643338.328
  21643341.855                          43.600          33.700
 115063665.531 5  89493894.410 6                  21540139.977    21540140.246
  21540144.184                          33.700          36.000
 106039758.894 7  82475277.448 7                  19843868.797    19843868.500
  19843872.672                          44.700          44.800
 128609766.646 7                  96039779.262 7  24473625.281
                  24473631.004          44.700                          47.300
 126431123.991 7                  94412866.513 8  24059043.734
                  24059048.160          46.000                          49.100
 119418348.530 6                  89176057.013 7  22724555.539
                  22724560.430          37.300                          42.200
 120974693.004 7                  90338273.737 8  23020715.500
                  23020720.859          44.900                          49.200
 20  8 16  0 16 11.0000000  0 22R01G17G07G08G03R18R24R17G28G11G19R02
                                G30G01R14G22R16R15E36E02E14E30
 122629592.439 5  95378718.752 5                  22940427.469    22940428.715
  22940435.879                          30.700          32.100
 120173040.723 6  93641235.57546                  22868136.852
  22868142.652                          36.900          36.300
 127521111.381 5  99367155.99843                  24266475.000
  24266481.945                          32.000          23.600
 126009376.776 5  98189137.62043  94097915.014 7  23978786.164
  23978795.559    23978794.930          33.600          21.500          44.300
 113784586.783 6  88663417.44347  84969110.339 8  21652499.422
  21652507.465    21652508.191          41.800          44.600          50.000
 112417153.661 6  87435483.600 6                  21059494.500    21059494.242
  21059499.191                          40.400          41.600
 122533733.737 5  95304030.470 6                  22914431.234    22914430.207
  22914435.023                          33.900          36.100
 107268616.772 7  83431037.775 7                  20045675.625    20045675.469
  20045679.406                          43.800          43.700
 110920858.327 7  86431847.49945                  21107530.914
  21107535.371                          43.000          35.100
 115879507.332 6  90295723.17444                  22051134.656
  22051139.531                          38.300          24.700
 128241325.582 4  99928382.59942                  24403530.406
  24403534.387                          29.600          15.600
 120203672.970 6  93491770.200 6                  22526114.570    22526112.617
  22526119.836                          36.300          36.800
 122007336.489 6  95070691.66945  91109411.153 7  23217228.828
  23217236.953    23217237.809          36.300          33.100          45.400
 108697190.145 7  84699182.42246  81170042.165 8  20684397.477
  20684406.055    20684404.426          43.400          36.200          51.700
 119643154.843 6  93055808.836 6                  22444756.344    22444754.652
  22444761.504                          37.000          37.600
 113736329.350 7  88625715.60345                  21643295.867
  21643299.301                          43.500          34.300
 115061212.618 5  89491986.564 6                  21539681.016    21539681.145
  21539684.914                          33.600          36.200
 106041391.379 7  82476547.155 7                  19844173.164    19844173.922
  19844178.211                          44.600          45.100
 128611458.391 7                  96041042.576 7  24473947.242
                  24473952.887          44.700                          47.200
 126433036.698 7                  94414294.833 8  24059407.516
                  24059411.996          46.100                          49.000
 119412318.763 6                  89171554.277 7  22723407.992
                  22723412.984          37.100                          42.300
 120973842.984 7                  90337638.973 8  23020554.133
                  23020559.227          44.900                          49.300
 20  8 16  0 16 12.0000000  0 22R01G17G07G08G03R18R24R17G28G11G19R02
                                G30G01R14G22R16R15E36E02E14E30
 122630190.199 5  95379183.653 5                  22940540.906    22940540.527
  22940547.824                          31.000          31.600
 120171072.455 6  93639701.85746                  22867762.422
  22867768.008                          36.600          36.900
 127524294.027 5  99369635.98643                  24267081.328
  24267087.695                          31.800          23.200
 126011800.766 5  98191026.44543  94099725.127 7  23979247.633
  23979256.801    23979256.125          33.700          21.500          44.100
 113782492.087 7  88661785.20847  84967546.110 8  21652100.922
  21652108.656    21652109.559          42.100          44.800          50.200
 112415686.620 6  87434342.546 6                  21059221.219    21059219.480
  21059224.355                          40.300          41.500
 122536553.509 5  95306223.577 5                  22914959.328    22914957.430
  22914962.488                          33.500          35.800
 107269639.924 7  83431833.582 7                  20045867.477    20045866.586
  20045870.660                          43.700          44.400
 110919188.964 7  86430546.69745                  21107213.438
  21107217.723                          43.000          35.000
 115882030.178 6  90297689.04644                  22051615.070
  22051619.688                          38.800          25.000
 128238558.782 5  99926226.75442                  24403004.148
  24403007.715                          30.700          16.300
 120200640.460 6  93489411.554 6                  22525546.555    22525544.477
  22525551.414                          36.200          36.400
 122009869.355 6  95072665.32745  91111302.565 7  23217711.148
  23217719.070    23217719.734          36.300          33.300          45.300
 108699188.716 7  84700739.74446  81171534.590 8  20684777.641
  20684786.359    20684784.941          43.500          36.000          51.600
 119647500.840 6  93059189.058 6                  22445570.656    22445569.844
  22445576.750                          36.800          37.500
 113736107.044 7  88625542.37845                  21643253.813
  21643257.031                          43.700          34.400
 115058760.436 5  89490079.299 5                  21539223.047    21539222.172
  21539225.887                          32.900          35.700
 106043024.711 7  82477817.516 7                  19844479.359    19844479.785
  19844483.930                          44.900          45.500
 128613150.249 7                  96042305.966 7  24474269.016
                  24474274.941          44.400                          47.200
 126434949.779 7                  94415723.428 8  24059771.695
                  24059776.086          45.800                          49.300
 119406289.091 6                  89167051.628 7  22722260.766
                  22722265.578          37.200                          42.600
 120972993.404 7                  90337004.545 8  23020392.422
                  23020397.582          45.100                          49.200
 20  8 16  0 16 13.0000000  0 22R01G17G07G08G03R18R24R17G28G11G19R02
                                G30G01R14G22R16R15E36E02E14E30
 122630788.686 5  95379649.179 5                  22940654.227    22940652.691
  22940659.645                          30.900          31.300
 120169104.274 6  93638168.20646                  22867388.336
  22867393.547                          36.900          37.200
 127527476.702 5  99372115.99144                  24267685.719
  24267693.289                          31.500          24.200
 126014224.859 5  98192915.36443  94101535.300 7  23979709.016
  23979718.133    23979717.320          33.700          20.900          44.100
 113780397.896 7  88660153.37247  84965982.267 8  21651702.695
  21651710.348    21651711.152          42.000          44.700          50.000
 112414219.845 6  87433201.743 6                  21058946.320    21058944.789
  21058949.582                          40.200          41.800
 122539373.213 5  95308416.685 5                  22915486.008    22915484.707
  22915489.652                          33.100          35.600
 107270663.305 7  83432629.536 7                  20046058.922    20046057.734
  20046061.871                          43.500          44.500
 110917519.992 7  86429246.18945                  21106895.547
  21106900.262                          43.400          34.900
 115884553.155 6  90299654.97044                  22052095.039
  22052099.863                          38.900          24.200
 128235792.032 5  99924070.78742                  24402476.727
  24402480.984                          30.500          16.300
 120197608.280 6  93487053.238 6                  22524978.445    22524976.254
  22524983.109                          36.100          36.700
 122012402.407 6  95074639.13645  91113194.154 7  23218192.648
  23218201.055    23218201.578          36.000          34.100          45.500
 108701187.615 7  84702297.33245  81173027.290 8  20685158.023
  20685166.773    20685165.270          43.400          35.800          51.800
 119651847.118 6  93062569.447 6                  22446386.375    22446384.992
  22446392.238                          36.800          37.300
 113735885.347 7  88625369.62545                  21643211.969
  21643214.809                          43.500          34.100
 115056308.891 5  89488172.539 5                  21538763.109    21538763.465
  21538766.934                          33.400          35.900
 106044658.849 7  82479088.528 7                  19844785.375    19844785.406
  19844789.754                          45.100          45.000
 128614842.150 7                  96043569.405 7  24474591.203
                  24474596.824          44.600                          47.600
 126436863.213 7                  94417152.295 8  24060135.617
                  24060140.160          45.600                          49.700
 119400259.548 6                  89162549.039 7  22721113.336
                  22721118.188          37.400                          42.600
 120972144.248 7                  90336370.437 8  23020230.750
                  23020235.883          45.000                          49.000
 20  8 16  0 16 14.0000000  0 22R01G17G07G08G03R18R24R17G28G11G19R02
                                G30G01R14G22R16R15E36E02E14E30
 122631388.030 5  95380115.293 5                  22940766.445    22940764.734
  22940771.660                          30.900          31.500
 120167136.091 6  93636634.55746                  22867013.766
  22867019.055                          36.900          36.200
 127530659.285 5  99374595.92743                  24268291.414
  24268299.020                          31.300          22.600
 126016648.969 5  98194804.28243  94103345.554 7  23980170.789
  23980179.586    23980178.695          33.200          21.100          44.300
 113778304.241 6  88658521.95347  84964418.819 8  21651304.438
  21651311.750    21651312.754          41.600          44.700          50.000
 112412753.397 6  87432061.141 6                  21058671.367    21058669.770
  21058674.730                          40.100          41.700
 122542192.831 5  95310609.737 6                  22916012.375    22916012.570
  22916016.852                          33.800          36.700
 107271686.894 7  83433425.661 7                  20046250.758    20046249.035
  20046253.219                          43.700          44.100
 110915851.424 7  86427946.00145                  21106577.367
  21106582.582                          43.400          34.600
 115887076.330 6  90301621.10244                  22052574.750
  22052580.000                          38.900          24.900
 128233025.190 4  99921914.77842                  24401950.109
  24401954.531                          29.400          16.300
 120194576.454 6  93484695.132 6                  22524408.578    22524408.496
  22524414.844                          36.400          36.800
 122014935.804 5  95076613.20845  91115085.947 7  23218674.844
  23218683.145    23218683.930          35.800          33.700          44.900
 108703186.961 7  84703855.26246  81174520.280 8  20685538.523
  20685547.266    20685545.617          42.900          36.200          51.500
 119656193.444 6  93065949.982 6                  22447202.508    22447200.711
  22447207.602                          37.100          37.800
 113735664.305 7  88625197.38945                  21643170.016
  21643172.695                          43.200          34.200
 115053858.027 5  89486266.278 6                  21538303.266    21538304.422
  21538308.051                          33.100          36.200
 106046293.842 7  82480360.180 7                  19845091.734    19845091.531
  19845095.805                          45.000          45.300
 128616534.133 7                  96044832.894 7  24474912.977
                  24474918.711          44.300                          47.800
 126438777.010 7                  94418581.434 8  24060499.820
                  24060504.414          45.600                          49.600
 119394230.144 6                  89158046.555 7  22719965.820
                  22719970.770          37.900                          42.300
 120971295.511 7                  90335736.654 8  23020069.336
                  23020074.387          44.700                          48.800
 20  8 16  0 16 15.0000000  0 22R01G17G07G08G03R18R24R17G28G11G19R02
                                G30G01R14G22R16R15E36E02E14E30
 122631988.117 5  95380582.093 5                  22940878.047    22940876.965
  22940883.801                          30.800          31.300
 120165167.973 6  93635100.96446                  22866638.453
  22866644.539                          37.100          36.000
 127533841.865 5  99377075.86444                  24268899.070
  24268904.727                          31.200          24.500
 126019073.253 5  98196693.32343  94105155.870 7  23980632.234
  23980640.922    23980640.066          33.900          21.100          44.500
 113776211.098 6  88656890.93447  84962855.761 8  21650906.188
  21650913.648    21650914.359          41.600          44.600          50.000
 112411287.208 6  87430920.780 6                  21058396.703    21058395.289
  21058400.016                          40.000          41.600
 122545012.464 5  95312802.772 6                  22916540.484    22916539.359
  22916544.363                          33.700          36.800
 107272710.678 7  83434221.933 7                  20046441.477    20046440.551
  20046444.500                          43.800          44.400
 110914183.249 7  86426646.13945                  21106260.586
  21106265.066                          43.600          34.500
 115889599.680 6  90303587.32943                  22053055.375
  22053060.273                          39.000          22.500
 128230258.442 4  99919758.87742                  24401423.195
  24401428.023                          29.900          16.300
 120191545.011 6  93482337.320 6                  22523842.414    22523840.707
  22523846.746                          36.700          36.700
 122017469.411 5  95078587.44345  91116977.950 7  23219157.391
  23219165.441    23219165.863          35.700          33.000          44.800
 108705186.655 7  84705413.45646  81176013.571 8  20685919.711
  20685927.852    20685926.281          42.600          36.600          51.700
 119660540.084 6  93069330.698 6                  22448018.125    22448015.824
  22448022.852                          36.800          37.900
 113735443.895 7  88625025.63745                  21643127.766
  21643130.727                          43.600          34.400
 115051407.835 5  89484360.601 6                  21537846.711    21537845.887
  21537849.375                          33.500          36.300
 106047929.677 7  82481632.507 7                  19845397.922    19845397.508
  19845401.902                          44.700          45.600
 128618226.226 7                  96046096.461 7  24475235.086
                  24475240.793          44.000                          47.800
 126440691.194 7                  94420010.856 8  24060863.828
                  24060868.602          45.500                          49.600
 119388200.848 6                  89153544.166 7  22718818.391
                  22718823.438          37.200                          42.100
 120970447.232 7                  90335103.192 8  23019907.984
                  23019912.965          45.200                          49.000
 20  8 16  0 16 16.0000000  0 22R01G17G07G08G03R18R24R17G28G11G19R02
                                G30G01R14G22R16R15E36E02E14E30
 122632589.117 5  95381049.471 5                  22940990.688    22940989.203
  22940996.191                          30.600          31.000
 120163199.945 6  93633567.42646                  22866264.367
  22866270.023                          36.700          36.300
 127537024.463 5  99379555.80943                  24269504.984
  24269510.449                          30.700          22.600
 126021497.599 5  98198582.42843  94106966.272 7  23981093.938
  23981102.172    23981101.324          33.800          20.900          44.300
 113774118.492 6  88655260.33347  84961293.107 8  21650507.680
  21650515.434    21650516.180          41.600          44.700          50.000
 112409821.297 6  87429780.656 6                  21058121.516    21058120.578
  21058125.438                          40.100          41.800
 122547832.087 5  95314995.806 6                  22917068.094    22917066.852
  22917071.672                          33.800          36.200
 107273734.705 7  83435018.400 7                  20046632.219    20046631.754
  20046636.020                          44.100          44.500
 110912515.497 7  86425346.59045                  21105943.672
  21105947.645                          42.900          34.800
 115892123.195 6  90305553.70044                  22053536.023
  22053540.395                          39.200          24.100
 128227491.659 4  99917602.96442                  24400896.984
  24400901.613                          29.600          16.900
 120188513.887 6  93479979.828 6                  22523272.898    22523272.609
  22523278.563                          36.700          36.700
 122020003.333 5  95080561.93645  91118870.155 7  23219639.313
  23219647.754    23219647.840          35.800          33.200          45.000
 108707186.766 7  84706971.99046  81177507.177 8  20686299.836
  20686308.406    20686306.961          42.200          36.800          51.500
 119664886.951 6  93072711.570 6                  22448832.305    22448831.633
  22448838.340                          36.900          37.700
 113735224.113 7  88624854.38545                  21643085.547
  21643088.977                          43.700          34.500
 115048958.396 5  89482455.478 6                  21537387.328    21537387.113
  21537390.648                          33.500          36.600
 106049566.403 7  82482905.500 7                  19845703.359    19845703.781
  19845708.172                          44.600          45.500
 128619918.400 7                  96047360.102 7  24475557.164
                  24475562.871          44.100                          47.000
 126442605.762 7                  94421440.573 8  24061228.578
                  24061233.023          45.700                          49.400
 119382171.698 6                  89149041.839 6  22717670.758
                  22717676.133          36.800                          41.800
 120969599.389 7                  90334470.072 8  23019746.523
                  23019751.668          45.100                          49.100
 20  8 16  0 16 17.0000000  0 22R01G17G07G08G03R18R24R17G28G11G19R02
                                G30G01R14G22R16R15E36E02E14E30
 122633190.948 5  95381517.551 5                  22941103.078    22941101.973
  22941108.773                          30.500          31.700
 120161231.988 6  93632033.95246                  22865889.539
  22865895.543                          37.600          36.400
 127540207.071 5  99382035.74343                  24270109.805
  24270116.094                          31.300          23.000
 126023922.070 5  98200471.64243  94108776.784 7  23981554.328
  23981563.691    23981562.730          34.500          20.400          44.000
 113772026.456 7  88653630.17547  84959730.867 8  21650109.617
  21650117.313    21650118.191          42.100          44.900          50.000
 112408355.731 6  87428640.742 6                  21057846.609    21057845.895
  21057850.941                          40.400          41.500
 122550651.669 5  95317188.835 6                  22917595.594    22917593.797
  22917598.879                          33.400          36.300
 107274759.020 7  83435815.100 7                  20046824.156    20046823.105
  20046827.441                          43.900          44.600
 110910848.147 7  86424047.35945                  21105625.938
  21105630.391                          43.000          34.800
 115894646.912 6  90307520.24244                  22054015.289
  22054020.660                          39.000          24.000
 128224724.925 4  99915447.02142                  24400370.805
  24400375.145                          29.900          16.900
 120185483.197 6  93477622.646 6                  22522704.922    22522704.789
  22522710.695                          36.300          36.700
 122022537.569 6  95082536.66645  91120762.576 7  23220121.867
  23220130.086    23220130.219          36.000          33.400          45.300
 108709187.306 7  84708530.84646  81179001.070 8  20686680.672
  20686689.246    20686687.516          42.400          37.000          51.600
 119669234.001 6  93076092.638 6                  22449649.867    22449647.047
  22449653.949                          36.700          37.600
 113735005.003 7  88624683.64545                  21643044.109
  21643047.336                          43.900          34.900
 115046509.648 5  89480550.929 6                  21536929.266    21536928.695
  21536932.215                          33.300          36.200
 106051203.986 7  82484179.181 7                  19846010.250    19846010.355
  19846014.668                          44.500          45.300
 128621610.685 7                  96048623.819 7  24475879.109
                  24475884.953          44.300                          47.400
 126444520.743 7                  94422870.581 8  24061592.953
                  24061597.262          45.200                          49.100
 119376142.639 6                  89144539.673 7  22716523.141
                  22716528.605          36.400                          42.100
 120968752.026 7                  90333837.283 8  23019585.156
                  23019590.406          45.200                          49.200
 20  8 16  0 16 18.0000000  0 22R01G17G07G08G03R18R24R17G28G11G19R02
                                G30G01R14G22R16R15E36E02E14E30
 122633793.502 5  95381986.221 5                  22941215.617    22941214.734
  22941221.379                          31.200          31.900
 120159264.051 6  93630500.49846                  22865515.883
  22865521.020                          37.200          36.700
 127543389.713 5  99384515.71243                  24270715.313
  24270721.652                          31.800          22.600
 126026346.679 5  98202360.91843  94110587.344 7  23982015.828
  23982024.977    23982024.285          33.700          20.100          44.200
 113769934.920 7  88652000.40747  84958169.003 8  21649711.883
  21649719.418    21649720.176          42.500          44.800          50.000
 112406890.412 6  87427501.067 6                  21057572.922    21057571.570
  21057576.500                          40.300          41.400
 122553471.216 5  95319381.816 6                  22918120.828    22918121.258
  22918126.160                          33.500          36.000
 107275783.575 7  83436611.967 7                  20047015.695    20047014.363
  20047018.945                          44.000          44.800
 110909181.190 7  86422748.42745                  21105308.820
  21105313.262                          42.800          35.100
 115897170.811 6  90309486.93044                  22054496.047
  22054500.879                          39.200          24.200
 128221958.235 5  99913291.17842                  24399845.305
  24399848.539                          30.300          16.300
 120182452.895 6  93475265.705 6                  22522139.688    22522137.219
  22522142.824                          36.800          36.800
 122025071.989 6  95084511.53645  91122655.181 7  23220603.547
  23220612.453    23220612.309          36.400          33.500          45.400
 108711188.211 7  84710089.99546  81180495.248 8  20687061.125
  20687070.043    20687068.293          42.300          36.400          51.500
 119673581.281 6  93079473.817 6                  22450465.320    22450462.277
  22450469.426                          37.000          37.200
 113734786.497 7  88624513.38545                  21643002.195
  21643005.750                          43.800          34.700
 115044061.632 5  89478646.885 6                  21536470.797    21536470.664
  21536473.930                          33.600          36.500
 106052842.417 7  82485453.505 7                  19846317.211    19846316.816
  19846321.340                          44.100          45.500
 128623303.016 7                  96049887.592 7  24476201.250
                  24476207.031          44.200                          47.400
 126446436.068 7                  94424300.856 8  24061957.289
                  24061961.734          45.600                          49.000
 119370113.781 6                  89140037.562 7  22715376.297
                  22715381.543          37.000                          42.300
 120967905.059 7                  90333204.826 8  23019424.023
                  23019429.148          44.900                          49.600
 20  8 16  0 16 19.0000000  0 22R01G17G07G08G03R18R24R17G28G11G19R02
                                G30G01R14G22R16R15E36E02E14E30
 122634396.846 5  95382455.513 5                  22941329.156    22941327.637
  22941334.238                          30.500          31.400
 120157296.141 6  93628967.06246                  22865140.922
  22865146.582                          37.400          36.300
 127546572.168 5  99386995.54543                  24271320.125
  24271327.070                          31.300          22.500
 126028771.267 5  98204250.22843  94112397.909 7  23982477.594
  23982486.531    23982485.840          33.800          20.100          44.700
 113767843.835 7  88650370.99047  84956607.491 8  21649313.844
  21649321.473    21649322.223          42.500          44.900          50.200
 112405425.322 6  87426361.549 6                  21057297.445    21057296.754
  21057302.023                          40.300          41.700
 122556290.658 5  95321574.719 6                  22918647.773    22918649.137
  22918653.508                          33.800          36.100
 107276808.275 7  83437408.960 7                  20047206.703    20047205.910
  20047210.402                          43.800          44.800
 110907514.559 7  86421449.75645                  21104991.586
  21104996.113                          43.000          34.600
 115899694.809 6  90311453.67444                  22054975.977
  22054981.227                          39.600          24.800
 128219191.481 4  99911135.32042                  24399317.570
  24399321.961                          29.600          15.600
 120179422.867 6  93472909.027 6                  22521571.469    22521569.336
  22521574.965                          36.800          36.900
 122027606.659 6  95086486.61245  91124547.938 7  23221085.742
  23221094.930    23221094.609          36.500          33.400          44.700
 108713189.435 7  84711649.39746  81181989.681 8  20687442.047
  20687450.828    20687449.117          42.300          36.100          51.400
 119677928.657 6  93082855.099 6                  22451280.742    22451278.320
  22451285.023                          36.800          37.600
 113734568.549 7  88624343.55345                  21642961.047
  21642964.164                          43.100          34.500
 115041614.329 5  89476743.431 5                  21536012.563    21536011.906
  21536015.996                          33.700          35.400
 106054481.592 7  82486728.431 7                  19846622.734    19846623.250
  19846627.973                          44.200          45.700
 128624995.395 7                  96051151.370 7  24476523.273
                  24476529.055          44.400                          47.600
 126448351.711 7                  94425731.363 8  24062321.867
                  24062326.383          45.800                          49.000
 119364084.892 6                  89135535.483 7  22714228.633
                  22714234.105          37.000                          42.100
 120967058.497 7                  90332572.639 8  23019262.969
                  23019268.156          45.200                          49.600
 20  8 16  0 16 20.0000000  0 22R01G17G07G08G03R18R24R17G28G11G19R02
                                G30G01R14G22R16R15E36E02E14E30
 122635001.105 5  95382925.493 5                  22941442.313    22941440.938
  22941447.281                          31.400          31.400
 120155328.322 6  93627433.69446                  22864765.727
  22864771.980                          38.000          36.200
 127549754.741 5  99389475.47944                  24271924.563
  24271932.758                          31.300          24.100
 126031196.058 5  98206139.66443  94114208.652 7  23982938.852
  23982947.828    23982947.270          33.900          20.100          44.700
 113765753.390 7  88648742.08047  84955046.444 8  21648915.680
  21648923.707    21648924.402          42.000          44.700          50.000
 112403960.602 6  87425222.326 6                  21057023.320    21057022.656
  21057027.680                          39.900          41.600
 122559110.120 5  95323767.646 6                  22919176.125    22919175.930
  22919180.770                          33.700          36.400
 107277833.265 7  83438206.172 7                  20047399.133    20047397.527
  20047401.992                          43.600          44.800
 110905848.448 7  86420151.48245                  21104674.641
  21104679.078                          43.100          34.500
 115902219.072 6  90313420.62644                  22055456.836
  22055461.664                          39.100          24.700
 128216424.798 4  99908979.44342                  24398791.047
  24398795.336                          29.600          16.300
 120176393.425 6  93470552.726 6                  22521002.203    22521001.152
  22521007.258                          36.500          36.900
 122030141.651 6  95088461.92945  91126440.972 7  23221568.672
  23221577.254    23221576.996          36.700          33.300          44.600
 108715191.156 7  84713209.17346  81183484.478 8  20687823.094
  20687831.844    20687830.004          42.700          36.500          51.800
 119682276.320 6  93086236.639 6                  22452095.984    22452093.773
  22452100.398                          36.600          37.500
 113734351.348 7  88624174.30745                  21642919.500
  21642922.824                          43.200          34.900
 115039167.798 5  89474840.637 5                  21535555.586    21535553.688
  21535557.957                          33.500          35.300
 106056121.710 7  82488004.076 7                  19846930.914    19846930.461
  19846934.844                          44.300          45.500
 128626687.931 7                  96052415.296 7  24476845.117
                  24476850.941          44.100                          47.600
 126450267.806 7                  94427162.226 8  24062686.688
                  24062690.922          45.400                          49.300
 119358056.258 6                  89131033.574 7  22713081.547
                  22713086.855          36.900                          42.300
 120966212.433 7                  90331940.845 8  23019102.016
                  23019107.211          45.100                          49.400
 20  8 16  0 16 21.0000000  0 22R01G17G07G08G03R18R24R17G28G11G19R02
                                G30G01R14G22R16R15E36E02E14E30
 122635606.187 5  95383396.050 5                  22941556.664    22941554.012
  22941560.453                          31.100          31.200
 120153360.569 6  93625900.37846                  22864392.469
  22864397.543                          37.200          36.100
 127552937.69115  99391955.81754                  24272530.383
  24272538.508                          32.000          24.100
 126033620.958 5  98208029.21143  94116019.441 7  23983401.000
  23983409.402    23983408.816          34.000          20.400          44.600
 113763663.433 7  88647113.53847  84953485.775 8  21648518.094
  21648525.922    21648526.684          42.000          44.800          50.100
 112402496.146 6  87424083.289 6                  21056748.641    21056747.824
  21056753.391                          40.200          41.900
 122561929.544 5  95325960.512 6                  22919703.578    22919702.664
  22919707.875                          33.200          36.500
 107278858.474 7  83439003.550 7                  20047591.102    20047589.273
  20047593.531                          43.700          44.500
 110904182.682 7  86418853.48645                  21104357.344
  21104361.992                          43.200          34.600
 115904743.510 6  90315387.74344                  22055936.625
  22055942.133                          39.000          24.100
 128213658.141 5  99906823.54842                  24398264.570
  24398268.945                          30.300          15.600
 120173364.307 6  93468196.805 6                  22520436.281    22520433.684
  22520439.676                          36.500          36.600
 122032676.879 6  95090437.43645  91128334.173 7  23222051.063
  23222059.719    23222059.402          36.200          33.200          45.000
 108717193.236 7  84714769.24246  81184979.538 8  20688203.711
  20688212.910    20688211.035          42.400          36.200          51.500
 119686624.254 6  93089618.337 6                  22452910.641    22452909.676
  22452916.000                          36.600          37.900
 113734134.720 7  88624005.50545                  21642878.828
  21642881.672                          44.100          34.700
 115036721.951 5  89472938.274 6                  21535097.219    21535096.066
  21535100.082                          33.700          36.100
 106057762.689 7  82489280.378 7                  19847237.594    19847237.582
  19847241.848                          44.500          45.400
 128628380.560 7                  96053679.257 7  24477167.484
                  24477173.113          44.400                          47.700
 126452184.279 7                  94428593.346 8  24063051.078
                  24063055.656          45.000                          49.600
 119352027.697 6                  89126531.744 7  22711934.703
                  22711939.652          36.800                          42.200
 120965366.800 7                  90331309.355 8  23018941.117
                  23018946.172          44.900                          49.300
 20  8 16  0 16 22.0000000  0 22R01G17G07G08G03R18R24R17G28G11G19R02
                                G30G01R14G22R16R15E36E02E14E30
 122636211.981 5  95383867.295 5                  22941669.758    22941667.238
  22941673.863                          31.100          31.400
 120151392.837 6  93624367.08246                  22864017.859
  22864023.043                          37.800          36.200
 127556120.262 5  99394435.73843                  24273135.852
  24273144.031                          30.800          23.900
 126036045.921 5  98209918.79343  94117830.309 7  23983861.484
  23983870.793    23983870.367          34.100          20.100          44.500
 113761574.016 6  88645485.42047  84951925.477 8  21648120.266
  21648128.234    21648128.949          41.700          44.600          50.000
 112401031.984 6  87422944.505 6                  21056474.531    21056473.691
  21056479.176                          40.500          41.800
 122564748.992 5  95328153.419 6                  22920230.266    22920229.645
  22920235.207                          32.500          36.000
 107279883.879 7  83439801.091 7                  20047782.031    20047780.766
  20047785.172                          43.300          44.500
 110902517.339 7  86417555.81745                  21104040.453
  21104045.125                          42.800          35.000
 115907268.081 6  90317354.92544                  22056417.000
  22056422.656                          39.100          24.700
 128210891.498 5  99904667.67742                  24397738.766
  24397742.449                          30.500          15.600
 120170335.599 6  93465841.105 6                  22519866.758    22519866.191
  22519872.121                          36.400          36.900
 122035212.407 6  95092413.16145  91130227.581 7  23222533.320
  23222542.199    23222541.789          36.400          33.800          44.400
 108719195.696 7  84716329.60146  81186474.889 8  20688585.125
  20688593.828    20688592.043          42.600          36.200          51.500
 119690972.275 6  93093000.166 6                  22453726.797    22453725.203
  22453731.781                          36.800          37.900
 113733918.722 7  88623837.20245                  21642837.055
  21642840.781                          43.700          34.800
 115034276.815 5  89471036.468 5                  21534639.461    21534638.395
  21534642.441                          33.500          35.800
 106059404.484 7  82490557.344 7                  19847545.609    19847544.785
  19847549.141                          44.400          45.400
 128630073.242 7                  96054943.267 7  24477489.703
                  24477495.367          44.200                          47.300
 126454101.083 7                  94430024.734 8  24063415.719
                  24063420.453          45.600                          49.400
 119345999.264 6                  89122030.013 7  22710787.438
                  22710792.172          36.400                          42.200
 120964521.580 7                  90330678.199 8  23018780.148
                  23018785.352          44.800                          49.800
 20  8 16  0 16 23.0000000  0 22R01G17G07G08G03R18R24R17G28G11G19R02
                                G30G01R14G22R16R15E36E02E14E30
 122636818.629 5  95384339.093 5                  22941781.414    22941781.246
  22941787.281                          31.100          31.900
 120149425.186 6  93622833.85146                  22863642.672
  22863648.793                          36.900          36.400
 127559302.234 5  99396915.09643                  24273742.273
  24273749.551                          31.000          22.600
 126038471.013 5  98211808.48743  94119641.269 7  23984322.680
  23984332.301    23984331.938          34.200          19.900          44.500
 113759485.116 6  88643857.70147  84950365.586 8  21647723.375
  21647730.914    21647731.605          41.400          44.900          50.000
 112399568.120 6  87421805.965 7                  21056200.695    21056199.566
  21056204.898                          40.600          42.100
 122567568.341 5  95330346.280 6                  22920758.109    22920756.906
  22920762.363                          32.200          36.100
 107280909.573 7  83440598.867 7                  20047973.203    20047972.430
  20047976.707                          43.100          44.700
 110900852.371 7  86416258.43545                  21103723.773
  21103728.203                          43.000          34.900
 115909792.874 6  90319322.29743                  22056897.781
  22056903.156                          39.000          22.500
 128208124.893 5  99902511.92142                  24397212.594
  24397216.043                          30.700          16.300
 120167307.284 6  93463485.808 6                  22519299.773    22519298.934
  22519304.629                          36.700          36.900
 122037748.175 6  95094389.08545  91132121.196 7  23223015.570
  23223024.836    23223024.375          36.500          33.300          44.600
 108721198.560 7  84717890.27846  81187970.533 8  20688966.344
  20688974.883    20688973.199          42.900          36.400          51.700
 119695320.561 6  93096382.129 6                  22454542.828    22454541.055
  22454547.484                          36.800          38.000
 113733703.382 7  88623669.40145                  21642796.523
  21642799.793                          43.700          34.700
 115031832.371 5  89469135.241 5                  21534181.430    21534180.938
  21534184.789                          33.400          35.800
 106061047.132 7  82491834.960 7                  19847851.859    19847852.078
  19847856.637                          44.600          45.500
 128631766.017 7                  96056207.355 7  24477811.703
                  24477817.371          44.200                          47.400
 126456018.296 7                  94431456.415 8  24063780.578
                  24063785.234          45.900                          49.300
 119339970.942 6                  89117528.356 6  22709639.813
                  22709645.047          36.700                          41.500
 120963676.827 7                  90330047.363 8  23018619.375
                  23018624.633          45.200                          49.700
 20  8 16  0 16 24.0000000  0 22R01G17G07G08G03R18R24R17G28G11G19R02
                                G30G01R14G22R16R15E36E02E14E30
 122637426.093 5  95384811.555 5                  22941895.547    22941894.695
  22941900.926                          30.500          31.800
 120147457.569 6  93621300.64346                  22863268.773
  22863274.273                          37.200          36.300
 127562484.691 5  99399394.91843                  24274348.344
  24274355.066                          31.000          22.300
 126040896.225 5  98213698.23743  94121452.285 7  23984784.242
  23984793.742    23984793.262          34.000          20.100          43.900
 113757396.774 6  88642230.42047  84948806.110 8  21647325.195
  21647333.574    21647334.070          41.900          44.600          50.200
 112398104.529 6  87420667.573 7                  21055927.086    21055925.328
  21055930.801                          40.800          42.100
 122570387.679 5  95332539.072 6                  22921286.266    22921284.238
  22921289.531                          32.900          36.100
 107281935.505 7  83441396.799 7                  20048165.375    20048164.320
  20048168.535                          43.000          45.200
 110899187.821 7  86414961.38045                  21103407.055
  21103411.512                          42.600          35.100
 115912317.807 6  90321289.76643                  22057378.188
  22057383.512                          39.600          23.600
 128205358.266 5  99900356.13442                  24396685.648
  24396689.641                          30.300          15.600
 120164279.341 6  93461130.743 6                  22518732.992    22518731.902
  22518737.262                          36.700          37.000
 122040284.231 5  95096365.23845  91134015.002 7  23223499.070
  23223507.512    23223506.762          35.800          32.200          44.600
 108723201.841 7  84719451.27346  81189466.482 8  20689347.648
  20689356.168    20689354.340          42.800          36.200          51.700
 119699669.013 6  93099764.258 6                  22455358.484    22455356.699
  22455363.184                          36.800          38.000
 113733488.668 7  88623502.09145                  21642755.766
  21642758.742                          43.800          34.700
 115029388.669 5  89467234.607 6                  21533724.336    21533723.055
  21533727.309                          32.600          36.000
 106062690.608 7  82493113.212 7                  19848161.094    19848159.637
  19848164.121                          44.700          45.100
 128633458.899 7                  96057471.513 7  24478133.883
                  24478139.492          44.200                          47.800
 126457935.888 7                  94432888.375 8  24064145.664
                  24064150.117          45.800                          49.400
 119333942.789 6                  89113026.778 6  22708492.789
                  22708497.891          36.100                          41.500
 120962832.511 7                  90329416.862 8  23018458.555
                  23018463.918          44.900                          49.100
 20  8 16  0 16 25.0000000  0 22R01G17G07G08G03R18R24R17G28G11G19R02
                                G30G01R14G22R16R15E36E02E14E30
 122638034.298 5  95385284.682 5                  22942008.688    22942008.766
  22942014.691                          30.500          31.600
 120145489.992 6  93619767.46345                  22862893.375
  22862899.715                          37.500          35.600
 127565667.162 5  99401874.75844                  24274954.578
  24274960.578                          31.200          24.300
 126043321.474 5  98215588.05343  94123263.351 7  23985246.227
  23985255.188    23985254.805          34.100          19.300          44.100
 113755308.889 6  88640603.50647  84947246.988 8  21646927.539
  21646936.023    21646936.805          41.700          44.500          50.200
 112396641.125 6  87419529.391 7                  21055651.383    21055651.453
  21055656.645                          40.700          42.100
 122573206.957 5  95334731.831 6                  22921812.648    22921811.543
  22921816.758                          32.900          36.200
 107282961.580 7  83442194.860 7                  20048356.406    20048355.680
  20048360.215                          43.000          44.500
 110897523.636 7  86413664.61145                  21103090.656
  21103095.031                          42.600          35.200
 115914842.889 6  90323257.39344                  22057858.641
  22057864.086                          39.400          25.400
 128202591.690 5  99898200.37542                  24396159.281
  24396163.367                          31.000          15.600
 120161251.819 6  93458775.984 6                  22518165.039    22518164.535
  22518169.895                          37.300          36.800
 122042820.541 5  95098341.58145  91135908.976 7  23223981.781
  23223990.168    23223989.406          35.800          33.400          44.700
 108725205.466 7  84721012.53946  81190962.687 8  20689728.617
  20689737.434    20689735.637          43.200          36.200          51.700
 119704017.647 6  93103146.574 6                  22456173.469    22456172.570
  22456178.922                          37.200          38.000
 113733274.536 7  88623335.23745                  21642715.063
  21642718.031                          43.900          34.600
 115026945.686 5  89465334.516 6                  21533265.602    21533265.676
  21533269.965                          33.000          36.200
 106064334.897 7  82494392.104 7                  19848467.656    19848467.328
  19848471.875                          44.900          45.500
 128635151.794 7                  96058735.704 7  24478456.039
                  24478461.664          44.700                          47.700
 126459853.810 7                  94434320.591 8  24064510.602
                  24064515.086          46.000                          49.300
 119327914.680 6                  89108525.273 6  22707345.273
                  22707350.680          36.500                          41.500
 120961988.576 7                  90328786.670 8  23018298.016
                  23018303.297          44.900                          49.400
 20  8 16  0 16 26.0000000  0 22R01G17G07G08G03R18R24R17G28G11G19R02
                                G30G01R14G22R16R15E36E02E14E30
 122638643.421 4  95385758.386 5                  22942122.797    22942122.449
  22942128.648                          29.900          31.400
 120143522.451 6  93618234.31946                  22862519.641
  22862525.324                          37.600          36.100
 127568849.523 5  99404354.51144                  24275560.031
  24275566.215                          31.600          24.500
 126045746.901 5  98217478.00743  94125074.500 7  23985708.219
  23985716.754    23985716.156          34.100          20.100          44.000
 113753221.583 6  88638977.02747  84945688.266 8  21646530.703
  21646538.863    21646539.527          41.600          44.700          50.000
 112395178.053 6  87418391.433 7                  21055378.273    21055377.277
  21055382.684                          40.900          42.300
 122576026.185 5  95336924.552 6                  22922338.859    22922338.145
  22922344.047                          32.700          36.000
 107283987.884 7  83442993.093 7                  20048548.563    20048547.359
  20048552.039                          43.200          44.900
 110895859.889 7  86412368.18545                  21102773.688
  21102778.328                          43.000          34.800
 115917368.150 6  90325225.10544                  22058339.758
  22058344.566                          39.700          24.400
 128199825.113 4  99896044.60442                  24395633.461
  24395636.859                          29.900          14.800
 120158224.656 6  93456421.496 6                  22517595.773    22517597.012
  22517602.820                          37.200          36.200
 122045357.102 6  95100318.12045  91137803.158 7  23224464.375
  23224472.773    23224472.102          36.000          33.100          44.500
 108727209.469 7  84722574.09746  81192459.184 8  20690110.125
  20690118.695    20690117.008          42.900          36.700          52.000
 119708366.562 6  93106529.021 6                  22456989.328    22456988.539
  22456994.738                          37.400          37.500
 113733061.052 7  88623168.87845                  21642674.211
  21642677.355                          43.600          33.800
 115024503.449 5  89463434.960 6                  21532808.844    21532808.203
  21532812.758                          33.200          36.500
 106065980.033 7  82495671.653 7                  19848775.695    19848775.281
  19848779.688                          44.900          45.500
 128636844.821 7                  96059999.958 7  24478778.117
                  24478783.871          44.600                          47.800
 126461772.106 7                  94435753.099 8  24064875.602
                  24064880.133          46.000                          49.100
 119321886.693 6                  89104023.894 6  22706198.344
                  22706203.473          37.000                          41.900
 120961145.106 7                  90328156.803 8  23018137.484
                  23018142.797          44.800                          49.600
 20  8 16  0 16 27.0000000  0 22R01G17G07G08G03R18R24R17G28G11G19R02
                                G30G01R14G22R16R15E36E02E14E30
 122639253.318 5  95386232.780 5                  22942235.984    22942235.773
  22942242.770                          31.000          31.200
 120141554.961 6  93616701.21645                  22862144.945
  22862150.738                          37.100          35.900
 127572031.924 5  99406834.30244                  24276164.703
  24276171.820                          31.000          25.200
 126048172.363 5  98219367.94243  94126885.744 7  23986170.063
  23986178.387    23986177.840          34.100          19.900          43.900
 113751134.771 6  88637350.94847  84944129.942 8  21646134.383
  21646141.742    21646142.445          41.100          44.600          49.800
 112393715.253 6  87417253.723 7                  21055103.773    21055103.621
  21055108.629                          40.400          42.100
 122578845.421 5  95339117.275 6                  22922866.000    22922865.309
  22922871.191                          32.700          36.500
 107285014.383 7  83443791.491 7                  20048740.930    20048739.406
  20048743.984                          43.400          44.700
 110894196.508 7  86411072.04945                  21102456.633
  21102461.707                          42.600          35.600
 115919893.617 6  90327193.00044                  22058819.617
  22058825.059                          39.000          24.900
 128197058.509 5  99893888.81642                  24395106.500
  24395110.488                          30.700          16.900
 120155197.877 6  93454067.371 6                  22517030.086    22517029.762
  22517035.668                          37.200          36.800
 122047893.912 5  95102294.85445  91139697.542 7  23224946.617
  23224955.547    23224955.035          35.800          33.200          44.700
 108729213.876 7  84724135.96846  81193955.986 8  20690491.781
  20690500.117    20690498.441          42.900          36.500          51.900
 119712715.598 6  93109911.650 6                  22457805.672    22457804.555
  22457810.762                          37.500          37.400
 113732848.201 7  88623003.02545                  21642633.828
  21642636.953                          43.300          33.800
 115022061.819 5  89461535.920 6                  21532353.539    21532351.316
  21532355.582                          32.900          36.300
 106067626.020 7  82496951.866 7                  19849083.813    19849083.582
  19849087.719                          45.000          45.600
 128638537.916 7                  96061264.288 7  24479100.211
                  24479106.023          44.900                          47.500
 126463690.779 7                  94437185.871 8  24065240.836
                  24065245.156          45.800                          49.200
 119315858.837 6                  89099522.554 6  22705051.211
                  22705056.328          36.800                          41.800
 120960302.076 7                  90327527.254 8  23017977.117
                  23017982.309          44.800                          49.800
 20  8 16  0 16 28.0000000  0 22R01G17G07G08G03R18R24R17G28G11G19R02
                                G30G01R14G22R16R15E36E02E14E30
 122639864.005 5  95386707.761 5                  22942350.664    22942350.617
  22942357.047                          30.900          31.600
 120139587.557 6  93615168.17245                  22861770.453
  22861776.344                          37.400          35.900
 127575214.346 5  99409314.10144                  24276770.430
  24276777.500                          31.800          24.400
 126050597.941 5  98221258.02143  94128697.042 7  23986630.922
  23986639.922    23986639.348          34.300          19.900          43.900
 113749048.491 6  88635725.27347  84942572.013 8  21645737.102
  21645744.805    21645745.457          41.600          44.600          50.100
 112392252.771 6  87416116.233 7                  21054829.875    21054829.621
  21054834.754                          40.400          42.300
 122581664.602 5  95341309.968 6                  22923394.781    22923392.910
  22923398.328                          32.800          36.400
 107286041.156 7  83444590.081 7                  20048931.789    20048931.371
  20048935.828                          43.600          44.800
 110892533.522 7  86409776.21245                  21102140.430
  21102145.262                          42.200          35.000
 115922419.218 6  90329160.99444                  22059301.617
  22059305.535                          39.400          25.100
 128194291.940 5  99891733.04942                  24394580.055
  24394583.918                          30.700          16.300
 120152171.406 6  93451713.454 6                  22516462.953    22516462.633
  22516468.379                          37.100          36.900
 122050431.018 5  95104271.82045  91141592.108 7  23225429.719
  23225438.551    23225437.676          35.700          33.600          44.800
 108731218.661 7  84725698.14446  81195453.064 8  20690872.906
  20690881.582    20690879.887          42.500          36.400          51.900
 119717064.875 6  93113294.414 6                  22458621.164    22458620.492
  22458626.672                          37.300          38.000
 113732635.974 7  88622837.64845                  21642593.219
  21642596.484                          43.200          34.000
 115019620.859 5  89459637.405 6                  21531895.469    21531894.379
  21531898.555                          32.500          36.200
 106069272.860 7  82498232.743 7                  19849391.656    19849391.391
  19849395.938                          44.600          45.500
 128640231.078 7                  96062528.668 7  24479422.477
                  24479428.160          44.400                          47.400
 126465609.828 7                  94438618.926 8  24065605.703
                  24065610.375          45.600                          49.000
 119309831.125 6                  89095021.339 6  22703904.313
                  22703909.348          36.500                          41.900
 120959459.463 7                  90326898.038 8  23017816.898
                  23017822.137          45.300                          49.800
 20  8 16  0 16 29.0000000  0 22R01G17G07G08G03R18R24R17G28G11G19R02
                                G30G01R14G22R16R15E36E02E14E30
 122640475.544 5  95387183.372 5                  22942464.344    22942464.887
  22942471.461                          31.100          31.000
 120137620.181 6  93613635.15646                  22861396.688
  22861402.000                          37.300          36.100
 127578396.684 5  99411793.85643                  24277375.930
  24277383.086                          31.600          22.500
 126053023.632 5  98223148.18343  94130508.422 7  23987092.766
  23987101.418    23987100.953          34.300          21.100          44.000
 113746962.759 6  88634100.03247  84941014.478 8  21645340.109
  21645347.758    21645348.496          41.400          44.600          50.100
 112390790.626 6  87414978.978 7                  21054556.133    21054555.785
  21054560.906                          40.300          42.100
 122584483.762 5  95343502.646 6                  22923922.516    22923920.027
  22923925.480                          32.800          36.000
 107287068.198 7  83445388.897 7                  20049124.383    20049123.203
  20049127.832                          44.100          44.900
 110890870.967 7  86408480.71145                  21101824.469
  21101828.973                          42.300          34.900
 115924945.012 6  90331129.15344                  22059781.680
  22059786.152                          39.400          25.400
 128191525.404 5  99889577.30342                  24394054.039
  24394057.480                          31.200          15.600
 120149145.407 6  93449359.911 6                  22515895.805    22515895.430
  22515901.281                          37.100          37.300
 122052968.315 6  95106248.93445  91143486.891 7  23225911.648
  23225921.484    23225920.516          36.100          33.100          45.300
 108733223.834 7  84727260.61846  81196950.447 8  20691254.609
  20691263.238    20691261.559          42.400          36.400          51.600
 119721414.374 6  93116677.321 6                  22459437.141    22459436.707
  22459442.484                          37.500          37.900
 113732424.389 7  88622672.78645                  21642552.977
  21642556.188                          43.000          34.400
 115017180.650 5  89457739.482 5                  21531438.836    21531437.680
  21531441.801                          33.200          35.800
 106070920.583 7  82499514.304 7                  19849700.336    19849699.855
  19849704.309                          44.700          45.300
 128641924.328 7                  96063793.121 7  24479744.758
                  24479750.395          44.300                          47.200
 126467529.266 7                  94440052.264 8  24065971.094
                  24065975.543          45.600                          49.100
 119303803.503 6                  89090520.232 6  22702756.930
                  22702762.203          36.000                          41.600
 120958617.298 7                  90326269.159 8  23017656.469
                  23017661.805          45.400                          49.500
 20  8 16  0 16 30.0000000  0 22R01G17G07G08G03R18R24R17G28G11G19R02
                                G30G01R14G22R16R15E36E02E14E30
 122641087.908 5  95387659.658 5                  22942580.086    22942579.504
  22942585.992                          30.600          30.900
 120135652.882 6  93612102.19745                  22861022.008
  22861027.414                          37.300          35.500
 127581579.019 5  99414273.59243                  24277981.789
  24277988.547                          30.100          22.800
 126055449.416 5  98225038.38343  94132319.895 7  23987554.547
  23987563.035    23987562.453          34.300          20.600          44.300
 113744877.544 6  88632475.19247  84939457.345 8  21644943.594
  21644950.957    21644951.637          41.400          44.400          50.000
 112389328.721 6  87413841.975 6                  21054282.875    21054282.031
  21054287.199                          40.600          41.400
 122587302.884 5  95345695.298 6                  22924448.633    22924447.164
  22924452.641                          33.700          36.000
 107288095.444 7  83446187.883 7                  20049316.055    20049315.063
  20049319.785                          43.800          44.300
 110889208.795 7  86407185.51545                  21101507.734
  21101512.930                          42.300          34.700
 115927471.021 6  90333097.47144                  22060262.742
  22060266.891                          39.000          25.300
 128188758.902 5  99887421.60042                  24393528.414
  24393531.039                          32.000          15.600
 120146119.761 6  93447006.607 6                  22515329.992    22515328.297
  22515334.258                          37.200          37.100
 122055505.976 5  95108226.33845  91145381.857 7  23226394.500
  23226404.051    23226403.430          35.400          32.900          45.300
 108735229.413 7  84728823.39946  81198448.121 8  20691636.586
  20691644.895    20691643.188          42.400          36.400          51.500
 119725764.068 6  93120060.410 6                  22460253.664    22460252.586
  22460258.629                          37.100          37.700
 113732213.441 7  88622508.41645                  21642512.320
  21642515.898                          43.200          34.300
 115014741.124 5  89455842.077 5                  21530982.953    21530981.246
  21530985.148                          33.300          35.900
 106072569.127 7  82500796.508 7                  19850008.328    19850008.414
  19850012.832                          44.900          45.000
 128643617.690 7                  96065057.632 7  24480067.063
                  24480072.656          44.000                          47.000
 126469449.059 7                  94441485.881 8  24066336.391
                  24066341.023          45.400                          48.900
 119297776.029 6                  89086019.182 6  22701610.078
                  22701615.324          36.000                          41.800
 120957775.591 7                  90325640.606 8  23017496.570
                  23017501.477          45.100                          48.600
 20  8 16  0 16 31.0000000  0 22R01G17G07G08G03R18R24R17G28G11G19R02
                                G30G01R14G22R16R15E36E02E14E30
 122641701.031 5  95388136.551 5                  22942693.516    22942694.273
  22942700.617                          30.900          31.400
 120133685.666 6  93610569.29646                  22860647.523
  22860653.180                          36.700          36.000
 127584761.351 5  99416753.33243                  24278587.484
  24278593.961                          30.300          22.800
 126057875.338 5  98226928.71643  94134131.456 7  23988015.656
  23988024.688    23988023.852          34.300          20.900          44.400
 113742792.848 6  88630850.75547  84937900.609 8  21644547.117
  21644554.340    21644554.914          41.600          44.700          50.200
 112387867.106 6  87412705.166 6                  21054009.102    21054008.266
  21054013.387                          40.200          41.900
 122590121.957 5  95347887.918 5                  22924974.352    22924974.031
  22924979.891                          33.400          35.900
 107289122.921 7  83446987.013 7                  20049508.438    20049507.324
  20049511.734                          44.000          44.800
 110887547.056 7  86405890.65645                  21101191.289
  21101196.738                          42.100          34.900
 115929997.178 6  90335065.89743                  22060742.742
  22060747.582                          39.100          23.200
 128185992.384 5  99885265.84942                  24393000.734
  24393004.770                          31.000          15.600
 120143094.518 6  93444653.690 6                  22514763.789    22514761.727
  22514767.367                          37.000          37.300
 122058043.839 5  95110203.88345  91147277.051 7  23226877.961
  23226887.082    23226886.387          35.200          33.100          45.100
 108737235.416 7  84730386.52346  81199946.094 8  20692018.000
  20692026.633    20692024.863          42.800          36.400          51.200
 119730113.934 6  93123443.645 6                  22461069.500    22461068.723
  22461074.871                          37.000          38.300
 113732003.138 7  88622344.54545                  21642472.898
  21642475.953                          43.200          33.700
 115012302.415 5  89453945.279 5                  21530524.977    21530524.492
  21530528.621                          33.300          35.700
 106074218.505 7  82502079.359 7                  19850317.219    19850317.074
  19850321.484                          45.000          45.300
 128645311.141 7                  96066322.227 7  24480389.203
                  24480394.988          44.100                          47.400
 126471369.262 7                  94442919.799 8  24066701.836
                  24066706.375          45.600                          48.900
 119291748.707 6                  89081518.239 6  22700463.133
                  22700468.164          36.200                          41.800
 120956934.316 7                  90325012.376 8  23017336.359
                  23017341.555          45.100                          48.800
 20  8 16  0 16 32.0000000  0 22R01G17G07G08G03R18R24R17G28G11G19R02
                                G30G01R14G22R16R15E36E02E14E30
 122642314.994 5  95388614.075 5                  22942808.297    22942808.664
  22942815.527                          31.000          31.200
 120131718.380 6  93609036.34446                  22860273.359
  22860278.684                          37.300          36.300
 127587943.683 5  99419233.07343                  24279193.078
  24279199.492                          30.800          23.500
 126060301.323 5  98228819.12143  94135943.064 7  23988477.617
  23988486.336    23988485.605          34.000          20.900          44.500
 113740708.686 6  88629226.72847  84936344.240 8  21644150.234
  21644157.695    21644158.461          41.700          44.600          50.200
 112386405.705 6  87411568.508 7                  21053734.773    21053734.797
  21053739.574                          40.200          42.100
 122592940.931 5  95350080.464 5                  22925501.734    22925501.234
  22925506.980                          33.500          35.900
 107290150.571 7  83447786.305 7                  20049700.172    20049699.156
  20049703.789                          44.100          44.700
 110885885.663 7  86404596.05845                  21100875.195
  21100880.594                          42.300          34.900
 115932523.457 6  90337034.43644                  22061223.617
  22061228.348                          38.900          24.700
 128183225.889 5  99883110.16242                  24392474.539
  24392478.270                          31.800          13.900
 120140069.682 6  93442300.979 6                  22514195.891    22514194.355
  22514200.539                          36.700          37.100
 122060581.995 5  95112181.66345  91149172.418 7  23227360.492
  23227370.125    23227369.270          35.400          33.300          45.000
 108739241.729 7  84731949.87946  81201444.323 8  20692399.727
  20692408.406    20692406.637          42.100          36.200          51.600
 119734463.990 6  93126827.014 6                  22461885.336    22461884.570
  22461890.891                          37.000          38.400
 113731793.394 7  88622181.10845                  21642433.008
  21642436.156                          43.200          34.600
 115009864.384 5  89452049.048 5                  21530068.867    21530068.223
  21530072.160                          33.300          35.700
 106075868.684 7  82503362.843 7                  19850625.289    19850625.707
  19850630.297                          44.800          45.400
 128647004.616 7                  96067586.828 7  24480711.500
                  24480717.184          44.300                          47.400
 126473289.762 7                  94444353.949 8  24067067.375
                  24067071.820          45.900                          49.100
 119285721.459 6                  89077017.379 6  22699316.344
                  22699321.141          36.300                          41.700
 120956093.444 7                  90324384.450 8  23017176.539
                  23017181.504          45.300                          49.000
 20  8 16  0 16 33.0000000  0 22R01G17G07G08G03R18R24R17G28G11G19R02
                                G30G01R14G22R16R15E36E02E14E30
 122642929.698 5  95389092.149 5                  22942924.445    22942924.625
  22942930.574                          30.500          32.200
 120129751.189 6  93607503.48346                  22859898.539
  22859904.340                          37.600          36.800
 127591125.891 5  99421712.70944                  24279798.680
  24279804.891                          30.700          24.400
 126062727.358 5  98230709.53743  94137754.744 7  23988939.977
  23988948.047    23988947.156          33.800          20.900          44.100
 113738625.044 6  88627603.11247  84934788.279 8  21643752.742
  21643761.219    21643761.922          41.700          44.500          50.100
 112384944.620 6  87410432.145 7                  21053461.352    21053461.008
  21053465.871                          40.100          42.100
 122595759.932 5  95352273.000 5                  22926029.836    22926028.395
  22926034.188                          34.100          35.900
 107291178.512 7  83448585.806 7                  20049892.563    20049891.164
  20049895.922                          44.300          44.100
 110884224.700 7  86403301.80145                  21100559.438
  21100564.387                          42.100          34.900
 115935049.980 6  90339003.13944                  22061704.336
  22061709.219                          39.200          24.300
 128180459.373 5  99880954.41942                  24391947.820
  24391951.730                          31.800          14.800
 120137045.243 6  93439948.669 6                  22513628.766    22513627.492
  22513633.695                          36.900          37.000
 122063120.396 5  95114159.63945  91151067.962 7  23227843.563
  23227853.168    23227852.395          35.500          32.800          44.900
 108741248.486 7  84733513.59146  81202942.870 8  20692781.000
  20692790.168    20692788.410          42.500          36.400          51.600
 119738814.252 6  93130210.585 6                  22462701.914    22462700.363
  22462706.953                          36.900          38.300
 113731584.324 7  88622018.19945                  21642393.422
  21642396.270                          43.200          34.600
 115007427.042 5  89450153.327 6                  21529611.906    21529611.895
  21529615.887                          33.300          36.100
 106077519.769 7  82504647.007 7                  19850934.477    19850934.664
  19850939.434                          45.000          45.500
 128648698.207 7                  96068851.524 7  24481033.844
                  24481039.473          44.300                          47.600
 126475210.689 7                  94445788.388 8  24067433.094
                  24067437.395          45.600                          49.000
 119279694.311 6                  89072516.601 6  22698169.422
                  22698174.465          36.500                          41.700
 120955253.011 7                  90323756.862 8  23017016.469
                  23017021.492          45.600                          49.100
