     2.11           OBSERVATION DATA    M (MIXED)           RINEX VERSION / TYPE
teqc  2016Nov7      KASI/KOREA          20200816 00:18:14UTCPGM / RUN BY / DATE
Linux 2.4.20-8|Pentium IV|gcc|Linux|486/DX+                 COMMENT
  0.0000      (antenna height)                              COMMENT
 +36.39942714 (latitude)                                    COMMENT
+127.37448264 (longitude)                                   COMMENT
0116.859      (elevation)                                   COMMENT
BIT 2 OF LLI FLAGS DATA COLLECTED UNDER A/S CONDITION       COMMENT
23902M002 (COGO code)                                       COMMENT
DAEJ                                                        MARKER NAME
23902M002                                                   MARKER NUMBER
KASI GPS            KASI/KOREA                              OBSERVER / AGENCY
5412K48145          TRIMBLE NETR9       5.44                REC # / TYPE / VERS
4923363230          TRM59800.00     SCIS                    ANT # / TYPE
 -3120042.6501  4084614.3432  3764027.4767                  APPROX POSITION XYZ
        0.0000        0.0000        0.0000                  ANTENNA: DELTA H/E/N
     1     1                                                WAVELENGTH FACT L1/2
    10    L1    L2    L5    C1    P1    P2    C5    S1    S2# / TYPES OF OBSERV
          S5                                                # / TYPES OF OBSERV
    18                                                      LEAP SECONDS
 SNR is mapped to RINEX snr flag value [0-9]                COMMENT
  L1 & L2: min(max(int(snr_dBHz/6), 0), 9)                  COMMENT
  2020     8    16     0     0    0.0000000     GPS         TIME OF FIRST OBS
                                                            END OF HEADER
 20  8 16  0  0  0.0000000  0 22R01G17G07G08G03R18R24R17G28G11R02G30
                                G01R14G22R16R15E36E02E25E14E30
 122430855.042 5  95224144.400 4                  22903250.688    22903251.227
  22903258.434                          30.100          27.800
 122107934.005 6  95148944.04445                  23236334.484
  23236341.496                          36.200          33.900
 124439559.964 5  96965949.18945                  23680074.156
  23680079.992                          34.200          30.300
 123702686.050 5  96391717.23043  92375387.344 7  23539836.102
  23539846.074    23539845.297          35.700          21.800          43.900
 116051436.949 6  90429793.55646  86661887.264 8  22083867.609
  22083875.270    22083876.199          41.100          41.200          48.900
 113979410.189 6  88650571.593 6                  21352158.125    21352157.336
  21352162.891                          38.900          41.700
 119783011.934 6  93164580.672 6                  22400031.422    22400031.402
  22400035.281                          36.400          38.000
 106390799.804 7  82748291.136 7                  19881635.648    19881634.414
  19881638.656                          44.100          44.900
 112717834.111 7  87832088.19545                  21449483.359
  21449488.773                          42.600          32.700
 113518779.673 6  88456195.45544                  21601902.594
  21601908.133                          40.500          27.600
 123304890.106 5  95903826.744 5                  23107282.289    23107281.840
  23107286.859                          34.500          34.000
 119690256.243 6  93265175.02945  89379124.510 7  22776302.984
  22776310.980    22776311.273          37.300          35.900          46.800
 106954304.362 7  83341089.50048  79868536.434 8  20352737.109
  20352745.961    20352744.566          44.900          50.000          52.900
 115542369.836 6  89866310.443 6                  21675457.391    21675457.168
  21675463.965                          39.500          40.500
 114245158.844 7  89022205.73745                  21740123.805
  21740126.906                          43.100          34.400
 117757284.767 5  91588931.013 5                  22044390.844    22044391.605
  22044395.125                          31.200          34.300
 104865269.701 7  81561786.125 7                  19624078.750    19624078.375
  19624082.906                          45.300          46.400
 127013509.468 7                  94847769.006 8  24169867.570
                  24169873.578          44.700                          48.500
 124756933.456 7                  93162659.466 8  23740455.438
                  23740459.926          45.900                          50.500
 143855002.431 5                 107424204.780 6  27374699.664
                  27374706.457          34.800                          40.400
 125301998.815 5                  93569691.162 6  23844177.531
                  23844182.406          32.500                          40.000
 121997865.257 7                  91102330.907 8  23215419.016
                  23215423.883          44.700                          48.000
 20  8 16  0  0  1.0000000  0 22R01G17G07G08G03R18R24R17G28G11R02G30
                                G01R14G22R16R15E36E02E25E14E30
 122430669.85614  95224000.418 4                  22903217.305    22903216.273
  22903223.785                          29.700          28.300
 122105916.982 5  95147372.35445                  23235951.266
  23235957.762                          35.700          34.000
 124442706.823 5  96968401.27844                  23680672.656
  23680678.602                          34.300          28.600
 123705013.685 5  96393530.97243  92377125.517 7  23540280.188
  23540289.141    23540288.285          35.500          20.600          43.900
 116048879.229 6  90427800.52346  86659977.294 8  22083380.867
  22083388.344    22083389.324          40.900          41.100          48.900
 113977655.605 6  88649206.946 6                  21351829.219    21351828.820
  21351834.211                          38.900          41.400
 119785853.231 5  93166790.575 6                  22400562.852    22400562.520
  22400566.707                          35.700          38.200
 106391576.238 7  82748895.050 7                  19881780.281    19881779.355
  19881783.742                          44.100          45.200
 112715814.836 7  87830514.72845                  21449099.359
  21449104.379                          42.400          32.900
 113521112.385 6  88458013.16244                  21602346.664
  21602351.984                          40.200          27.900
 123301561.595 5  95901237.937 5                  23106659.055    23106657.988
  23106663.230                          34.100          34.900
 119692478.863 6  93266906.94845  89380784.236 7  22776726.250
  22776733.953    22776734.012          36.600          35.800          46.500
 106955882.432 7  83342319.17348  79869714.860 8  20353037.875
  20353046.188    20353044.895          45.000          49.700          52.900
 115546446.744 6  89869481.387 6                  21676222.695    21676222.355
  21676228.754                          39.200          40.500
 114244338.375 7  89021566.42245                  21739967.047
  21739970.828                          43.000          33.800
 117754205.104 5  91586535.731 5                  22043814.234    22043814.922
  22043818.777                          31.000          34.800
 104866050.396 7  81562393.321 7                  19624224.375    19624224.578
  19624229.008                          45.100          46.600
 127015103.127 7                  94848959.070 8  24170171.125
                  24170176.602          44.700                          48.600
 124758467.952 7                  93163805.355 8  23740747.484
                  23740751.965          46.100                          50.200
 143858054.486 5                 107426483.910 6  27375280.344
                  27375287.301          34.700                          40.400
 125295917.443 5                  93565149.837 6  23843019.914
                  23843025.148          33.200                          40.000
 121996612.949 7                  91101395.745 8  23215180.867
                  23215185.711          44.300                          48.100
 20  8 16  0  0  2.0000000  0 22R01G17G07G08G03R18R24R17G28G11R02G30
                                G01R14G22R16R15E36E02E25E14E30
 122430485.440 4  95223857.021 4                  22903184.805    22903182.035
  22903189.352                          29.700          28.300
 122103900.075 6  95145800.73545                  23235567.609
  23235573.844                          36.000          34.700
 124445853.721 5  96970853.40944                  23681271.977
  23681277.520                          35.000          29.500
 123707341.369 6  96395344.74943  92378863.751 7  23540723.734
  23540732.125    23540731.277          36.800          21.100          43.900
 116046321.913 6  90425807.81146  86658067.603 8  22082894.289
  22082901.680    22082902.910          40.600          41.300          49.100
 113975901.296 6  88647842.468 6                  21351500.586    21351499.844
  21351505.621                          38.700          41.100
 119788694.463 6  93169000.429 6                  22401093.820    22401093.883
  22401098.254                          36.000          37.700
 106392352.929 7  82749499.131 7                  19881925.359    19881924.758
  19881928.953                          44.100          45.100
 112713795.836 7  87828941.48645                  21448715.500
  21448720.160                          42.600          34.100
 113523445.224 6  88459830.94744                  21602791.398
  21602795.965                          40.600          28.600
 123298233.299 5  95898649.233 5                  23106034.359    23106033.945
  23106039.590                          34.100          34.200
 119694701.794 6  93268639.09845  89382444.233 7  22777149.359
  22777156.941    22777157.137          37.200          35.200          46.400
 106957460.944 7  83343549.18248  79870893.616 8  20353338.102
  20353346.574    20353345.176          45.600          50.000          53.000
 115550523.987 6  89872652.570 6                  21676987.602    21676987.527
  21676993.590                          39.800          40.400
 114243518.483 7  89020927.53945                  21739811.273
  21739814.727                          43.100          34.000
 117751125.997 5  91584140.851 5                  22043239.695    22043238.621
  22043242.516                          31.700          35.000
 104866831.941 7  81563001.188 7                  19624371.234    19624370.633
  19624375.262                          45.100          46.000
 127016696.843 7                  94850149.180 8  24170474.109
                  24170480.113          44.900                          48.600
 124760002.803 7                  93164951.524 8  23741039.383
                  23741043.973          46.500                          50.200
 143861106.612 5                 107428763.079 6  27375861.328
                  27375868.020          35.400                          40.600
 125289835.989 5                  93560608.506 6  23841862.789
                  23841867.824          31.700                          39.900
 121995360.992 7                  91100460.835 8  23214942.305
                  23214947.258          44.700                          48.100
 20  8 16  0  0  3.0000000  0 22R01G17G07G08G03R18R24R17G28G11R02G30
                                G01R14G22R16R15E36E02E25E14E30
 122430301.845 5  95223714.169 4                  22903149.773    22903147.512
  22903155.055                          30.500          27.200
 122101883.181 6  95144229.13145                  23235183.703
  23235189.914                          36.100          33.600
 124449000.707 5  96973305.60245                  23681870.891
  23681876.328                          34.100          30.100
 123709669.175 6  96397158.62443  92380602.045 7  23541165.586
  23541175.090    23541174.301          36.000          21.100          43.700
 116043765.001 6  90423815.41646  86656158.236 8  22082406.516
  22082415.047    22082416.234          40.300          41.400          49.400
 113974147.332 6  88646478.277 6                  21351172.508    21351171.512
  21351176.965                          38.300          41.100
 119791535.702 6  93171210.286 6                  22401625.602    22401624.977
  22401629.648                          36.300          37.800
 106393129.878 7  82750103.429 7                  19882070.578    19882069.906
  19882074.105                          43.900          45.500
 112711777.189 7  87827368.52045                  21448330.672
  21448336.066                          42.100          33.400
 113525778.327 6  88461648.96344                  21603234.703
  21603239.949                          41.000          28.200
 123294905.198 5  95896060.717 5                  23105410.992    23105410.074
  23105415.984                          33.800          34.400
 119696925.120 6  93270371.55945  89384104.492 7  22777572.758
  22777579.980    22777580.277          37.500          35.700          46.500
 106959039.930 7  83344779.55948  79872072.724 8  20353638.867
  20353647.031    20353645.680          45.200          50.000          53.100
 115554601.548 6  89875824.003 6                  21677753.273    21677752.664
  21677758.609                          39.900          40.900
 114242699.194 7  89020289.13045                  21739655.617
  21739658.793                          43.900          34.300
 117748047.564 5  91581746.484 5                  22042663.242    22042662.246
  22042666.328                          31.600          34.900
 104867614.369 7  81563609.744 7                  19624517.398    19624517.027
  19624521.703                          45.400          46.200
 127018290.688 7                  94851339.392 8  24170777.305
                  24170783.301          45.100                          48.800
 124761538.061 7                  93166097.983 8  23741331.586
                  23741336.078          46.600                          50.300
 143864158.816 5                 107431042.346 6  27376442.227
                  27376448.781          35.600                          40.900
 125283754.559 5                  93556067.162 6  23840705.344
                  23840710.223          31.300                          39.900
 121994109.418 7                  91099526.233 8  23214704.367
                  23214709.195          44.800                          48.400
 20  8 16  0  0  4.0000000  0 22R01G17G07G08G03R18R24R17G28G11R02G30
                                G01R14G22R16R15E36E02E25E14E30
 122430119.015 5  95223571.980 4                  22903114.453    22903113.453
  22903120.930                          30.100          29.100
 122099866.386 5  95142657.59445                  23234799.602
  23234806.074                          35.700          34.100
 124452147.851 5  96975757.91844                  23682468.930
  23682475.113                          34.200          29.300
 123711997.187 5  96398972.65343  92382340.440 7  23541608.383
  23541618.031    23541617.250          35.800          21.500          43.600
 116041208.572 6  90421823.39646  86654249.220 8  22081920.727
  22081928.551    22081929.840          40.200          41.100          49.100
 113972393.648 6  88645114.330 6                  21350844.781    21350843.094
  21350848.441                          38.600          41.500
 119794376.955 6  93173420.145 6                  22402156.078    22402156.559
  22402160.984                          36.100          37.400
 106393907.192 7  82750708.014 7                  19882215.820    19882214.945
  19882219.273                          43.900          45.500
 112709758.892 7  87825795.81945                  21447947.531
  21447952.047                          42.300          33.400
 113528111.691 6  88463467.15744                  21603678.867
  21603683.773                          41.000          28.200
 123291577.395 5  95893472.434 5                  23104785.906    23104786.270
  23104792.395                          33.900          34.300
 119699148.808 6  93272104.30246  89385765.054 7  22777995.500
  22778003.113    22778003.496          37.000          36.000          46.800
 106960619.425 7  83346010.34148  79873252.215 8  20353939.469
  20353947.645    20353946.258          45.100          49.900          52.800
 115558679.519 6  89878995.751 6                  21678517.813    21678517.379
  21678523.699                          40.000          41.000
 114241880.550 7  89019651.23145                  21739499.867
  21739503.020                          43.700          34.300
 117744969.636 5  91579352.573 5                  22042087.828    22042085.996
  22042090.328                          31.600          33.800
 104868397.736 7  81564219.031 7                  19624664.703    19624664.141
  19624668.277                          45.400          46.300
 127019884.711 7                  94852529.717 8  24171080.805
                  24171086.574          45.300                          48.600
 124763073.782 7                  93167244.774 8  23741623.750
                  23741628.457          46.100                          50.300
 143867211.148 5                 107433321.670 6  27377022.797
                  27377029.648          35.600                          40.900
 125277673.133 5                  93551525.860 6  23839548.172
                  23839553.172          31.800                          39.600
 121992858.287 7                  91098591.940 8  23214466.266
                  23214471.105          45.300                          48.000
 20  8 16  0  0  5.0000000  0 22R01G17G07G08G03R18R24R17G28G11R02G30
                                G01R14G22R16R15E36E02E25E14E30
 122429936.986 5  95223430.415 4                  22903080.172    22903079.145
  22903086.977                          30.100          28.900
 122097849.539 5  95141086.02745                  23234416.031
  23234422.367                          35.800          34.100
 124455294.984 5  96978210.22344                  23683068.906
  23683074.211                          34.300          29.600
 123714325.148 5  96400786.65543  92384078.887 7  23542052.133
  23542061.027    23542060.262          35.200          21.700          43.800
 116038652.567 6  90419831.70846  86652340.503 8  22081434.703
  22081442.121    22081443.309          39.900          41.300          48.800
 113970640.307 6  88643750.596 6                  21350515.352    21350514.730
  21350520.137                          38.400          41.500
 119797218.174 6  93175629.986 6                  22402687.992    22402688.082
  22402692.336                          36.500          37.800
 106394684.747 7  82751312.785 7                  19882360.789    19882360.313
  19882364.574                          44.000          45.500
 112707740.898 7  87824223.36445                  21447563.469
  21447568.148                          42.700          33.600
 113530445.216 6  88465285.49144                  21604122.469
  21604127.859                          40.500          28.200
 123288249.791 5  95890884.268 5                  23104163.375    23104162.766
  23104168.891                          33.700          34.700
 119701372.897 6  93273837.36145  89387425.888 7  22778418.195
  22778426.246    22778426.676          37.200          35.700          46.600
 106962199.369 7  83347241.46648  79874432.056 8  20354239.969
  20354248.277    20354246.895          45.000          49.800          53.000
 115562757.785 6  89882167.752 6                  21679282.984    21679282.430
  21679288.660                          39.400          41.100
 114241062.473 7  89019013.76345                  21739344.125
  21739347.367                          43.300          33.500
 117741892.349 5  91576959.122 5                  22041511.414    22041509.742
  22041514.102                          31.500          34.500
 104869182.023 7  81564829.028 7                  19624810.711    19624810.500
  19624814.996                          45.000          46.100
 127021478.811 7                  94853720.121 8  24171384.188
                  24171389.910          44.900                          48.900
 124764609.864 7                  93168391.861 8  23741916.039
                  23741920.766          45.800                          50.500
 143870263.602 5                 107435601.096 6  27377603.758
                  27377610.578          35.300                          40.400
 125271591.688 5                  93546984.497 6  23838390.891
                  23838395.930          31.700                          39.800
 121991607.529 7                  91097657.944 8  23214228.563
                  23214232.980          45.100                          48.000
 20  8 16  0  0  6.0000000  0 22R01G17G07G08G03R18R24R17G28G11R02G30
                                G01R14G22R16R15E36E02E25E14E30
 122429755.384 4  95223289.172 4                  22903046.656    22903045.051
  22903052.934                          29.800          28.700
 122095832.448 5  95139514.27345                  23234031.656
  23234038.512                          35.400          33.800
 124458441.999 5  96980662.43045                  23683666.727
  23683673.102                          33.900          30.200
 123716652.935 5  96402600.50843  92385817.154 7  23542495.313
  23542504.070    23542503.309          35.800          21.700          44.100
 116036096.608 6  90417840.06046  86650431.843 8  22080948.297
  22080955.836    22080956.945          39.900          41.100          48.900
 113968886.927 6  88642386.830 6                  21350186.836    21350185.836
  21350191.656                          38.700          41.300
 119800059.061 6  93177839.553 6                  22403219.172    22403219.324
  22403223.625                          36.300          37.900
 106395462.243 7  82751917.493 7                  19882506.250    19882505.664
  19882509.945                          44.000          44.800
 112705722.865 7  87822650.87145                  21447179.898
  21447184.336                          42.600          33.100
 113532778.615 6  88467103.72944                  21604567.102
  21604571.777                          40.900          28.000
 123284921.999 5  95888295.990 5                  23103540.898    23103539.059
  23103545.199                          33.600          34.900
 119703597.000 6  93275570.42945  89389086.751 7  22778841.180
  22778849.590    22778849.977          37.000          35.300          47.000
 106963779.453 7  83348472.69648  79875611.991 8  20354540.688
  20354548.902    20354547.586          45.300          50.000          52.900
 115566836.070 6  89885339.734 6                  21680048.531    21680047.387
  21680053.863                          39.200          40.800
 114240244.673 7  89018376.51945                  21739188.859
  21739191.852                          43.400          34.200
 117738815.243 5  91574565.821 5                  22040934.813    22040934.191
  22040938.047                          32.300          34.500
 104869966.852 7  81565439.451 7                  19624958.039    19624957.441
  19624961.926                          45.200          45.100
 127023072.690 7                  94854910.368 8  24171687.508
                  24171693.293          44.500                          49.000
 124766146.021 7                  93169538.988 8  23742208.531
                  23742213.176          46.100                          50.700
 143873315.786 5                 107437880.312 6  27378184.906
                  27378191.422          34.800                          40.500
 125265509.907 5                  93542442.906 6  23837233.648
                  23837238.516          31.800                          40.000
 121990356.827 7                  91096723.962 7  23213990.391
                  23213995.078          45.100                          47.900
 20  8 16  0  0  7.0000000  0 22R01G17G07G08G03R18R24R17G28G11R02G30
                                G01R14G22R16R15E36E02E25E14E30
 122429574.482 5  95223148.431 4                  22903013.789    22903011.316
  22903019.125                          30.600          28.900
 122093815.330 6  95137942.49245                  23233648.102
  23233654.641                          36.200          34.100
 124461588.931 5  96983114.59545                  23684266.445
  23684271.895                          33.500          30.100
 123718980.623 5  96404414.30243  92387555.403 7  23542938.570
  23542946.918    23542946.305          35.700          21.300          43.800
 116033540.984 6  90415848.66346  86648523.422 8  22080461.180
  22080469.406    22080470.711          39.600          41.400          49.400
 113967133.640 6  88641023.216 6                  21349858.875    21349857.648
  21349863.230                          38.800          41.600
 119802899.828 6  93180049.069 6                  22403750.641    22403750.695
  22403755.000                          36.300          38.300
 106396239.872 7  82752522.299 7                  19882651.758    19882650.691
  19882655.348                          43.700          44.800
 112703705.050 7  87821078.54245                  21446795.266
  21446800.160                          43.200          33.200
 113535112.117 6  88468922.03744                  21605010.977
  21605015.871                          40.500          28.000
 123281594.303 5  95885707.802 5                  23102917.336    23102915.184
  23102921.469                          34.200          34.600
 119705821.344 6  93277303.67846  89390747.788 7  22779264.633
  22779272.840    22779273.328          37.500          36.100          46.900
 106965359.890 7  83349704.20648  79876792.188 8  20354840.742
  20354849.773    20354848.359          44.600          49.900          53.000
 115570914.607 6  89888511.936 6                  21680815.148    21680812.734
  21680818.969                          39.500          40.500
 114239427.329 7  89017739.62045                  21739033.250
  21739036.332                          43.700          33.400
 117735738.642 5  91572172.870 5                  22040359.578    22040357.961
  22040362.008                          32.300          33.700
 104870752.435 7  81566050.461 7                  19625104.438    19625104.570
  19625108.867                          45.100          45.600
 127024666.566 7                  94856100.590 8  24171990.766
                  24171996.555          44.800                          48.800
 124767682.461 7                  93170686.318 8  23742500.734
                  23742505.543          46.000                          50.100
 143876367.928 5                 107440159.544 6  27378765.727
                  27378772.293          34.700                          41.000
 125259427.964 5                  93537901.197 6  23836075.906
                  23836080.996          32.000                          40.100
 121989106.368 7                  91095790.189 8  23213752.508
                  23213757.125          45.000                          48.200
 20  8 16  0  0  8.0000000  0 22R01G17G07G08G03R18R24R17G28G11R02G30
                                G01R14G22R16R15E36E02E25E14E30
 122429394.357 5  95223008.368 4                  22902978.625    22902977.430
  22902985.461                          30.400          28.700
 122091798.269 6  95136370.76745                  23233265.133
  23233270.551                          36.000          34.300
 124464735.980 5  96985566.84344                  23684865.008
  23684870.840                          33.000          29.200
 123721308.508 6  96406228.22243  92389293.749 7  23543381.758
  23543389.945    23543389.219          36.000          21.700          43.800
 116030985.805 6  90413857.62346  86646615.347 8  22079974.844
  22079983.039    22079984.355          39.700          41.600          49.300
 113965380.755 6  88639659.862 6                  21349530.117    21349529.180
  21349534.879                          38.800          41.200
 119805740.621 6  93182258.563 6                  22404281.438    22404281.992
  22404286.410                          36.400          37.900
 106397017.838 7  82753127.404 7                  19882797.141    19882796.059
  19882800.656                          43.800          45.100
 112701687.567 7  87819506.46845                  21446411.055
  21446416.133                          42.800          32.800
 113537445.891 6  88470740.56044                  21605455.836
  21605460.063                          40.800          28.300
 123278266.883 5  95883119.816 5                  23102294.328    23102291.988
  23102297.875                          34.100          35.200
 119708046.123 6  93279037.27545  89392409.151 7  22779688.758
  22779696.383    22779696.645          37.400          35.900          47.000
 106966940.839 7  83350936.11648  79877972.761 8  20355142.234
  20355150.520    20355149.180          44.800          49.900          52.700
 115574993.525 6  89891684.421 6                  21681579.141    21681577.953
  21681584.133                          39.400          40.900
 114238610.613 7  89017103.22945                  21738877.672
  21738880.730                          42.900          33.600
 117732662.608 5  91569780.439 5                  22039783.695    22039782.355
  22039786.164                          32.600          34.000
 104871538.948 7  81566662.197 7                  19625251.516    19625251.805
  19625256.137                          45.200          45.900
 127026260.621 7                  94857290.940 8  24172294.031
                  24172300.012          44.600                          48.800
 124769219.341 7                  93171833.995 8  23742793.234
                  23742797.984          46.100                          50.200
 143879420.262 5                 107442438.845 6  27379346.391
                  27379353.098          35.100                          40.700
 125253346.044 5                  93533359.542 6  23834918.750
                  23834923.664          31.800                          39.800
 121987856.355 7                  91094856.745 8  23213514.648
                  23213519.254          45.100                          48.300
 20  8 16  0  0  9.0000000  0 22R01G17G07G08G03R18R24R17G28G11R02G30
                                G01R14G22R16R15E36E02E25E14E30
 122429215.004 4  95222868.867 4                  22902945.313    22902944.059
  22902951.910                          29.500          28.700
 122089781.240 6  95134799.05845                  23232880.820
  23232886.805                          36.000          33.500
 124467883.049 5  96988019.08845                  23685463.313
  23685469.730                          33.700          30.000
 123723636.506 5  96408042.25843  92391032.184 7  23543824.148
  23543832.934    23543832.160          35.900          21.700          43.800
 116028431.026 6  90411866.88446  86644707.568 8  22079489.383
  22079497.129    22079498.059          40.100          41.400          48.900
 113963628.178 6  88638296.750 6                  21349201.563    21349201.070
  21349206.629                          39.000          41.200
 119808581.417 6  93184468.041 6                  22404813.266    22404813.328
  22404817.605                          36.900          38.300
 106397796.089 7  82753732.714 7                  19882942.328    19882941.418
  19882946.207                          44.000          45.100
 112699670.396 7  87817934.66245                  21446028.063
  21446032.230                          43.100          32.800
 113539779.854 6  88472559.22444                  21605899.742
  21605904.121                          40.900          27.100
 123274939.702 5  95880532.012 5                  23101669.898    23101668.219
  23101674.563                          33.700          34.900
 119710271.237 6  93280771.13045  89394070.755 7  22780111.805
  22780119.777    22780120.176          36.800          35.400          46.700
 106968522.246 7  83352168.38048  79879153.680 8  20355442.742
  20355451.445    20355450.219          44.700          49.900          52.700
 115579072.779 6  89894857.166 6                  21682344.289    21682343.266
  21682349.492                          39.200          40.800
 114237794.526 7  89016467.31145                  21738722.242
  21738725.414                          43.200          34.200
 117729587.203 5  91567388.453 5                  22039208.094    22039206.727
  22039210.555                          31.400          34.100
 104872326.344 7  81567274.611 7                  19625398.977    19625399.070
  19625403.500                          45.300          46.000
 127027854.720 7                  94858481.375 8  24172597.750
                  24172603.273          44.400                          48.200
 124770756.603 7                  93172981.950 8  23743085.875
                  23743090.504          46.400                          50.200
 143882472.645 5                 107444718.219 6  27379927.188
                  27379934.066          34.500                          40.600
 125247264.161 5                  93528817.872 6  23833761.227
                  23833766.047          32.000                          39.200
 121986606.742 7                  91093923.570 8  23213276.563
                  23213281.613          45.100                          48.500
 20  8 16  0  0 10.0000000  0 22R01G17G07G08G03R18R24R17G28G11R02G30
                                G01R14G22R16R15E36E02E25E14E30
 122429036.527 5  95222730.071 4                  22902912.281    22902910.793
  22902918.563                          30.400          29.300
 122087764.316 5  95133227.41545                  23232497.914
  23232502.969                          35.500          33.700
 124471030.310 5  96990471.49844                  23686062.219
  23686068.363                          34.000          29.600
 123725964.622 6  96409856.38443  92392770.708 7  23544267.531
  23544276.133    23544275.016          36.400          21.100          43.600
 116025876.733 6  90409876.52646  86642800.123 8  22079003.828
  22079010.988    22079012.094          40.000          41.100          48.800
 113961875.951 6  88636933.893 6                  21348873.961    21348872.570
  21348878.371                          39.400          41.100
 119811422.180 6  93186677.520 6                  22405344.281    22405344.277
  22405348.926                          36.400          38.200
 106398574.645 7  82754338.241 7                  19883088.273    19883086.664
  19883091.742                          44.300          45.200
 112697653.617 7  87816363.14545                  21445643.938
  21445648.367                          42.900          33.000
 113542114.066 6  88474378.09544                  21606343.820
  21606348.219                          40.700          26.700
 123271612.763 5  95877944.389 5                  23101045.867    23101044.430
  23101051.137                          33.700          34.800
 119712496.791 6  93282505.32445  89395732.681 7  22780535.430
  22780543.117    22780543.625          37.200          35.900          46.800
 106970104.167 7  83353401.04948  79880334.987 8  20355744.211
  20355752.758    20355751.090          44.700          49.900          52.600
 115583152.402 6  89898030.237 6                  21683110.094    21683108.500
  21683114.949                          39.900          40.700
 114236979.041 7  89015831.87145                  21738566.828
  21738570.191                          43.200          33.800
 117726512.421 5  91564996.959 5                  22038632.164    22038631.465
  22038634.879                          32.100          33.800
 104873114.720 7  81567887.798 7                  19625546.680    19625546.492
  19625550.992                          45.200          46.300
 127029449.031 7                  94859671.909 8  24172900.727
                  24172906.617          44.900                          48.100
 124772294.324 7                  93174130.237 8  23743378.500
                  23743383.227          46.300                          50.100
 143885525.168 5                 107446997.704 6  27380508.070
                  27380514.969          35.300                          40.600
 125241182.290 5                  93524276.185 6  23832604.070
                  23832608.934          32.200                          39.600
 121985357.539 7                  91092990.732 8  23213038.914
                  23213043.820          44.900                          48.400
 20  8 16  0  0 11.0000000  0 22R01G17G07G08G03R18R24R17G28G11R02G30
                                G01R14G22R16R15E36E02E25E14E30
 122428858.837 5  95222591.882 5                  22902879.484    22902878.203
  22902885.445                          30.500          30.600
 122085747.399 5  95131655.79645                  23232112.984
  23232119.047                          35.500          33.200
 124474177.664 5  96992923.99245                  23686661.406
  23686667.305                          34.300          30.000
 123728292.841 6  96411670.58043  92394509.306 7  23544710.570
  23544719.203    23544718.098          36.200          22.000          43.900
 116023322.862 6  90407886.49746  86640893.035 8  22078517.219
  22078525.086    22078525.988          40.200          41.300          48.500
 113960124.049 6  88635571.289 6                  21348544.938    21348544.176
  21348550.137                          38.900          40.900
 119814263.002 6  93188887.057 6                  22405874.797    22405875.059
  22405880.133                          36.500          38.400
 106399353.455 7  82754943.991 7                  19883233.742    19883232.320
  19883237.254                          44.200          45.700
 112695637.156 7  87814791.86845                  21445259.477
  21445264.688                          42.900          32.900
 113544448.514 6  88476197.14544                  21606787.305
  21606792.539                          40.600          27.300
 123268286.121 5  95875357.003 5                  23100422.867    23100421.031
  23100427.711                          33.800          34.900
 119714722.666 6  93284239.76945  89397394.874 7  22780958.703
  22780966.914    22780967.059          37.100          35.500          46.800
 106971686.562 7  83354634.08148  79881516.652 8  20356045.203
  20356053.746    20356052.285          45.100          50.100          52.900
 115587232.405 6  89901203.568 6                  21683875.594    21683873.762
  21683880.301                          40.100          40.800
 114236164.180 7  89015196.90945                  21738411.484
  21738415.230                          43.200          33.600
 117723438.160 5  91562605.885 5                  22038057.398    22038056.285
  22038059.344                          32.200          34.100
 104873904.038 7  81568501.710 7                  19625694.047    19625694.383
  19625698.660                          45.400          46.100
 127031043.457 7                  94860862.565 8  24173204.320
                  24173210.090          45.100                          48.100
 124773832.447 7                  93175278.842 8  23743671.094
                  23743675.852          46.100                          50.300
 143888577.800 5                 107449277.270 6  27381088.961
                  27381095.926          34.900                          40.200
 125235100.413 5                  93519734.528 6  23831446.688
                  23831451.543          32.000                          39.700
 121984108.729 7                  91092058.184 8  23212801.555
                  23212806.141          45.100                          48.400
 20  8 16  0  0 12.0000000  0 22R01G17G07G08G03R18R24R17G28G11R02G30
                                G01R14G22R16R15E36E02E25E14E30
 122428682.056 4  95222454.321 4                  22902846.016    22902844.910
  22902852.477                          29.600          28.200
 122083730.658 5  95130084.30745                  23231729.461
  23231735.254                          35.800          33.500
 124477325.108 5  96995376.54344                  23687260.680
  23687266.152                          34.400          28.500
 123730621.186 5  96413484.88843  92396247.979 7  23545152.898
  23545162.410    23545161.203          35.900          21.800          43.800
 116020769.465 6  90405896.83946  86638986.256 8  22078030.906
  22078039.207    22078040.176          40.200          41.500          48.700
 113958372.462 6  88634208.964 6                  21348217.008    21348216.289
  21348221.906                          38.900          41.400
 119817103.839 6  93191096.579 6                  22406406.891    22406406.453
  22406411.332                          36.200          38.500
 106400132.592 7  82755549.984 7                  19883378.836    19883377.832
  19883382.824                          44.500          45.700
 112693621.034 7  87813220.86345                  21444876.391
  21444881.121                          43.000          33.000
 113546783.224 6  88478016.40644                  21607231.977
  21607236.941                          40.700          28.200
 123264959.648 5  95872769.735 5                  23099800.000    23099797.656
  23099804.395                          33.900          35.500
 119716948.974 6  93285974.56045  89399057.387 7  22781382.391
  22781390.539    22781390.828          37.200          35.400          46.800
 106973269.459 7  83355867.51248  79882698.691 8  20356346.953
  20356354.863    20356353.480          45.300          50.000          53.000
 115591312.801 6  89904377.173 6                  21684639.445    21684639.234
  21684645.848                          40.400          40.900
 114235349.914 7  89014562.42345                  21738257.266
  21738260.449                          43.300          34.200
 117720364.534 5  91560215.248 5                  22037481.258    22037480.422
  22037483.848                          32.100          34.100
 104874694.261 7  81569116.324 7                  19625842.148    19625842.012
  19625846.488                          45.400          46.200
 127032638.035 7                  94862053.311 7  24173507.828
                  24173513.430          45.000                          47.900
 124775370.999 7                  93176427.756 8  23743963.930
                  23743968.691          46.200                          50.100
 143891630.538 5                 107451556.914 6  27381670.039
                  27381676.891          35.100                          40.600
 125229018.577 5                  93515192.878 6  23830289.211
                  23830294.289          32.300                          39.900
 121982860.368 7                  91091125.954 8  23212563.875
                  23212568.684          45.000                          48.300
 20  8 16  0  0 13.0000000  0 22R01G17G07G08G03R18R24R17G28G11R02G30
                                G01R14G22R16R15E36E02E25E14E30
 122428506.018 5  95222317.407 4                  22902812.852    22902812.270
  22902819.504                          30.100          28.700
 122081713.841 5  95128512.76345                  23231345.375
  23231351.395                          35.700          33.200
 124480472.653 5  96997829.16645                  23687859.297
  23687865.109                          34.600          30.400
 123732949.534 6  96415299.17943  92397986.732 7  23545596.258
  23545605.461    23545604.270          36.000          21.300          43.900
 116018216.455 6  90403907.47846  86637079.786 8  22077545.367
  22077553.324    22077554.293          40.100          41.400          48.700
 113956621.207 6  88632846.860 6                  21347889.930    21347888.297
  21347893.844                          38.800          41.400
 119819944.592 5  93193306.074 6                  22406938.500    22406937.824
  22406942.602                          35.600          38.100
 106400912.004 7  82756156.198 7                  19883524.609    19883523.555
  19883528.434                          44.400          45.400
 112691605.199 7  87811650.08645                  21444492.742
  21444497.535                          43.100          33.000
 113549118.096 6  88479835.78644                  21607676.445
  21607681.203                          40.800          27.400
 123261633.412 5  95870182.698 5                  23099175.836    23099174.727
  23099180.977                          33.700          35.800
 119719175.630 6  93287709.61145  89400720.139 7  22781806.148
  22781814.375    22781814.742          37.300          35.400          46.800
 106974852.806 7  83357101.29248  79883881.051 8  20356647.758
  20356656.328    20356654.777          45.700          50.000          52.900
 115595393.496 6  89907551.049 6                  21685405.641    21685404.840
  21685411.305                          40.100          41.100
 114234536.245 7  89013928.39345                  21738102.672
  21738105.445                          43.700          33.600
 117717291.457 5  91557825.119 5                  22036905.547    22036904.711
  22036908.570                          31.900          34.200
 104875485.335 7  81569731.600 7                  19625990.727    19625990.074
  19625994.570                          45.000          46.200
 127034232.690 7                  94863244.137 8  24173811.172
                  24173816.879          45.100                          48.000
 124776909.926 7                  93177576.965 8  23744256.852
                  23744261.617          46.500                          50.400
 143894683.387 5                 107453836.638 6  27382250.922
                  27382257.746          35.300                          41.000
 125222936.660 5                  93510651.218 6  23829131.789
                  23829136.953          32.300                          40.000
 121981612.338 7                  91090193.989 8  23212326.516
                  23212331.184          44.800                          48.300
 20  8 16  0  0 14.0000000  0 22R01G17G07G08G03R18R24R17G28G11R02G30
                                G01R14G22R16R15E36E02E25E14E30
 122428330.719 5  95222181.078 4                  22902780.586    22902779.836
  22902786.629                          30.500          29.300
 122079697.120 5  95126941.29845                  23230961.883
  23230967.531                          35.900          33.800
 124483620.290 5  97000281.87245                  23688459.227
  23688464.082                          34.900          30.000
 123735278.052 5  96417113.59743  92399725.542 7  23546039.000
  23546048.508    23546047.457          35.400          20.900          44.200
 116015663.840 6  90401918.43446  86635173.632 8  22077060.305
  22077067.660    22077068.770          40.000          41.500          48.400
 113954870.218 6  88631484.978 6                  21347561.906    21347560.730
  21347565.922                          38.300          41.800
 119822785.317 5  93195515.520 6                  22407469.383    22407468.914
  22407473.754                          35.600          37.900
 106401691.723 7  82756762.646 7                  19883671.180    19883669.434
  19883674.180                          44.300          44.900
 112689589.718 7  87810079.58345                  21444108.852
  21444113.953                          42.800          32.400
 113551453.217 6  88481655.35644                  21608120.609
  21608125.539                          40.700          27.400
 123258307.429 5  95867595.814 5                  23098552.500    23098550.996
  23098557.852                          33.700          35.600
 119721402.668 6  93289444.97146  89402383.182 7  22782229.602
  22782237.949    22782238.270          36.900          36.100          46.700
 106976436.634 7  83358335.44148  79885063.786 8  20356949.461
  20356957.570    20356956.227          45.100          50.000          53.000
 115599474.527 6  89910725.193 6                  21686171.688    21686170.449
  21686176.980                          40.100          41.400
 114233723.158 7  89013294.82045                  21737947.375
  21737950.707                          43.200          33.100
 117714218.951 5  91555435.401 5                  22036331.828    22036329.281
  22036333.531                          31.800          34.600
 104876277.299 7  81570347.580 7                  19626138.477    19626138.125
  19626142.859                          45.100          46.200
 127035827.469 7                  94864435.036 8  24174114.508
                  24174120.539          45.200                          48.200
 124778449.263 7                  93178726.460 8  23744549.836
                  23744554.539          46.300                          50.500
 143897736.326 5                 107456116.428 6  27382832.141
                  27382838.621          35.700                          40.500
 125216854.750 5                  93506109.539 6  23827974.344
                  23827979.492          31.700                          39.700
 121980364.718 7                  91089262.333 8  23212089.016
                  23212093.691          44.600                          48.600
 20  8 16  0  0 15.0000000  0 22R01G17G07G08G03R18R24R17G28G11R02G30
                                G01R14G22R16R15E36E02E25E14E30
 122428156.292 5  95222045.404 4                  22902746.766    22902747.121
  22902754.070                          30.500          28.300
 122077680.464 6  95125369.87545                  23230577.711
  23230583.754                          36.900          33.700
 124486768.017 5  97002734.64944                  23689058.500
  23689063.238                          34.600          29.800
 123737606.690 5  96418928.09943  92401464.465 7  23546482.609
  23546491.395    23546490.625          35.300          20.900          44.300
 116013111.730 6  90399929.78246  86633267.827 8  22076574.367
  22076582.266    22076583.035          40.100          41.400          48.300
 113953119.574 6  88630123.369 6                  21347233.422    21347232.395
  21347237.840                          38.800          41.300
 119825626.123 5  93197725.042 6                  22407999.867    22407999.875
  22408005.031                          35.500          37.000
 106402471.719 7  82757369.311 7                  19883816.602    19883815.105
  19883819.758                          44.000          45.000
 112687574.572 7  87808509.34445                  21443725.508
  21443730.531                          43.000          32.100
 113553788.540 6  88483475.08644                  21608565.336
  21608569.926                          41.100          28.200
 123254981.675 5  95865009.138 5                  23097928.188    23097927.559
  23097934.672                          33.400          35.800
 119723630.085 6  93291180.61745  89404046.527 7  22782653.883
  22782661.777    22782662.180          36.900          35.700          46.700
 106978020.970 7  83359569.99048  79886246.889 8  20357250.859
  20357259.086    20357257.750          45.400          49.900          52.700
 115603555.941 6  89913899.608 6                  21686936.883    21686936.328
  21686942.668                          40.200          41.000
 114232910.721 7  89012661.75345                  21737792.969
  21737796.117                          43.300          33.600
 117711147.116 5  91553046.146 5                  22035755.586    22035754.082
  22035758.652                          31.200          33.800
 104877070.223 7  81570964.304 7                  19626286.781    19626286.617
  19626291.219                          45.600          46.200
 127037422.403 7                  94865626.065 8  24174417.945
                  24174423.898          45.000                          48.300
 124779989.040 7                  93179876.296 8  23744842.734
                  23744847.516          46.100                          50.100
 143900789.358 5                 107458396.323 6  27383412.945
                  27383419.660          35.400                          40.400
 125210772.901 5                  93501567.891 6  23826817.523
                  23826822.273          33.300                          39.600
 121979117.515 7                  91088330.982 8  23211851.609
                  23211856.488          44.800                          48.300
 20  8 16  0  0 16.0000000  0 22R01G17G07G08G03R18R24R17G28G11R02G30
                                G01R14G22R16R15E36E02E25E14E30
 122427982.634 5  95221910.355 4                  22902713.836    22902714.281
  22902721.563                          30.300          28.900
 122075663.918 6  95123798.54745                  23230194.703
  23230200.070                          36.000          33.500
 124489915.854 5  97005187.50745                  23689656.180
  23689662.223                          34.700          30.200
 123739935.484 6  96420742.75143  92403203.466 7  23546926.031
  23546934.527    23546933.848          36.200          20.100          44.100
 116010560.037 6  90397941.45246  86631362.348 8  22076088.758
  22076096.641    22076097.402          40.600          40.900          48.500
 113951369.210 6  88628761.966 6                  21346905.758    21346904.602
  21346909.953                          38.800          41.500
 119828466.935 5  93199934.587 6                  22408531.758    22408531.199
  22408536.234                          35.600          37.600
 106403251.993 7  82757976.188 7                  19883961.625    19883960.871
  19883965.504                          44.000          45.300
 112685559.756 7  87806939.35145                  21443342.523
  21443346.945                          43.000          32.800
 113556124.131 6  88485295.03144                  21609010.305
  21609014.488                          41.400          27.300
 123251656.175 5  95862422.656 6                  23097305.492    23097304.207
  23097311.648                          33.200          36.000
 119725857.895 6  93292916.57545  89405710.142 7  22783078.719
  22783085.703    22783085.934          36.800          35.700          46.900
 106979605.783 7  83360804.90848  79887430.356 8  20357552.023
  20357560.691    20357559.273          45.100          49.800          52.700
 115607637.689 6  89917074.321 6                  21687703.078    21687702.133
  21687708.313                          40.400          41.100
 114232098.898 7  89012029.16645                  21737638.398
  21737641.633                          42.900          33.500
 117708075.850 5  91550657.389 5                  22035179.797    22035178.961
  22035183.621                          31.600          33.700
 104877864.076 7  81571581.742 7                  19626434.992    19626435.168
  19626439.855                          46.000          46.100
 127039017.482 7                  94866817.183 7  24174721.758
                  24174727.496          44.900                          47.900
 124781529.218 7                  93181026.433 8  23745135.766
                  23745140.531          45.600                          50.300
 143903842.545 5                 107460676.254 6  27383994.039
                  27384000.590          35.400                          40.600
 125204691.066 5                  93497026.237 6  23825660.648
                  23825664.898          31.500                          39.100
 121977870.730 7                  91087399.947 8  23211614.328
                  23211619.184          44.900                          48.100
 20  8 16  0  0 17.0000000  0 22R01G17G07G08G03R18R24R17G28G11R02G30
                                G01R14G22R16R15E36E02E25E14E30
 122427809.769 5  95221775.908 4                  22902681.453    22902682.129
  22902689.125                          30.100          28.400
 122073647.291 6  95122227.15145                  23229810.641
  23229816.137                          36.200          34.100
 124493063.809 5  97007640.45145                  23690255.570
  23690261.313                          35.000          30.400
 123742264.326 5  96422557.44843  92404942.552 7  23547368.352
  23547377.766    23547376.910          35.300          20.100          44.300
 116008008.777 6  90395953.45646  86629457.187 8  22075602.633
  22075611.082    22075611.902          40.800          41.000          48.500
 113949619.152 6  88627400.836 6                  21346576.602    21346576.617
  21346582.094                          39.000          41.800
 119831307.753 6  93202144.080 6                  22409062.156    22409062.488
  22409067.434                          36.000          37.600
 106404032.566 7  82758583.301 7                  19884107.742    19884106.855
  19884111.402                          44.000          45.400
 112683545.307 7  87805369.65945                  21442959.297
  21442963.895                          43.300          33.100
 113558459.951 6  88487115.15944                  21609454.781
  21609458.832                          41.300          27.600
 123248330.924 5  95859836.319 5                  23096681.688    23096680.758
  23096688.531                          33.400          35.800
 119728086.076 6  93294652.81045  89407374.039 7  22783501.594
  22783509.918    22783509.938          37.400          35.900          46.700
 106981191.077 7  83362040.19748  79888614.178 8  20357853.734
  20357862.363    20357860.969          45.000          49.900          52.700
 115611719.837 6  89920249.320 6                  21688468.344    21688467.891
  21688474.086                          40.300          40.700
 114231287.671 7  89011397.03945                  21737483.555
  21737487.172                          42.400          33.700
 117705005.179 5  91548269.096 5                  22034605.469    22034604.117
  22034608.887                          31.800          34.100
 104878658.832 7  81572199.878 7                  19626584.094    19626583.785
  19626588.508                          45.800          46.000
 127040612.685 7                  94868008.399 8  24175025.336
                  24175031.043          44.900                          48.200
 124783069.822 7                  93182176.887 8  23745429.086
                  23745433.723          45.700                          50.600
 143906895.819 5                 107462956.294 6  27384574.734
                  27384581.703          34.800                          40.300
 125198609.179 5                  93492484.595 6  23824502.711
                  23824507.621          31.700                          38.900
 121976624.336 7                  91086469.189 8  23211376.875
                  23211382.020          45.100                          48.200
 20  8 16  0  0 18.0000000  0 22R01G17G07G08G03R18R24R17G28G11R02G30
                                G01R14G22R16R15E36E02E25E14E30
 122427637.704 5  95221642.072 4                  22902650.688    22902650.402
  22902656.922                          30.200          29.400
 122071630.869 5  95120655.91345                  23229426.672
  23229432.168                          35.500          34.100
 124496211.831 5  97010093.46344                  23690854.500
  23690860.359                          34.300          29.000
 123744593.328 5  96424372.24043  92406681.728 7  23547811.391
  23547821.039    23547820.184          34.800          20.400          44.000
 116005457.934 6  90393965.79446  86627552.344 8  22075117.375
  22075125.766    22075126.512          40.900          41.300          48.500
 113947869.439 6  88626039.941 6                  21346250.430    21346249.188
  21346254.246                          38.900          41.700
 119834148.554 5  93204353.578 6                  22409594.047    22409593.922
  22409598.656                          35.600          37.700
 106404813.424 7  82759190.634 7                  19884254.367    19884252.867
  19884257.262                          44.000          45.300
 112681531.141 7  87803800.17245                  21442575.766
  21442580.586                          42.500          32.800
 113560795.985 6  88488935.43444                  21609898.828
  21609903.461                          41.100          26.800
 123245005.918 5  95857250.211 5                  23096057.961    23096057.426
  23096065.613                          33.100          35.900
 119730314.669 6  93296389.37645  89409038.234 7  22783926.477
  22783934.066    22783934.141          37.500          35.500          46.800
 106982776.817 7  83363275.84248  79889798.349 8  20358155.242
  20358164.063    20358162.738          45.100          49.900          52.700
 115615802.328 6  89923424.577 6                  21689234.563    21689233.750
  21689239.949                          39.800          40.500
 114230477.042 7  89010765.38145                  21737329.320
  21737332.879                          42.600          34.200
 117701935.068 5  91545881.254 5                  22034030.828    22034029.887
  22034034.125                          31.600          34.000
 104879454.480 7  81572818.716 7                  19626732.938    19626732.672
  19626737.418                          45.400          45.600
 127042207.972 7                  94869199.708 8  24175328.906
                  24175334.598          44.900                          48.400
 124784610.815 7                  93183327.631 8  23745722.461
                  23745726.926          45.800                          50.500
 143909949.241 5                 107465236.438 6  27385156.094
                  27385162.434          34.900                          40.200
 125192527.322 5                  93487942.947 6  23823344.664
                  23823350.277          32.300                          39.100
 121975378.339 7                  91085538.741 8  23211139.914
                  23211144.816          44.800                          48.100
 20  8 16  0  0 19.0000000  0 22R01G17G07G08G03R18R24R17G28G11R02G30
                                G01R14G22R16R15E36E02E25E14E30
 122427466.475 4  95221508.912 4                  22902619.508    22902618.234
  22902624.859                          29.700          28.200
 122069614.429 6  95119084.65445                  23229043.430
  23229048.445                          36.700          33.500
 124499359.957 5  97012546.54044                  23691453.969
  23691459.301                          35.000          29.400
 123746922.393 5  96426187.08543  92408420.980 7  23548254.766
  23548264.250    23548263.262          35.200          21.100          43.800
 116002907.563 6  90391978.48946  86625647.853 8  22074631.859
  22074640.332    22074641.145          40.600          41.300          49.000
 113946120.018 6  88624679.293 6                  21345921.313    21345921.414
  21345926.484                          38.700          41.500
 119836989.348 6  93206563.106 6                  22410125.500    22410125.258
  22410129.891                          36.100          37.400
 106405594.592 7  82759798.200 7                  19884399.336    19884398.707
  19884403.113                          43.900          45.100
 112679517.315 7  87802230.96145                  21442192.438
  21442197.383                          42.600          32.800
 113563132.220 6  88490755.88144                  21610343.289
  21610348.141                          40.900          27.500
 123241681.097 5  95854664.254 5                  23095434.953    23095434.254
  23095442.637                          33.500          35.800
 119732543.579 6  93298126.19145  89410702.690 7  22784349.945
  22784358.168    22784358.164          37.200          35.800          46.800
 106984363.086 7  83364511.89548  79890982.884 8  20358457.539
  20358465.883    20358464.543          45.100          49.900          52.700
 115619885.194 6  89926600.139 6                  21689999.961    21689999.496
  21690005.930                          39.900          41.000
 114229667.021 7  89010134.19745                  21737175.688
  21737178.723                          43.000          33.900
 117698865.547 5  91543493.835 5                  22033456.219    22033455.078
  22033459.473                          31.400          34.100
 104880251.022 7  81573438.242 7                  19626882.281    19626881.852
  19626886.598                          45.400          45.300
 127043803.404 7                  94870391.109 8  24175632.648
                  24175638.172          44.900                          48.500
 124786152.242 7                  93184478.685 8  23746015.750
                  23746020.348          45.900                          50.000
 143913002.699 5                 107467516.618 6  27385736.844
                  27385743.656          34.600                          40.200
 125186445.457 5                  93483401.308 6  23822187.469
                  23822192.969          32.900                          39.400
 121974132.744 7                  91084608.585 7  23210902.891
                  23210907.879          44.600                          47.900
 20  8 16  0  0 20.0000000  0 22R01G17G07G08G03R18R24R17G28G11R02G30
                                G01R14G22R16R15E36E02E25E14E30
 122427296.007 5  95221376.332 4                  22902588.078    22902585.977
  22902592.949                          30.200          28.800
 122067598.085 6  95117513.48445                  23228660.477
  23228664.875                          36.700          34.100
 124502508.175 5  97014999.70744                  23692053.703
  23692058.387                          35.000          29.600
 123749251.610 5  96428002.06143  92410160.308 7  23548697.180
  23548707.367    23548706.566          34.800          20.400          43.800
 116000357.632 6  90389991.53246  86623743.688 8  22074146.547
  22074155.098    22074156.008          40.900          41.600          49.000
 113944370.963 6  88623318.879 6                  21345593.180    21345593.543
  21345598.863                          39.000          41.200
 119839830.186 6  93208772.645 6                  22410656.117    22410656.281
  22410661.176                          36.000          37.300
 106406376.029 7  82760405.989 7                  19884546.234    19884545.188
  19884549.293                          44.100          44.400
 112677503.844 7  87800662.02245                  21441808.445
  21441814.289                          42.600          33.600
 113565468.708 6  88492576.51544                  21610787.758
  21610792.758                          41.100          27.100
 123238356.594 5  95852078.511 6                  23094812.586    23094811.285
  23094819.602                          33.600          36.000
 119734772.931 6  93299863.34745  89412367.465 7  22784773.969
  22784782.332    22784782.449          37.300          35.700          46.800
 106985949.838 7  83365748.33048  79892167.799 8  20358759.430
  20358767.863    20358766.586          45.500          50.000          52.700
 115623968.428 6  89929776.004 6                  21690767.000    21690765.875
  21690771.848                          40.000          41.000
 114228857.644 7  89009503.50845                  21737021.367
  21737024.723                          43.200          33.500
 117695796.610 5  91541106.925 5                  22032882.867    22032880.789
  22032884.863                          31.500          34.100
 104881048.490 7  81574058.507 7                  19627031.563    19627031.176
  19627035.828                          45.700          45.700
 127045399.004 7                  94871582.610 8  24175936.305
                  24175941.719          44.700                          48.200
 124787694.087 7                  93185630.073 8  23746309.289
                  23746313.637          45.700                          50.200
 143916056.307 5                 107469796.932 6  27386317.961
                  27386324.496          34.900                          40.000
 125180363.64515                  93478859.667 6  23821030.398
                  23821035.523          32.300                          39.500
 121972887.579 7                  91083678.745 8  23210666.086
                  23210670.949          44.700                          48.000
 20  8 16  0  0 21.0000000  0 22R01G17G07G08G03R18R24R17G28G11R02G30
                                G01R14G22R16R15E36E02E25E14E30
 122427126.378 5  95221244.373 4                  22902556.109    22902554.195
  22902561.215                          30.100          28.800
 122065581.767 6  95115942.33045                  23228276.359
  23228281.332                          36.300          34.000
 124505656.492 5  97017452.94044                  23692651.922
  23692657.504                          34.800          29.900
 123751580.888 5  96429817.06643  92411899.692 7  23549141.250
  23549150.703    23549149.832          35.300          19.900          43.700
 115997808.108 6  90388004.89046  86621839.816 8  22073662.211
  22073669.926    22073670.883          40.900          41.600          49.000
 113942622.188 6  88621958.740 6                  21345266.625    21345266.098
  21345271.203                          39.200          41.100
 119842670.894 6  93210982.123 6                  22411187.867    22411187.477
  22411192.430                          36.000          37.300
 106407157.726 7  82761013.972 7                  19884692.023    19884691.055
  19884695.332                          43.900          44.500
 112675490.674 7  87799093.31945                  21441426.273
  21441431.133                          42.700          33.200
 113567805.375 6  88494397.29244                  21611232.484
  21611237.422                          41.300          26.700
 123235032.189 5  95849492.879 5                  23094191.320    23094188.813
  23094196.633                          33.400          35.600
 119737002.589 6  93301600.74045  89414032.485 7  22785198.359
  22785206.699    22785206.563          37.500          35.700          47.000
 106987537.042 7  83366985.10848  79893353.043 8  20359061.750
  20359069.910    20359068.492          45.100          50.000          52.800
 115628052.020 6  89932952.105 6                  21691532.102    21691531.598
  21691537.762                          39.600          41.100
 114228048.813 7  89008873.25745                  21736867.234
  21736870.699                          43.200          33.400
 117692728.299 5  91538720.402 5                  22032309.023    22032306.734
  22032310.570                          31.600          34.500
 104881846.864 7  81574679.456 7                  19627181.133    19627180.684
  19627185.102                          45.700          45.900
 127046994.679 7                  94872774.193 8  24176239.648
                  24176245.508          44.600                          48.500
 124789236.316 7                  93186781.728 8  23746602.469
                  23746607.320          46.100                          50.100
 143919110.016 5                 107472077.298 6  27386899.063
                  27386905.777          34.600                          40.200
 125174281.753 5                  93474318.019 6  23819872.625
                  23819877.723          32.200                          39.600
 121971642.777 7                  91082749.198 8  23210429.336
                  23210434.012          44.700                          48.200
 20  8 16  0  0 22.0000000  0 22R01G17G07G08G03R18R24R17G28G11R02G30
                                G01R14G22R16R15E36E02E25E14E30
 122426957.537 4  95221113.051 4                  22902523.125    22902522.328
  22902529.641                          29.800          28.500
 122063565.530 6  95114371.23245                  23227892.117
  23227897.633                          36.700          33.600
 124508804.929 5  97019906.26445                  23693251.633
  23693256.574                          34.600          30.100
 123753910.239 5  96431632.17843  92413639.166 7  23549583.938
  23549593.902    23549593.129          35.000          20.600          43.700
 115995259.033 6  90386018.60546  86619936.299 8  22073176.883
  22073185.125    22073185.859          40.500          41.100          48.900
 113940873.769 6  88620598.846 6                  21344938.938    21344938.668
  21344943.684                          39.300          41.300
 119845511.733 6  93213191.620 6                  22411720.305    22411719.027
  22411723.621                          36.500          37.500
 106407939.737 7  82761622.220 7                  19884838.250    19884837.141
  19884841.398                          43.800          44.400
 112673477.855 7  87797524.88845                  21441042.563
  21441048.004                          42.600          32.900
 113570142.336 6  88496218.30644                  21611677.289
  21611682.324                          41.300          27.600
 123231708.091 5  95846907.461 5                  23093567.180    23093565.758
  23093573.586                          33.200          35.600
 119739232.687 6  93303338.48345  89415697.796 7  22785622.945
  22785630.973    22785630.910          37.600          35.500          46.600
 106989124.740 7  83368222.27448  79894538.666 8  20359363.555
  20359371.887    20359370.645          44.600          50.000          52.800
 115632135.928 6  89936128.499 6                  21692297.484    21692297.770
  21692303.867                          39.400          40.600
 114227240.638 7  89008243.51345                  21736714.133
  21736716.973                          43.200          33.000
 117689660.577 5  91536334.383 5                  22031735.031    22031732.695
  22031736.340                          32.100          33.500
 104882646.178 7  81575301.152 7                  19627330.438    19627330.184
  19627334.590                          45.500          46.200
 127048590.512 7                  94873965.897 8  24176543.477
                  24176549.121          44.500                          48.600
 124790778.982 7                  93187933.731 8  23746896.109
                  23746900.750          46.000                          50.000
 143922163.852 5                 107474357.748 6  27387479.836
                  27387486.766          34.900                          40.200
 125168199.943 5                  93469776.382 6  23818715.680
                  23818720.742          31.800                          39.700
 121970398.401 7                  91081819.944 8  23210192.477
                  23210197.254          44.900                          48.700
 20  8 16  0  0 23.0000000  0 22R01G17G07G08G03R18R24R17G28G11R02G30
                                G01R14G22R16R15E36E02E25E14E30
 122426789.569 4  95220982.399 4                  22902492.391    22902490.371
  22902498.129                          29.700          26.900
 122061549.384 6  95112800.21445                  23227508.836
  23227513.766                          36.300          34.200
 124511953.532 5  97022359.71745                  23693850.016
  23693855.809                          34.600          30.700
 123756239.785 5  96433447.38443  92415378.741 7  23550028.164
  23550037.172    23550036.516          35.000          20.600          43.200
 115992710.442 6  90384032.68846  86618033.115 8  22072691.367
  22072699.980    22072700.867          40.400          41.600          48.800
 113939125.704 6  88619239.250 6                  21344611.109    21344611.121
  21344616.125                          39.400          41.400
 119848352.578 6  93215401.191 6                  22412251.258    22412250.113
  22412254.957                          36.200          37.600
 106408722.096 7  82762230.725 7                  19884983.023    19884983.293
  19884987.746                          43.700          44.600
 112671465.382 7  87795956.72845                  21440659.570
  21440665.074                          42.500          33.200
 113572479.510 6  88498039.47844                  21612121.352
  21612127.109                          40.800          28.300
 123228384.194 5  95844322.217 6                  23092945.406    23092942.898
  23092950.680                          34.000          36.400
 119741463.162 6  93305076.52245  89417363.435 7  22786047.539
  22786055.504    22786055.336          37.800          35.700          46.300
 106990712.957 7  83369459.84948  79895724.675 8  20359666.109
  20359674.195    20359672.918          44.700          50.000          52.600
 115636220.220 6  89939305.144 6                  21693064.703    21693063.691
  21693070.070                          39.200          40.800
 114226433.102 7  89007614.25945                  21736560.195
  21736563.113                          42.900          33.800
 117686593.470 5  91533948.895 5                  22031160.180    22031158.590
  22031162.172                          31.900          33.900
 104883446.421 7  81575923.563 7                  19627480.492    19627479.953
  19627484.344                          45.600          45.700
 127050186.511 7                  94875157.697 8  24176847.289
                  24176852.934          45.000                          48.600
 124792322.090 7                  93189086.037 8  23747189.719
                  23747194.383          46.300                          50.200
 143925217.837 5                 107476638.290 6  27388061.016
                  27388067.992          34.600                          40.000
 125162118.181 5                  93465234.813 6  23817558.453
                  23817563.199          31.500                          39.700
 121969154.441 7                  91080891.023 8  23209955.508
                  23209960.484          44.600                          48.600
 20  8 16  0  0 24.0000000  0 22R01G17G07G08G03R18R24R17G28G11R02G30
                                G01R14G22R16R15E36E02E25E14E30
 122426622.262 5  95220852.345 4                  22902462.141    22902459.512
  22902466.789                          30.500          27.500
 122059533.228 6  95111229.17645                  23227124.719
  23227130.078                          36.500          34.100
 124515102.109 5  97024813.14544                  23694448.844
  23694454.992                          34.600          29.500
 123758569.379 5  96435262.65743  92417118.353 7  23550471.664
  23550480.379    23550479.789          35.400          20.100          43.600
 115990162.194 6  90382047.04247  86616130.209 8  22072207.109
  22072215.148    22072216.008          40.300          42.000          48.600
 113937377.837 6  88617879.815 6                  21344285.016    21344283.883
  21344288.711                          39.200          41.500
 119851193.408 6  93217610.706 6                  22412780.945    22412780.793
  22412786.016                          36.200          37.500
 106409504.663 7  82762839.376 7                  19885130.227    19885129.547
  19885133.918                          43.500          44.800
 112669453.193 7  87794388.78945                  21440277.336
  21440282.313                          42.400          33.000
 113574816.889 6  88499860.82444                  21612566.844
  21612571.703                          40.800          28.400
 123225060.506 5  95841737.113 6                  23092322.805    23092320.641
  23092327.797                          34.100          36.500
 119743693.987 6  93306814.82645  89419029.303 7  22786472.344
  22786479.938    22786479.871          37.600          35.400          46.000
 106992301.605 7  83370697.75748  79896911.004 8  20359968.297
  20359976.484    20359975.289          44.500          50.000          52.600
 115640304.768 6  89942482.033 6                  21693831.625    21693830.070
  21693836.281                          39.500          40.600
 114225626.128 7  89006985.44645                  21736406.727
  21736409.695                          43.000          34.100
 117683526.919 5  91531563.795 5                  22030585.227    22030584.547
  22030588.086                          31.700          33.700
 104884247.513 7  81576546.633 7                  19627630.219    19627629.672
  19627634.316                          45.300          45.600
 127051782.565 7                  94876349.561 8  24177150.734
                  24177156.652          44.800                          48.600
 124793865.536 7                  93190238.626 8  23747483.492
                  23747488.074          46.200                          50.300
 143928271.814 5                 107478918.900 6  27388642.414
                  27388649.215          34.800                          40.200
 125156036.355 5                  93460693.175 6  23816401.242
                  23816405.742          32.000                          40.200
 121967910.839 7                  91079962.358 8  23209718.672
                  23209723.809          45.100                          48.400
 20  8 16  0  0 25.0000000  0 22R01G17G07G08G03R18R24R17G28G11R02G30
                                G01R14G22R16R15E36E02E25E14E30
 122426455.941 5  95220722.926 4                  22902430.195    22902428.395
  22902435.508                          30.000          27.800
 122057517.202 5  95109658.24845                  23226740.508
  23226746.379                          35.900          34.200
 124518250.841 5  97027266.71345                  23695048.320
  23695054.199                          34.400          30.900
 123760899.053 5  96437077.95543  92418858.073 7  23550914.703
  23550923.617    23550923.004          35.600          19.300          43.700
 115987614.451 6  90380061.79146  86614227.672 8  22071722.469
  22071730.266    22071731.234          40.600          41.400          48.700
 113935630.368 6  88616520.666 6                  21343957.195    21343956.297
  21343961.406                          39.400          41.500
 119854034.229 6  93219820.237 6                  22413311.859    22413312.496
  22413317.223                          36.500          37.800
 106410287.555 7  82763448.305 7                  19885276.164    19885275.609
  19885280.156                          43.700          45.000
 112667441.397 7  87792821.15245                  21439894.414
  21439899.422                          42.400          33.500
 113577154.514 6  88501682.32944                  21613011.094
  21613016.461                          41.300          28.000
 123221737.093 5  95839152.250 6                  23091698.930    23091697.734
  23091704.984                          33.400          36.200
 119745925.224 6  93308553.45646  89420695.478 7  22786896.070
  22786904.551    22786904.449          37.800          36.000          46.000
 106993890.742 7  83371936.04648  79898097.704 8  20360270.422
  20360278.930    20360277.672          44.700          49.900          52.800
 115644389.787 6  89945659.273 6                  21694597.063    21694596.227
  21694602.559                          39.600          40.700
 114224819.780 7  89006357.12445                  21736253.336
  21736256.293                          43.300          33.600
 117680460.976 5  91529179.182 5                  22030009.773    22030010.727
  22030014.168                          31.500          33.700
 104885049.555 7  81577170.438 7                  19627780.125    19627779.801
  19627784.500                          45.100          45.600
 127053378.794 7                  94877541.548 8  24177454.414
                  24177460.332          45.000                          48.200
 124795409.473 7                  93191391.557 8  23747777.289
                  23747781.895          46.100                          50.400
 143931326.002 5                 107481199.569 6  27389223.242
                  27389230.383          34.500                          39.800
 125149954.463 5                  93456151.557 6  23815243.883
                  23815248.543          32.200                          40.000
 121966667.683 7                  91079034.024 8  23209482.469
                  23209487.402          45.100                          48.500
 20  8 16  0  0 26.0000000  0 22R01G17G07G08G03R18R24R17G28G11R02G30
                                G01R14G22R16R15E36E02E25E14E30
 122426290.345 4  95220594.100 4                  22902399.516    22902397.395
  22902404.422                          29.900          28.100
 122055501.209 5  95108087.33645                  23226357.781
  23226362.699                          35.800          34.500
 124521399.625 5  97029720.31845                  23695648.813
  23695653.316                          34.900          30.300
 123763228.786 5  96438893.36043  92420597.826 7  23551358.031
  23551367.008    23551366.414          35.000          20.100          43.400
 115985067.112 6  90378076.85446  86612325.440 8  22071237.461
  22071245.656    22071246.418          40.000          41.300          49.100
 113933883.146 6  88615161.734 6                  21343629.477    21343629.273
  21343634.156                          39.800          41.000
 119856875.011 6  93222029.731 6                  22413844.258    22413843.609
  22413848.492                          36.300          37.400
 106411070.713 7  82764057.437 7                  19885422.953    19885422.113
  19885426.543                          43.800          44.800
 112665429.867 7  87791253.72645                  21439511.836
  21439516.504                          42.600          33.000
 113579492.342 6  88503504.01444                  21613455.938
  21613461.230                          41.000          27.900
 123218413.944 5  95836567.608 6                  23091077.094    23091074.996
  23091082.258                          33.900          36.100
 119748156.814 6  93310292.35145  89422361.912 7  22787321.078
  22787329.230    22787329.000          37.600          35.700          45.900
 106995480.362 7  83373174.71048  79899284.759 8  20360573.234
  20360581.453    20360580.152          44.900          50.000          52.700
 115648475.160 6  89948836.777 6                  21695364.063    21695363.035
  21695368.969                          39.700          40.500
 114224013.998 7  89005729.24545                  21736100.000
  21736102.910                          43.400          34.000
 117677395.613 5  91526794.987 5                  22029436.227    22029436.875
  22029440.234                          31.700          33.400
 104885852.482 7  81577794.936 7                  19627930.695    19627930.242
  19627934.723                          45.600          45.500
 127054975.100 7                  94878733.605 8  24177758.328
                  24177764.078          44.900                          48.200
 124796953.760 7                  93192544.749 8  23748071.094
                  23748075.781          46.300                          50.200
 143934380.218 5                 107483480.339 6  27389804.531
                  27389811.492          34.900                          39.800
 125143872.644 5                  93451609.935 6  23814086.203
                  23814091.258          31.800                          39.900
 121965424.890 7                  91078105.960 8  23209245.742
                  23209250.844          44.800                          48.400
 20  8 16  0  0 27.0000000  0 22R01G17G07G08G03R18R24R17G28G11R02G30
                                G01R14G22R16R15E36E02E25E14E30
 122426125.504 4  95220465.913 4                  22902368.531    22902366.676
  22902373.586                          29.600          27.800
 122053485.260 6  95106516.47345                  23225974.492
  23225979.223                          36.000          34.100
 124524548.563 5  97032174.03544                  23696247.820
  23696252.469                          34.300          29.800
 123765558.702 5  96440708.88043  92422337.691 7  23551801.211
  23551810.410    23551809.918          35.100          20.100          43.900
 115982520.208 6  90376092.25246  86610423.545 8  22070752.844
  22070760.977    22070761.684          39.700          41.300          49.300
 113932136.330 6  88613803.063 6                  21343304.000    21343302.090
  21343307.055                          39.400          41.100
 119859715.823 6  93224239.266 6                  22414375.242    22414374.953
  22414379.660                          36.400          37.600
 106411854.197 7  82764666.800 7                  19885569.289    19885568.508
  19885572.938                          43.800          45.100
 112663418.708 7  87789686.59645                  21439129.016
  21439133.730                          42.700          32.700
 113581830.401 6  88505325.87944                  21613901.359
  21613906.172                          40.700          28.300
 123215091.076 5  95833983.116 6                  23090454.789    23090452.469
  23090459.496                          34.000          36.100
 119750388.783 6  93312031.55145  89424028.662 7  22787746.000
  22787754.012    22787753.785          37.800          35.600          46.200
 106997070.472 7  83374413.75948  79900472.175 8  20360875.266
  20360884.063    20360882.734          44.600          49.800          53.100
 115652560.869 6  89952014.548 6                  21696130.352    21696129.563
  21696135.438                          40.100          40.900
 114223208.871 7  89005101.87145                  21735946.734
  21735949.551                          43.100          33.600
 117674330.791 5  91524411.290 5                  22028862.594    22028863.160
  22028866.516                          32.100          33.600
 104886656.364 7  81578420.183 7                  19628080.555    19628080.414
  19628085.148                          45.100          45.600
 127056571.591 7                  94879925.767 8  24178062.156
                  24178067.902          44.700                          48.300
 124798498.492 7                  93193698.292 8  23748364.883
                  23748369.824          46.500                          50.500
 143937434.583 5                 107485761.203 6  27390386.430
                  27390392.738          34.700                          40.200
 125137790.860 5                  93447068.326 6  23812929.000
                  23812933.750          31.500                          39.900
 121964182.516 7                  91077178.222 8  23209009.398
                  23209014.316          44.600                          48.300
 20  8 16  0  0 28.0000000  0 22R01G17G07G08G03R18R24R17G28G11R02G30
                                G01R14G22R16R15E36E02E25E14E30
 122425961.539 5  95220338.388 4                  22902337.758    22902335.789
  22902343.000                          30.100          27.900
 122051469.412 6  95104945.68245                  23225589.820
  23225595.637                          36.100          33.500
 124527697.580 5  97034627.81944                  23696845.844
  23696851.727                          34.500          29.800
 123767888.725 5  96442524.50343  92424077.631 7  23552244.953
  23552253.633    23552253.066          35.400          20.400          43.600
 115979973.758 6  90374108.01546  86608521.979 8  22070268.344
  22070276.375    22070277.145          39.700          41.800          49.500
 113930389.762 6  88612444.637 6                  21342976.289    21342974.926
  21342979.609                          39.600          41.500
 119862556.703 6  93226448.808 6                  22414907.391    22414906.418
  22414911.020                          36.800          37.500
 106412637.952 7  82765276.393 7                  19885715.844    19885714.980
  19885719.563                          44.300          44.800
 112661407.870 7  87788119.71245                  21438746.313
  21438751.133                          42.600          32.600
 113584168.690 6  88507147.92744                  21614346.461
  21614351.105                          40.900          28.000
 123211768.458 5  95831398.882 6                  23089831.656    23089829.754
  23089836.715                          34.300          36.500
 119752621.149 6  93313771.05745  89425695.680 7  22788170.656
  22788178.844    22788178.645          37.800          35.200          46.100
 106998661.073 7  83375653.18848  79901659.948 8  20361177.891
  20361186.680    20361185.309          44.700          49.800          52.900
 115656646.936 6  89955192.586 6                  21696897.586    21696895.445
  21696901.941                          39.500          40.700
 114222404.337 7  89004474.96345                  21735793.500
  21735796.570                          43.000          33.700
 117671266.585 5  91522027.994 5                  22028289.242    22028289.426
  22028292.797                          32.000          34.300
 104887461.146 7  81579046.120 7                  19628231.227    19628231.102
  19628235.668                          45.000          45.900
 127058168.184 7                  94881118.043 8  24178366.047
                  24178371.574          45.000                          48.700
 124800043.625 7                  93194852.133 8  23748658.797
                  23748663.750          46.600                          50.400
 143940489.061 5                 107488042.154 6  27390967.242
                  27390973.961          34.400                          40.300
 125131709.063 5                  93442526.737 6  23811771.648
                  23811776.387          31.800                          39.800
 121962940.564 7                  91076250.780 8  23208773.328
                  23208778.023          44.700                          48.300
 20  8 16  0  0 29.0000000  0 22R01G17G07G08G03R18R24R17G28G11R02G30
                                G01R14G22R16R15E36E02E25E14E30
 122425798.392 5  95220211.489 4                  22902306.758    22902305.680
  22902312.477                          30.100          28.400
 122049453.600 6  95103374.91145                  23225206.953
  23225212.078                          36.700          34.200
 124530846.689 5  97037081.67044                  23697445.625
  23697451.117                          34.200          29.700
 123770218.854 5  96444340.18243  92425817.646 7  23552687.781
  23552697.059    23552696.648          35.100          20.900          43.900
 115977427.764 6  90372124.12047  86606620.747 8  22069783.883
  22069791.973    22069792.570          39.800          42.000          49.900
 113928643.579 6  88611086.501 6                  21342648.758    21342648.000
  21342652.613                          39.800          41.600
 119865397.544 6  93228658.376 6                  22415437.094    22415437.813
  22415442.328                          37.200          37.400
 106413422.017 7  82765886.209 7                  19885862.508    19885861.539
  19885866.074                          44.100          44.800
 112659397.380 7  87786553.10145                  21438363.836
  21438368.555                          42.400          32.800
 113586507.209 6  88508970.15444                  21614791.555
  21614796.035                          41.400          27.200
 123208446.147 5  95828814.858 6                  23089209.844    23089207.262
  23089214.090                          34.400          36.400
 119754853.916 6  93315510.87445  89427362.996 7  22788595.391
  22788603.555    22788603.465          38.200          35.700          46.500
 107000252.157 7  83376892.99748  79902848.109 8  20361481.055
  20361489.449    20361488.250          44.700          49.900          52.900
 115660733.351 6  89958370.930 6                  21697664.234    21697662.313
  21697668.504                          39.600          40.400
 114221600.432 7  89003848.54845                  21735640.820
  21735643.684                          43.000          33.900
 117668203.063 5  91519645.233 5                  22027714.820    22027715.727
  22027719.258                          31.900          34.200
 104888266.856 7  81579672.776 7                  19628382.586    19628382.008
  19628386.520                          44.900          45.900
 127059764.925 7                  94882310.421 8  24178669.969
                  24178675.746          45.300                          48.500
 124801589.200 7                  93196006.290 8  23748952.961
                  23748957.773          46.600                          49.800
 143943543.669 5                 107490323.172 6  27391548.797
                  27391555.313          34.500                          40.200
 125125627.270 5                  93437985.146 6  23810614.016
                  23810619.574          32.600                          39.600
 121961699.003 7                  91075323.650 8  23208536.977
                  23208541.848          44.700                          48.800
 20  8 16  0  0 30.0000000  0 22R01G17G07G08G03R18R24R17G28G11R02G30
                                G01R14G22R16R15E36E02E25E14E30
 122425635.936 4  95220085.176 4                  22902277.273    22902275.758
  22902282.000                          29.600          28.700
 122047437.851 6  95101804.20545                  23224823.547
  23224828.469                          36.800          33.600
 124533995.879 5  97039535.57244                  23698045.156
  23698050.258                          34.300          29.400
 123772549.051 5  96446155.91343  92427557.757 7  23553131.383
  23553140.469    23553140.059          35.600          20.400          44.000
 115974882.155 6  90370140.52346  86604719.811 8  22069299.039
  22069307.566    22069308.270          40.500          41.800          49.700
 113926897.664 6  88609728.559 6                  21342322.914    21342321.020
  21342325.691                          39.900          41.100
 119868238.341 6  93230867.888 6                  22415967.742    22415968.539
  22415973.441                          36.900          37.500
 106414206.328 7  82766496.225 7                  19886008.930    19886007.965
  19886012.586                          43.900          44.300
 112657387.208 7  87784986.72845                  21437981.359
  21437986.152                          42.500          33.300
 113588845.960 6  88510792.55444                  21615236.859
  21615241.195                          41.400          27.700
 123205124.016 5  95826230.935 6                  23088588.133    23088585.055
  23088591.504                          34.900          36.400
 119757087.006 6  93317250.94445  89429030.561 7  22789021.195
  22789028.500    22789028.395          37.900          35.300          46.200
 107001843.696 7  83378133.15648  79904036.596 8  20361783.688
  20361792.238    20361791.074          44.800          49.900          52.800
 115664820.080 6  89961549.505 6                  21698430.492    21698429.027
  21698435.316                          39.600          40.800
 114220797.106 7  89003222.57545                  21735487.461
  21735490.699                          42.700          34.300
 117665140.073 5  91517262.917 5                  22027141.945    22027142.531
  22027145.836                          31.800          33.800
 104889073.448 7  81580300.132 7                  19628533.188    19628532.984
  19628537.461                          45.200          46.200
 127061361.747 7                  94883502.861 8  24178973.422
                  24178979.504          45.300                          48.400
 124803135.145 7                  93197160.727 8  23749247.297
                  23749252.090          46.600                          50.100
 143946598.345 5                 107492604.243 6  27392129.922
                  27392136.430          34.500                          40.100
 125119545.472 5                  93433443.560 6  23809457.109
                  23809462.363          32.600                          40.000
 121960457.821 7                  91074396.796 8  23208300.789
                  23208305.781          44.600                          48.600
 20  8 16  0  0 31.0000000  0 22R01G17G07G08G03R18R24R17G28G11R02G30
                                G01R14G22R16R15E36E02E25E14E30
 122425474.252 4  95219959.459 4                  22902246.781    22902245.137
  22902251.781                          29.900          28.800
 122045422.103 6  95100233.48745                  23224439.242
  23224444.781                          36.900          34.200
 124537145.208 5  97041989.59145                  23698643.773
  23698649.531                          34.300          30.000
 123774879.375 5  96447971.75143  92429297.926 7  23553575.703
  23553583.809    23553583.367          35.200          19.900          43.800
 115972337.000 6  90368157.28447  86602819.196 8  22068814.672
  22068823.109    22068824.016          40.200          42.200          49.500
 113925152.054 6  88608370.876 6                  21341994.336    21341993.520
  21341998.684                          39.500          41.000
 119871079.136 6  93233077.412 6                  22416500.406    22416500.316
  22416504.707                          36.500          37.400
 106414990.927 7  82767106.476 7                  19886155.648    19886154.691
  19886159.215                          43.900          44.300
 112655377.356 7  87783420.61145                  21437598.922
  21437603.672                          42.000          33.600
 113591184.907 6  88512615.10244                  21615681.211
  21615686.402                          41.100          27.900
 123201802.007 5  95823647.233 6                  23087966.016    23087962.844
  23087968.914                          34.800          36.400
 119759320.478 6  93318991.31545  89430698.426 7  22789445.844
  22789453.410    22789453.527          37.600          35.500          45.900
 107003435.702 7  83379373.68148  79905225.434 8  20362086.781
  20362095.227    20362093.988          44.400          49.800          53.000
 115668907.190 6  89964728.356 6                  21699197.430    21699195.590
  21699202.102                          39.200          41.100
 114219994.373 7  89002597.07745                  21735334.680
  21735338.070                          42.900          33.900
 117662077.654 5  91514881.012 5                  22026570.328    22026568.645
  22026572.496                          31.800          34.000
 104889880.944 7  81580928.182 7                  19628684.648    19628683.879
  19628688.516                          45.700          46.400
 127062958.714 7                  94884695.387 8  24179277.586
                  24179283.414          45.600                          48.000
 124804681.492 7                  93198315.464 8  23749541.422
                  23749546.297          46.300                          50.400
 143949653.099 5                 107494885.417 6  27392711.008
                  27392717.750          34.800                          40.300
 125113463.674 5                  93428901.944 6  23808299.984
                  23808304.898          33.200                          40.200
 121959217.037 7                  91073470.228 8  23208064.430
                  23208069.527          44.500                          48.400
 20  8 16  0  0 32.0000000  0 22R01G17G07G08G03R18R24R17G28G11R02G30
                                G01R14G22R16R15E36E02E25E14E30
 122425313.482 4  95219834.349 4                  22902216.727    22902215.598
  22902221.797                          29.400          28.600
 122043406.492 6  95098662.88345                  23224056.078
  23224061.172                          36.900          33.900
 124540294.613 5  97044443.66744                  23699243.164
  23699248.789                          34.300          29.100
 123777209.797 5  96449787.67843  92431038.190 7  23554019.141
  23554027.215    23554026.875          35.200          20.400          43.900
 115969792.265 6  90366174.38246  86600918.919 8  22068330.609
  22068338.965    22068339.684          40.800          41.900          49.400
 113923406.822 6  88607013.451 6                  21341667.273    21341666.328
  21341671.785                          39.500          40.800
 119873919.962 6  93235286.935 6                  22417030.984    22417031.113
  22417035.980                          36.300          37.200
 106415775.833 7  82767716.965 7                  19886302.367    19886301.578
  19886305.855                          44.100          44.900
 112653367.854 7  87781854.77045                  21437216.281
  21437221.246                          42.700          32.700
 113593524.090 6  88514437.84344                  21616126.180
  21616131.527                          41.100          26.900
 123198480.299 5  95821063.639 6                  23087341.234    23087340.074
  23087346.480                          35.000          36.800
 119761554.308 6  93320731.95845  89432366.567 7  22789871.008
  22789878.457    22789878.676          37.900          35.400          46.100
 107005028.216 7  83380614.60248  79906414.646 8  20362389.852
  20362398.340    20362397.016          44.800          49.800          53.300
 115672994.643 6  89967907.505 6                  21699963.594    21699962.395
  21699968.746                          39.600          40.900
 114219192.282 7  89001972.06445                  21735182.750
  21735185.234                          43.200          33.600
 117659015.813 5  91512499.579 5                  22025996.125    22025995.563
  22025999.422                          31.700          33.400
 104890689.323 7  81581556.919 7                  19628835.133    19628835.105
  19628839.848                          45.600          46.400
 127064555.816 7                  94885888.033 8  24179581.516
                  24179587.211          46.000                          48.300
 124806228.280 7                  93199470.532 8  23749835.773
                  23749840.633          46.200                          50.300
 143952707.983 5                 107497166.668 6  27393291.805
                  27393299.051          34.700                          40.400
 125107381.925 5                  93424360.351 6  23807142.875
                  23807147.777          33.200                          40.400
 121957976.686 7                  91072543.989 8  23207828.398
                  23207833.406          44.400                          48.500
 20  8 16  0  0 33.0000000  0 22R01G17G07G08G03R18R24R17G28G11R02G30
                                G01R14G22R16R15E36E02E25E14E30
 122425153.498 4  95219709.867 4                  22902186.859    22902185.215
  22902191.848                          29.700          28.800
 122041390.861 6  95097092.25745                  23223672.031
  23223677.621                          36.800          34.000
 124543444.071 5  97046897.79044                  23699842.648
  23699848.305                          33.900          28.900
 123779540.303 5  96451603.64943  92432778.494 7  23554461.383
  23554470.598    23554470.469          35.500          19.900          43.800
 115967247.962 6  90364191.80246  86599018.943 8  22067846.469
  22067854.746    22067855.488          39.900          41.300          49.000
 113921661.790 6  88605656.220 6                  21341340.930    21341339.609
  21341344.879                          39.700          40.900
 119876760.820 5  93237496.444 6                  22417562.961    22417562.621
  22417567.152                          35.900          37.700
 106416561.019 7  82768327.663 7                  19886449.367    19886448.277
  19886452.723                          43.900          44.900
 112651358.636 7  87780289.14945                  21436833.773
  21436838.887                          42.600          33.200
 113595863.476 6  88516260.73044                  21616571.672
  21616576.641                          41.500          28.500
 123195158.728 5  95818480.203 6                  23086717.977    23086717.582
  23086724.000                          34.900          36.300
 119763788.566 6  93322472.93945  89434034.970 7  22790295.414
  22790303.559    22790303.656          37.500          35.100          46.400
 107006621.173 7  83381855.86848  79907604.189 8  20362692.680
  20362701.520    20362700.203          45.100          49.900          53.200
 115677082.422 6  89971086.896 6                  21700730.820    21700729.348
  21700735.660                          39.500          40.400
 114218390.748 7  89001347.48745                  21735029.734
  21735032.820                          43.000          33.800
 117655954.508 5  91510118.631 5                  22025423.078    22025422.668
  22025426.332                          31.500          34.600
 104891498.575 7  81582186.346 7                  19628986.961    19628986.895
  19628991.277                          45.400          46.400
 127066153.020 7                  94887080.738 8  24179885.539
                  24179891.184          45.700                          48.700
 124807775.446 7                  93200625.881 8  23750130.273
                  23750134.980          46.200                          50.300
 143955762.959 5                 107499447.974 6  27393873.430
                  27393880.266          34.500                          40.400
 125101300.113 5                  93419818.744 6  23805985.500
                  23805990.242          33.000                          40.200
 121956736.696 7                  91071618.016 8  23207592.492
                  23207597.520          44.600                          48.600
 20  8 16  0  0 34.0000000  0 22R01G17G07G08G03R18R24R17G28G11R02G30
                                G01R14G22R16R15E36E02E25E14E30
 122424994.304 5  95219586.086 4                  22902157.875    22902155.266
  22902162.023                          30.200          29.100
 122039375.307 6  95095521.70145                  23223289.898
  23223294.152                          36.600          34.200
 124546593.639 5  97049352.00044                  23700441.617
  23700447.613                          33.500          29.600
 123781870.932 5  96453419.71243  92434518.893 7  23554905.133
  23554914.035    23554913.965          35.700          19.900          43.900
 115964704.078 6  90362209.55146  86597119.303 8  22067362.656
  22067370.656    22067371.449          40.200          40.900          48.700
 113919917.084 6  88604299.230 6                  21341013.594    21341012.734
  21341018.164                          40.000          41.300
 119879601.613 6  93239705.981 6                  22418094.016    22418093.730
  22418098.254                          36.100          37.800
 106417346.478 7  82768938.558 7                  19886595.742    19886594.848
  19886599.500                          43.500          44.800
 112649349.770 7  87778723.79645                  21436451.859
  21436456.551                          42.600          32.600
 113598203.069 6  88518083.80344                  21617016.938
  21617021.777                          41.000          28.400
 123191837.380 5  95815896.959 6                  23086096.391    23086095.117
  23086101.605                          35.400          36.000
 119766023.128 6  93324214.15245  89435703.655 7  22790720.883
  22790728.930    22790728.871          37.700          35.500          46.100
 107008214.621 7  83383097.51448  79908794.098 8  20362996.133
  20363004.715    20363003.316          44.900          49.800          53.200
 115681170.568 6  89974266.546 6                  21701496.352    21701496.262
  21701502.535                          39.800          40.300
 114217589.830 7  89000723.39645                  21734877.453
  21734880.570                          43.000          33.800
 117652893.867 5  91507738.100 5                  22024850.461    22024849.852
  22024853.363                          32.500          34.000
 104892308.758 7  81582816.487 7                  19629138.352    19629138.059
  19629142.848                          45.200          46.100
 127067750.342 7                  94888273.548 8  24180189.344
                  24180195.223          45.400                          48.600
 124809323.021 7                  93201781.540 8  23750424.820
                  23750429.398          46.300                          50.500
 143958818.069 5                 107501729.377 6  27394454.859
                  27394461.707          34.600                          40.300
 125095218.310 5                  93415277.148 6  23804828.273
                  23804833.250          33.200                          40.400
 121955497.118 7                  91070692.354 8  23207356.844
                  23207361.609          44.900                          48.500
 20  8 16  0  0 35.0000000  0 22R01G17G07G08G03R18R24R17G28G11R02G30
                                G01R14G22R16R15E36E02E25E14E30
 122424835.912 5  95219462.939 4                  22902127.367    22902125.727
  22902132.305                          30.000          29.800
 122037359.755 6  95093951.13945                  23222905.148
  23222910.609                          36.700          33.700
 124549743.317 5  97051806.28644                  23701040.672
  23701047.148                          33.700          29.000
 123784201.662 5  96455235.85643  92436259.352 7  23555348.781
  23555357.617    23555357.754          35.700          20.900          43.800
 115962160.647 6  90360227.66146  86595219.979 8  22066878.844
  22066886.445    22066887.285          40.100          41.500          48.600
 113918172.747 6  88602942.486 6                  21340686.680    21340685.910
  21340691.402                          39.700          41.200
 119882442.399 6  93241915.470 6                  22418625.453    22418624.664
  22418629.500                          36.800          37.900
 106418132.201 7  82769549.692 7                  19886742.852    19886741.441
  19886746.441                          43.900          44.900
 112647341.235 7  87777158.69845                  21436069.141
  21436074.250                          42.600          32.800
 113600542.924 6  88519907.06044                  21617461.984
  21617467.074                          40.700          27.600
 123188516.232 5  95813313.830 6                  23085474.750    23085473.043
  23085479.137                          35.300          36.500
 119768258.117 6  93325955.70645  89437372.630 7  22791146.422
  22791154.184    22791154.258          37.700          35.700          46.400
 107009808.519 7  83384339.51348  79909984.359 8  20363299.367
  20363308.047    20363306.707          45.100          49.900          53.100
 115685259.057 6  89977446.499 6                  21702265.156    21702263.516
  21702269.613                          40.000          40.200
 114216789.540 7  89000099.79645                  21734725.438
  21734728.270                          43.300          34.300
 117649833.813 5  91505358.062 5                  22024277.680    22024277.121
  22024280.648                          32.100          33.800
 104893119.862 7  81583447.338 7                  19629291.039    19629290.094
  19629294.797                          45.500          46.200
 127069347.799 7                  94889466.462 8  24180493.234
                  24180499.195          45.000                          48.600
 124810871.010 7                  93202937.513 8  23750719.367
                  23750724.102          46.100                          50.600
 143961873.256 5                 107504010.849 6  27395036.258
                  27395043.199          34.700                          40.200
 125089136.553 5                  93410735.549 6  23803670.961
                  23803675.715          33.300                          40.500
 121954257.929 7                  91069766.995 8  23207120.844
                  23207125.828          44.800                          48.700
 20  8 16  0  0 36.0000000  0 22R01G17G07G08G03R18R24R17G28G11R02G30
                                G01R14G22R16R15E36E02E25E14E30
 122424678.303 4  95219340.351 4                  22902097.805    22902096.703
  22902102.824                          29.900          28.000
 122035344.328 6  95092380.68445                  23222521.422
  23222527.355                          36.800          33.800
 124552893.067 5  97054260.63944                  23701640.469
  23701646.520                          34.200          29.100
 123786532.436 5  96457052.07343  92437999.889 7  23555792.883
  23555801.215    23555801.176          35.400          20.900          44.000
 115959617.653 6  90358246.10346  86593320.983 8  22066394.328
  22066402.609    22066403.418          40.300          41.000          48.700
 113916428.677 6  88601586.029 6                  21340359.133    21340359.398
  21340364.719                          39.500          40.900
 119885283.146 6  93244124.952 6                  22419157.070    22419155.883
  22419160.719                          36.700          37.900
 106418918.223 7  82770161.032 7                  19886889.813    19886888.598
  19886893.309                          43.800          43.900
 112645333.052 7  87775593.88645                  21435687.273
  21435692.039                          42.200          32.700
 113602882.946 6  88521730.45344                  21617907.758
  21617912.129                          40.800          27.100
 123185195.338 5  95810730.938 5                  23084851.820    23084851.336
  23084856.816                          35.200          35.600
 119770493.430 6  93327697.50845  89439041.863 7  22791571.609
  22791579.449    22791579.867          37.800          35.400          46.300
 107011402.916 7  83385581.90248  79911174.972 8  20363602.789
  20363611.473    20363610.184          45.100          49.700          52.800
 115689347.932 6  89980626.708 6                  21703031.570    21703030.430
  21703036.668                          39.900          40.100
 114215989.844 7  88999476.65345                  21734572.883
  21734576.129                          43.600          33.900
 117646774.369 5  91502978.478 5                  22023705.164    22023704.465
  22023707.930                          32.000          33.500
 104893931.838 7  81584078.885 7                  19629442.445    19629441.906
  19629446.684                          45.200          45.300
 127070945.340 7                  94890659.443 8  24180797.109
                  24180803.137          44.700                          48.600
 124812419.395 7                  93204093.765 8  23751014.188
                  23751018.648          46.100                          50.200
 143964928.569 5                 107506292.399 6  27395617.203
                  27395624.578          35.000                          39.800
 125083054.716 5                  93406193.953 6  23802513.328
                  23802518.523          33.900                          40.600
 121953019.113 7                  91068841.914 8  23206884.969
                  23206890.082          45.100                          48.300
 20  8 16  0  0 37.0000000  0 22R01G17G07G08G03R18R24R17G28G11R02G30
                                G01R14G22R16R15E36E02E25E14E30
 122424521.539 5  95219218.404 4                  22902066.836    22902067.453
  22902073.355                          30.500          28.500
 122033328.956 6  95090810.25245                  23222138.508
  23222143.813                          36.600          34.500
 124556042.884 5  97056715.04144                  23702240.938
  23702245.762                          33.900          28.700
 123788863.385 6  96458868.38243  92439740.508 7  23556236.500
  23556244.723    23556244.840          36.000          20.900          44.200
 115957075.077 6  90356264.88546  86591422.327 8  22065910.727
  22065918.746    22065919.547          40.200          41.200          48.600
 113914684.962 6  88600229.807 6                  21340033.836    21340033.035
  21340037.902                          39.600          41.400
 119888123.989 6  93246334.450 6                  22419687.328    22419687.109
  22419691.973                          36.400          37.700
 106419704.502 7  82770772.598 7                  19887036.961    19887035.438
  19887040.129                          43.800          44.200
 112643325.178 7  87774029.30345                  21435305.273
  21435309.938                          42.200          33.200
 113605223.208 6  88523554.04344                  21618352.578
  21618357.496                          40.700          28.800
 123181874.715 5  95808148.204 6                  23084229.617    23084228.652
  23084234.559                          35.500          36.400
 119772729.141 6  93329439.61946  89440711.391 7  22791996.563
  22792005.031    22792005.113          37.300          36.000          46.700
 107012997.786 7  83386824.65448  79912365.954 8  20363906.258
  20363915.008    20363913.660          45.500          49.900          53.000
 115693437.114 6  89983807.199 6                  21703797.734    21703797.664
  21703803.820                          39.500          40.400
 114215190.730 7  88998853.96445                  21734420.477
  21734424.082                          43.400          34.200
 117643715.519 5  91500599.369 5                  22023132.828    22023131.945
  22023135.258                          31.900          34.300
 104894744.747 7  81584711.136 7                  19629594.328    19629594.328
  19629598.820                          44.800          45.700
 127072543.053 7                  94891852.524 8  24181101.328
                  24181107.180          44.800                          48.600
 124813968.198 7                  93205250.341 8  23751308.711
                  23751313.445          46.300                          50.600
 143967983.925 5                 107508574.020 6  27396198.695
                  27396206.098          34.500                          40.300
 125076972.934 5                  93401652.345 6  23801355.938
                  23801361.246          33.800                          40.800
 121951780.726 7                  91067917.137 8  23206649.484
                  23206654.520          45.300                          48.200
 20  8 16  0  0 38.0000000  0 22R01G17G07G08G03R18R24R17G28G11R02G30
                                G01R14G22R16R15E36E02E25E14E30
 122424365.563 4  95219097.112 4                  22902037.039    22902037.773
  22902044.121                          29.900          27.900
 122031313.598 6  95089239.84945                  23221754.953
  23221760.516                          36.300          33.900
 124559192.822 5  97059169.53944                  23702839.852
  23702845.098                          33.700          29.800
 123791194.370 6  96460684.70743  92441481.223 7  23556680.563
  23556688.234    23556688.254          36.100          21.100          44.200
 115954532.963 6  90354284.01646  86589523.971 8  22065427.000
  22065435.082    22065435.852          39.900          41.100          48.400
 113912941.524 6  88598873.797 6                  21339706.820    21339706.156
  21339711.324                          39.400          41.500
 119890964.767 6  93248543.981 6                  22420218.922    22420218.613
  22420223.242                          36.700          37.800
 106420491.066 7  82771384.376 7                  19887183.680    19887182.625
  19887187.172                          44.100          44.200
 112641317.602 7  87772464.96845                  21434923.305
  21434928.020                          42.600          32.900
 113607563.719 6  88525377.81544                  21618798.148
  21618802.859                          40.800          28.700
 123178554.376 5  95805565.728 6                  23083607.008    23083605.996
  23083612.398                          35.500          37.000
 119774965.237 6  93331182.03945  89442381.200 7  22792422.406
  22792430.492    22792430.777          37.200          35.500          46.400
 107014593.142 7  83388067.79548  79913557.276 8  20364210.211
  20364218.766    20364217.094          45.400          50.000          53.000
 115697526.653 6  89986987.942 6                  21704565.781    21704565.012
  21704570.926                          39.400          40.200
 114214392.256 7  88998231.78545                  21734268.773
  21734272.313                          43.000          33.800
 117640657.246 5  91498220.713 5                  22022560.484    22022559.109
  22022562.750                          32.200          34.600
 104895558.539 7  81585344.077 7                  19629746.633    19629746.637
  19629751.008                          45.200          45.900
 127074140.867 7                  94893045.692 8  24181405.234
                  24181411.270          44.900                          48.500
 124815517.397 7                  93206407.210 8  23751603.703
                  23751608.258          46.000                          50.600
 143971039.400 5                 107510855.703 6  27396780.219
                  27396787.539          34.700                          40.000
 125070891.131 5                  93397110.761 6  23800199.039
                  23800204.012          33.800                          40.700
 121950542.737 7                  91066992.663 8  23206413.914
                  23206418.934          44.900                          48.300
 20  8 16  0  0 39.0000000  0 22R01G17G07G08G03R18R24R17G28G11R02G30
                                G01R14G22R16R15E36E02E25E14E30
 122424210.353 4  95218976.412 4                  22902009.016    22902008.512
  22902015.199                          29.600          28.400
 122029298.318 6  95087669.50645                  23221371.258
  23221376.969                          36.300          34.000
 124562342.882 5  97061624.11744                  23703438.781
  23703444.512                          34.000          29.700
 123793525.530 5  96462501.22643  92443222.023 7  23557123.477
  23557131.719    23557132.207          35.600          21.100          43.900
 115951991.265 6  90352303.46546  86587625.970 8  22064943.563
  22064951.230    22064952.227          40.200          41.800          48.600
 113911198.416 6  88597518.044 6                  21339379.969    21339379.543
  21339384.801                          38.900          41.600
 119893805.559 6  93250753.521 6                  22420749.250    22420749.832
  22420754.367                          36.900          37.700
 106421277.961 7  82771996.398 7                  19887330.273    19887329.730
  19887334.148                          44.000          44.400
 112639310.404 6  87770900.91345                  21434540.984
  21434546.207                          41.800          33.200
 113609904.445 6  88527201.76044                  21619243.133
  21619248.273                          40.800          27.700
 123175234.254 5  95802983.398 6                  23082985.477    23082984.609
  23082990.250                          35.400          36.500
 119777201.688 6  93332924.72745  89444051.287 7  22792848.102
  22792856.086    22792856.566          37.100          35.400          46.400
 107016188.962 7  83389311.29148  79914748.986 8  20364513.547
  20364522.180    20364520.785          45.200          49.800          52.700
 115701616.590 6  89990168.990 6                  21705332.570    21705332.340
  21705338.234                          38.900          40.000
 114213594.397 7  88997610.07045                  21734117.211
  21734120.406                          43.100          33.700
 117637599.533 5  91495842.482 5                  22021989.031    22021987.047
  22021990.461                          32.600          34.800
 104896373.241 7  81585977.757 7                  19629899.008    19629898.902
  19629903.398                          45.000          45.600
 127075738.811 7                  94894238.971 8  24181709.297
                  24181715.270          45.100                          48.800
 124817067.022 7                  93207564.406 8  23751898.578
                  23751903.063          46.300                          50.700
 143974095.027 5                 107513137.478 6  27397362.078
                  27397368.930          34.200                          39.900
 125064809.373 5                  93392569.169 6  23799041.781
                  23799046.699          33.900                          41.100
 121949305.142 7                  91066068.495 8  23206178.148
                  23206183.387          44.800                          48.300
 20  8 16  0  0 40.0000000  0 22R01G17G07G08G03R18R24R17G28G11R02G30
                                G01R14G22R16R15E36E02E25E14E30
 122424056.03315  95218856.333 4                  22901980.617    22901979.633
  22901986.344                          30.300          29.100
 122027283.080 6  95086099.19445                  23220987.852
  23220993.453                          36.100          34.100
 124565492.969 5  97064078.73744                  23704038.484
  23704044.004                          34.200          29.100
 123795856.795 5  96464317.77443  92444962.892 7  23557567.539
  23557575.230    23557575.703          35.900          20.600          43.900
 115949450.017 6  90350323.27446  86585728.276 8  22064459.852
  22064467.602    22064468.547          40.200          41.600          48.800
 113909455.594 6  88596162.525 6                  21339054.211    21339052.867
  21339058.262                          39.200          41.900
 119896646.359 6  93252962.997 6                  22421281.273    22421281.074
  22421285.578                          36.700          37.500
 106422065.126 7  82772608.638 7                  19887478.008    19887476.766
  19887481.172                          43.900          44.400
 112637303.512 6  87769337.09645                  21434159.328
  21434164.191                          41.600          33.100
 113612245.400 6  88529025.87444                  21619688.906
  21619693.719                          41.200          27.200
 123171914.361 5  95800401.284 6                  23082362.625    23082362.371
  23082368.105                          35.300          36.400
 119779438.495 6  93334667.69545  89445721.648 7  22793273.633
  22793281.871    22793282.125          36.900          35.400          46.300
 107017785.270 7  83390555.17048  79915941.021 8  20364817.570
  20364825.918    20364824.605          45.000          49.800          52.800
 115705706.797 6  89993350.287 6                  21706100.305    21706099.203
  21706105.402                          39.200          40.900
 114212797.113 7  88996988.81245                  21733964.898
  21733968.691                          43.500          34.000
 117634542.400 5  91493464.743 5                  22021416.094    22021414.605
  22021418.379                          31.900          34.300
 104897188.901 7  81586612.158 7                  19630051.609    19630051.645
  19630056.070                          45.200          45.900
 127077336.871 7                  94895432.322 8  24182013.484
                  24182019.410          45.200                          48.700
 124818617.060 7                  93208721.888 8  23752193.523
                  23752197.941          46.500                          50.800
 143977150.716 5                 107515419.330 6  27397943.008
                  27397950.469          34.500                          39.900
 125058727.641 5                  93388027.587 6  23797884.664
                  23797889.211          33.600                          41.000
 121948067.957 7                  91065144.613 8  23205942.898
                  23205947.918          44.900                          48.500
 20  8 16  0  0 41.0000000  0 22R01G17G07G08G03R18R24R17G28G11R02G30
                                G01R14G22R16R15E36E02E25E14E30
 122423902.473 5  95218736.885 4                  22901953.016    22901950.816
  22901957.512                          30.600          28.000
 122025267.867 5  95084528.89445                  23220604.266
  23220609.969                          35.700          34.200
 124568643.222 5  97066533.48244                  23704637.758
  23704643.477                          34.200          29.600
 123798188.185 5  96466134.45343  92446703.831 7  23558010.930
  23558018.902    23558019.375          35.500          21.100          43.600
 115946909.184 6  90348343.41146  86583830.908 8  22063975.820
  22063984.148    22063985.125          40.500          41.400          48.700
 113907713.081 6  88594807.229 6                  21338728.492    21338726.742
  21338731.844                          39.200          41.500
 119899487.122 6  93255172.492 6                  22421811.859    22421812.563
  22421816.777                          36.800          37.500
 106422852.564 7  82773221.092 7                  19887624.898    19887623.957
  19887628.332                          44.000          44.500
 112635296.974 6  87767773.56545                  21433777.563
  21433782.402                          41.600          33.300
 113614586.523 6  88530850.13044                  21620134.711
  21620139.387                          40.900          27.900
 123168594.733 5  95797819.343 6                  23081742.305    23081740.137
  23081745.969                          35.400          36.000
 119781675.738 6  93336411.00145  89447392.287 7  22793698.750
  22793707.449    22793707.918          36.900          35.100          46.300
 107019382.050 7  83391799.41148  79917133.418 8  20365121.164
  20365129.773    20365128.414          44.800          49.800          52.700
 115709797.389 6  89996531.841 6                  21706867.742    21706866.492
  21706872.785                          39.200          40.900
 114212000.453 7  88996368.04645                  21733813.633
  21733817.086                          43.800          34.000
 117631485.887 5  91491087.459 5                  22020843.805    22020842.547
  22020846.227                          32.100          34.900
 104898005.468 7  81587247.263 7                  19630204.766    19630204.363
  19630208.965                          45.500          46.200
 127078935.057 7                  94896625.782 8  24182317.852
                  24182323.457          45.000                          48.600
 124820167.499 7                  93209879.686 8  23752488.359
                  23752493.086          46.500                          50.600
 143980206.551 5                 107517701.262 6  27398524.773
                  27398531.813          34.500                          39.700
 125052645.829 5                  93383486.013 6  23796727.484
                  23796732.012          34.500                          41.200
 121946831.168 7                  91064221.043 8  23205707.672
                  23205712.695          44.800                          48.400
 20  8 16  0  0 42.0000000  0 22R01G17G07G08G03R18R24R17G28G11R02G30
                                G01R14G22R16R15E36E02E25E14E30
 122423749.703 4  95218618.065 4                  22901923.656    22901922.340
  22901928.820                          29.900          28.000
 122023252.817 5  95082958.72745                  23220220.039
  23220226.410                          35.600          34.000
 124571793.513 5  97068988.24345                  23705237.430
  23705243.004                          34.300          30.300
 123800519.654 5  96467951.22343  92448444.864 7  23558454.633
  23558462.746    23558463.035          35.500          20.600          43.900
 115944368.814 6  90346363.90346  86581933.891 8  22063492.805
  22063500.781    22063501.754          40.800          41.300          49.100
 113905970.857 6  88593452.202 6                  21338401.578    21338400.016
  21338405.477                          39.000          41.800
 119902327.945 6  93257381.999 6                  22422344.461    22422343.879
  22422347.957                          36.500          37.600
 106423640.309 7  82773833.785 7                  19887772.047    19887771.273
  19887775.492                          44.300          44.500
 112633290.758 6  87766210.27845                  21433395.453
  21433400.582                          41.700          32.100
 113616927.922 6  88532674.58544                  21620579.680
  21620584.965                          41.200          28.300
 123165275.346 5  95795237.615 6                  23081120.133    23081118.125
  23081123.953                          35.400          36.100
 119783913.329 6  93338154.57345  89449063.227 7  22794125.391
  22794133.492    22794133.910          36.900          35.600          46.400
 107020979.318 7  83393044.03548  79918326.188 8  20365425.180
  20365433.824    20365432.328          44.500          49.900          52.700
 115713888.349 6  89999713.711 6                  21707634.813    21707634.270
  21707640.426                          39.400          40.600
 114211204.411 7  88995747.74145                  21733662.242
  21733665.656                          43.200          34.000
 117628429.986 5  91488710.614 5                  22020272.195    22020270.652
  22020274.230                          31.900          34.300
 104898822.912 7  81587883.058 7                  19630357.484    19630357.539
  19630361.887                          45.700          45.800
 127080533.399 7                  94897819.353 8  24182622.078
                  24182627.848          44.900                          48.300
 124821718.346 7                  93211037.804 8  23752783.656
                  23752788.223          46.600                          50.300
 143983262.462 5                 107519983.278 6  27399106.414
                  27399113.512          34.600                          39.700
 125046564.047 5                  93378944.448 6  23795569.695
                  23795574.645          33.600                          40.900
 121945594.777 7                  91063297.782 8  23205472.250
                  23205477.426          45.100                          48.800
 20  8 16  0  0 43.0000000  0 22R01G17G07G08G03R18R24R17G28G11R02G30
                                G01R14G22R16R15E36E02E25E14E30
 122423597.694 4  95218499.840 4                  22901894.906    22901893.293
  22901900.457                          29.600          28.200
 122021237.745 5  95081388.54145                  23219836.523
  23219842.965                          35.700          33.500
 124574943.961 5  97071443.13644                  23705836.844
  23705842.539                          34.600          29.400
 123802851.214 5  96469768.00143  92450185.974 7  23558898.641
  23558906.465    23558906.664          35.700          20.900          44.000
 115941828.859 6  90344384.71846  86580037.172 8  22063009.328
  22063017.328    22063018.379          40.500          41.500          48.900
 113904229.045 6  88592097.419 6                  21338074.836    21338073.293
  21338079.117                          38.500          41.800
 119905168.726 6  93259591.530 6                  22422874.680    22422874.633
  22422879.234                          36.100          37.500
 106424428.336 7  82774446.687 7                  19887919.453    19887918.566
  19887922.832                          43.900          44.900
 112631284.864 6  87764647.23845                  21433014.219
  21433018.770                          41.700          32.600
 113619269.523 6  88534499.22544                  21621025.609
  21621030.391                          40.800          28.000
 123161956.159 5  95792655.983 5                  23080497.313    23080495.820
  23080501.801                          34.800          35.800
 119786151.309 6  93339898.45045  89450734.433 7  22794551.914
  22794559.344    22794559.559          36.900          35.600          46.300
 107022577.052 7  83394289.02948  79919519.309 8  20365729.055
  20365737.824    20365736.441          44.700          49.900          52.900
 115717979.687 6  90002895.847 6                  21708402.594    21708401.449
  21708407.988                          39.200          40.700
 114210408.964 7  88995127.92045                  21733510.813
  21733514.148                          43.200          34.200
 117625374.648 5  91486334.259 5                  22019698.750    22019698.797
  22019702.336                          32.600          35.000
 104899641.229 7  81588519.510 7                  19630510.773    19630510.730
  19630514.938                          45.200          46.000
 127082131.846 7                  94899012.995 8  24182925.961
                  24182931.844          45.100                          48.000
 124823269.616 7                  93212196.209 8  23753078.836
                  23753083.289          46.400                          50.200
 143986318.485 5                 107522265.383 6  27399688.305
                  27399695.070          34.700                          39.900
 125040482.331 5                  93374402.869 6  23794412.805
                  23794417.422          34.000                          40.700
 121944358.806 7                  91062374.799 8  23205237.227
                  23205242.098          44.700                          48.400
 20  8 16  0  0 44.0000000  0 22R01G17G07G08G03R18R24R17G28G11R02G30
                                G01R14G22R16R15E36E02E25E14E30
 122423446.518 5  95218382.308 4                  22901866.445    22901865.070
  22901872.168                          30.300          27.100
 122019222.714 5  95079818.39145                  23219453.258
  23219459.508                          35.800          34.000
 124578094.419 5  97073898.04444                  23706436.516
  23706442.023                          33.800          29.400
 123805182.858 5  96471584.85343  92451927.136 7  23559341.391
  23559350.211    23559350.266          35.700          20.900          44.100
 115939289.367 6  90342405.88846  86578140.768 8  22062525.516
  22062534.102    22062535.102          40.600          41.700          49.100
 113902487.491 6  88590742.906 7                  21337747.672    21337747.320
  21337753.063                          38.900          42.000
 119908009.462 6  93261800.979 6                  22423406.727    22423406.098
  22423410.480                          36.500          37.600
 106425216.594 7  82775059.800 7                  19888066.758    19888065.602
  19888070.090                          44.500          44.700
 112629279.300 6  87763084.46745                  21432632.516
  21432637.105                          41.400          32.300
 113621611.329 6  88536324.01044                  21621471.070
  21621475.910                          41.000          27.900
 123158637.150 5  95790074.578 5                  23079874.250    23079873.465
  23079879.668                          34.700          35.800
 119788389.605 6  93341642.57645  89452405.903 7  22794977.242
  22794985.387    22794985.695          37.200          35.800          46.500
 107024175.253 7  83395534.37548  79920712.767 8  20366033.398
  20366042.008    20366040.465          44.800          49.900          52.800
 115722071.327 6  90006078.239 6                  21709170.156    21709169.078
  21709175.492                          39.200          40.600
 114209614.089 7  88994508.53245                  21733359.438
  21733362.813                          43.400          34.100
 117622319.944 5  91483958.397 5                  22019126.656    22019126.809
  22019130.684                          32.200          34.700
 104900460.421 7  81589156.655 7                  19630664.344    19630663.863
  19630668.293                          45.300          46.200
 127083730.374 7                  94900206.707 8  24183230.250
                  24183236.117          45.100                          48.100
 124824821.263 7                  93213354.907 8  23753373.898
                  23753378.637          46.400                          50.000
 143989374.585 5                 107524547.535 6  27400269.961
                  27400276.434          34.700                          40.200
 125034400.535 5                  93369861.264 6  23793255.195
                  23793260.027          34.200                          40.200
 121943123.198 7                  91061452.103 8  23205001.883
                  23205006.938          44.700                          48.200
 20  8 16  0  0 45.0000000  0 22R01G17G07G08G03R18R24R17G28G11R02G30
                                G01R14G22R16R15E36E02E25E14E30
 122423296.194 4  95218265.321 4                  22901838.914    22901837.277
  22901844.027                          29.800          27.700
 122017207.747 5  95078248.27945                  23219070.531
  23219076.027                          35.700          34.700
 124581244.985 5  97076353.03345                  23707036.148
  23707041.453                          34.300          30.000
 123807514.572 6  96473401.76643  92453668.359 7  23559785.914
  23559794.012    23559793.949          36.400          21.500          44.000
 115936750.266 6  90340427.37746  86576244.699 8  22062042.805
  22062050.875    22062051.824          40.500          41.400          49.100
 113900746.283 6  88589388.618 6                  21337422.211    21337421.023
  21337426.902                          38.600          41.800
 119910850.214 6  93264010.436 6                  22423937.656    22423937.191
  22423941.742                          36.200          37.900
 106426005.164 7  82775673.113 7                  19888214.125    19888213.195
  19888217.414                          44.000          44.600
 112627274.059 7  87761521.95745                  21432251.031
  21432255.469                          42.100          32.100
 113623953.367 6  88538148.97444                  21621917.656
  21621921.676                          40.800          27.300
 123155318.462 5  95787493.342 5                  23079252.469    23079251.809
  23079257.629                          35.000          35.600
 119790628.287 6  93343387.00845  89454077.632 7  22795403.766
  22795411.398    22795411.668          37.300          35.400          46.400
 107025773.921 7  83396780.09448  79921906.575 8  20366337.195
  20366346.141    20366344.684          44.900          49.800          52.900
 115726163.292 6  90009260.914 6                  21709937.875    21709936.777
  21709943.074                          39.200          40.700
 114208819.814 7  88993889.61145                  21733208.531
  21733211.766                          42.800          33.800
 117619265.788 5  91481582.943 5                  22018554.625    22018555.070
  22018558.906                          32.100          34.500
 104901280.541 7  81589794.541 7                  19630817.234    19630817.098
  19630821.922                          45.100          46.100
 127085329.048 7                  94901400.525 7  24183534.461
                  24183540.176          44.800                          47.900
 124826373.329 7                  93214513.915 8  23753669.422
                  23753673.895          46.400                          50.200
 143992430.785 5                 107526829.753 6  27400851.367
                  27400857.840          34.900                          40.500
 125028318.734 5                  93365319.666 6  23792098.016
                  23792102.938          34.200                          40.400
 121941887.998 7                  91060529.714 8  23204767.070
                  23204772.051          44.700                          48.300
 20  8 16  0  0 46.0000000  0 22R01G17G07G08G03R18R24R17G28G11R02G30
                                G01R14G22R16R15E36E02E25E14E30
 122423147.104 5  95218149.411 4                  22901810.047    22901809.461
  22901816.043                          30.300          25.700
 122015193.407 6  95076678.65745                  23218686.750
  23218692.754                          36.000          34.200
 124584396.216 5  97078808.54144                  23707635.406
  23707641.102                          34.300          29.300
 123809847.017 6  96475219.22843  92455410.102 7  23560230.203
  23560237.879    23560237.922          36.300          21.100          43.900
 115934212.137 6  90338449.61846  86574349.367 8  22061559.984
  22061567.906    22061568.914          40.600          41.400          48.900
 113899005.878 6  88588035.002 6                  21337095.648    21337095.211
  21337100.891                          39.100          41.600
 119913691.562 5  93266220.350 6                  22424469.188    22424468.688
  22424473.063                          35.900          37.500
 106426794.594 7  82776287.114 7                  19888361.914    19888360.773
  19888365.086                          43.900          44.600
 112625269.713 7  87759960.12245                  21431869.656
  21431874.109                          42.100          32.600
 113626296.178 6  88539974.54044                  21622362.930
  21622367.535                          40.700          27.100
 123152000.543 5  95784912.738 5                  23078629.547    23078629.453
  23078635.820                          35.300          34.800
 119792867.919 6  93345132.17846  89455750.093 7  22795829.734
  22795837.629    22795837.883          36.900          36.100          46.600
 107027373.639 7  83398026.62348  79923101.167 8  20366642.164
  20366650.574    20366649.086          44.500          49.600          52.800
 115730256.194 6  90012444.249 6                  21710705.961    21710704.559
  21710710.914                          39.300          39.900
 114208026.740 7  88993271.63745                  21733057.422
  21733060.930                          43.000          33.600
 117616212.795 5  91479208.371 5                  22017983.930    22017983.484
  22017987.273                          32.100          34.400
 104902102.207 7  81590433.601 7                  19630971.008    19630971.063
  19630975.453                          45.100          45.500
 127086928.412 7                  94902594.841 8  24183838.750
                  24183844.613          44.600                          48.000
 124827926.366 7                  93215673.647 8  23753964.914
                  23753969.449          46.400                          50.300
 143995487.666 5                 107529112.501 6  27401432.922
                  27401439.828          34.600                          40.100
 125022237.561 5                  93360778.543 6  23790940.875
                  23790945.727          34.700                          40.400
 121940653.749 7                  91059608.039 8  23204532.328
                  23204537.078          44.800                          48.800
 20  8 16  0  0 47.0000000  0 22R01G17G07G08G03R18R24R17G28G11R02G30
                                G01R14G22R16R15E36E02E25E14E30
 122422999.044 5  95218034.242 4                  22901782.508    22901781.832
  22901788.254                          30.600          28.300
 122013179.205 6  95075109.14945                  23218303.984
  23218309.637                          36.300          34.400
 124587547.678 5  97081264.22145                  23708234.922
  23708240.852                          34.800          30.000
 123812179.665 6  96477036.90143  92457152.023 7  23560673.227
  23560681.801    23560681.582          36.900          20.100          44.200
 115931674.623 6  90336472.32946  86572454.444 8  22061076.992
  22061084.988    22061086.004          40.400          41.600          49.100
 113897265.937 6  88586681.686 6                  21336769.305    21336769.457
  21336775.043                          39.300          41.800
 119916533.008 5  93268430.388 6                  22425000.266    22424999.949
  22425004.297                          35.900          37.300
 106427584.408 7  82776901.432 7                  19888509.516    19888508.676
  19888512.746                          43.900          44.900
 112623265.813 7  87758398.63645                  21431488.328
  21431492.770                          42.300          33.200
 113628639.339 6  88541800.37744                  21622807.961
  21622813.633                          41.100          28.000
 123148682.993 5  95782332.428 5                  23078008.633    23078007.520
  23078014.160                          35.400          35.200
 119795108.033 6  93346877.72445  89457422.907 7  22796256.047
  22796263.898    22796264.289          37.300          35.500          47.000
 107028973.935 7  83399273.60448  79924296.201 8  20366946.594
  20366954.988    20366953.754          44.500          49.900          52.800
 115734349.537 6  90015627.960 6                  21711473.625    21711472.539
  21711478.746                          39.200          40.200
 114207234.375 7  88992654.21045                  21732906.531
  21732910.059                          42.200          34.200
 117613160.454 5  91476834.344 5                  22017412.492    22017411.875
  22017415.816                          32.100          34.500
 104902924.875 7  81591073.460 7                  19631125.086    19631125.063
  19631129.375                          45.200          45.800
 127088528.000 7                  94903789.352 8  24184143.180
                  24184149.078          44.700                          48.000
 124829479.912 7                  93216833.766 8  23754260.578
                  23754265.105          46.400                          50.300
 143998544.781 5                 107531395.378 6  27402014.750
                  27402021.711          34.500                          40.000
 125016156.450 5                  93356237.492 6  23789783.906
                  23789788.438          34.000                          40.800
 121939420.021 7                  91058686.743 8  23204297.406
                  23204302.313          45.100                          48.900
 20  8 16  0  0 48.0000000  0 22R01G17G07G08G03R18R24R17G28G11R02G30
                                G01R14G22R16R15E36E02E25E14E30
 122422851.716 4  95217919.625 4                  22901754.563    22901753.855
  22901760.645                          29.900          28.300
 122011165.090 6  95073539.71345                  23217920.813
  23217926.395                          36.500          34.300
 124590699.181 5  97083719.92845                  23708834.641
  23708840.516                          34.300          30.400
 123814512.394 6  96478854.63043  92458894.002 7  23561117.023
  23561125.695    23561125.566          37.000          20.900          44.100
 115929137.488 6  90334495.34146  86570559.851 8  22060593.477
  22060602.234    22060603.242          40.500          41.700          49.200
 113895526.239 6  88585328.594 6                  21336444.336    21336443.691
  21336449.207                          39.000          41.800
 119919374.428 5  93270640.365 6                  22425531.688    22425530.754
  22425535.723                          35.900          38.300
 106428374.512 7  82777515.938 7                  19888656.188    19888656.266
  19888660.355                          44.000          44.800
 112621262.252 7  87756837.42145                  21431106.789
  21431111.402                          42.400          33.400
 113630982.700 6  88543626.36844                  21623254.297
  21623259.574                          41.100          28.900
 123145365.702 5  95779752.289 5                  23077387.891    23077385.887
  23077392.375                          34.900          35.600
 119797348.527 6  93348623.55246  89459095.988 7  22796682.039
  22796690.195    22796690.664          37.500          36.100          47.500
 107030574.713 7  83400520.96948  79925491.587 8  20367251.117
  20367259.676    20367258.230          44.300          49.700          52.600
 115738443.241 6  90018811.952 6                  21712242.023    21712240.887
  21712246.734                          39.400          40.400
 114206442.598 7  88992037.24545                  21732755.672
  21732759.555                          42.100          33.700
 117610108.719 5  91474460.728 5                  22016839.891    22016840.809
  22016844.516                          32.100          34.800
 104903748.429 7  81591714.005 7                  19631279.336    19631279.281
  19631283.566                          45.300          46.100
 127090127.739 7                  94904983.934 8  24184447.578
                  24184453.496          44.700                          48.300
 124831033.884 7                  93217994.189 8  23754556.453
                  23754560.734          46.300                          50.300
 144001601.954 5                 107533678.356 6  27402596.555
                  27402603.281          34.600                          40.200
 125010075.396 5                  93351696.396 6  23788626.375
                  23788631.395          34.700                          41.200
 121938186.684 7                  91057765.753 8  23204062.617
                  23204067.695          44.900                          48.300
 20  8 16  0  0 49.0000000  0 22R01G17G07G08G03R18R24R17G28G11R02G30
                                G01R14G22R16R15E36E02E25E14E30
 122422705.178 5  95217805.670 4                  22901726.969    22901726.777
  22901733.277                          30.300          28.800
 122009150.995 6  95071970.28745                  23217537.281
  23217543.047                          36.800          34.300
 124593850.782 5  97086175.71744                  23709434.344
  23709440.180                          33.900          29.900
 123816845.164 6  96480672.37643  92460636.039 7  23561561.539
  23561569.496    23561569.652          36.600          21.100          44.100
 115926600.809 6  90332518.71046  86568665.561 8  22060111.398
  22060119.551    22060120.688          40.400          41.600          48.900
 113893786.901 6  88583975.749 6                  21336117.563    21336117.813
  21336123.477                          38.900          41.600
 119922215.802 5  93272850.387 6                  22426062.617    22426061.594
  22426067.156                          35.600          37.900
 106429164.857 7  82778130.658 7                  19888804.992    19888803.957
  19888808.082                          44.300          45.000
 112619258.967 7  87755276.42245                  21430725.227
  21430730.250                          42.400          33.000
 113633326.261 6  88545452.51444                  21623701.055
  21623705.504                          40.800          28.000
 123142048.569 5  95777172.322 6                  23076765.969    23076764.266
  23076770.781                          34.600          36.400
 119799589.356 6  93350369.65345  89460769.329 7  22797107.836
  22797116.785    22797116.945          36.800          35.400          47.000
 107032175.945 7  83401768.68348  79926687.302 8  20367556.102
  20367564.449    20367562.914          44.600          49.900          52.700
 115742537.312 6  90021996.232 6                  21713009.734    21713008.520
  21713014.938                          39.200          40.900
 114205651.416 7  88991420.74645                  21732605.102
  21732609.125                          42.600          34.300
 117607057.539 5  91472087.626 5                  22016270.391    22016269.656
  22016273.297                          32.100          35.100
 104904572.847 7  81592355.216 7                  19631433.781    19631433.488
  19631437.918                          45.400          46.000
 127091727.547 7                  94906178.609 8  24184751.984
                  24184757.855          44.800                          48.200
 124832588.214 7                  93219154.907 8  23754852.352
                  23754856.586          46.100                          50.200
 144004659.185 5                 107535961.386 6  27403178.547
                  27403185.059          34.400                          39.800
 125003994.265 5                  93347155.322 6  23787469.273
                  23787474.305          34.600                          41.300
 121936953.735 7                  91056845.036 8  23203828.109
                  23203832.977          44.900                          48.100
 20  8 16  0  0 50.0000000  0 22R01G17G07G08G03R18R24R17G28G11R02G30
                                G01R14G22R16R15E36E02E25E14E30
 122422559.424 5  95217692.338 4                  22901700.273    22901699.215
  22901705.988                          30.600          28.000
 122007136.949 6  95070400.90445                  23217153.813
  23217159.715                          36.900          34.600
 124597002.420 5  97088631.54044                  23710034.422
  23710039.996                          33.600          29.100
 123819178.100 5  96482490.23743  92462378.148 7  23562004.930
  23562013.383    23562013.480          35.700          20.600          44.000
 115924064.514 6  90330542.37446  86566771.578 8  22059629.023
  22059636.902    22059637.922          40.500          41.600          48.900
 113892047.856 6  88582623.177 6                  21335792.172    21335792.031
  21335797.676                          38.900          41.300
 119925057.239 5  93275060.333 6                  22426593.625    22426593.141
  22426598.492                          35.800          37.300
 106429955.487 7  82778745.600 7                  19888951.961    19888951.227
  19888955.859                          44.100          44.900
 112617256.028 7  87753715.68945                  21430344.227
  21430349.133                          42.800          33.800
 113635670.041 6  88547278.84444                  21624146.031
  21624151.383                          40.800          27.900
 123138731.648 5  95774592.515 6                  23076143.734    23076142.270
  23076149.395                          34.900          36.100
 119801830.546 6  93352116.03545  89462442.940 7  22797534.898
  22797543.336    22797543.430          37.000          35.700          46.900
 107033777.628 7  83403016.75448  79927883.367 8  20367860.750
  20367869.152    20367867.703          44.400          49.900          52.800
 115746631.712 6  90025180.745 6                  21713777.453    21713776.727
  21713783.059                          39.300          40.500
 114204860.824 7  88990804.70045                  21732455.117
  21732458.688                          42.300          34.000
 117604006.969 5  91469714.928 5                  22015699.500    22015698.613
  22015702.375                          32.400          35.200
 104905398.161 7  81592997.123 7                  19631587.961    19631587.891
  19631592.215                          45.200          46.300
 127093327.453 7                  94907373.355 8  24185056.781
                  24185062.426          44.500                          48.600
 124834142.948 7                  93220315.903 8  23755148.109
                  23755152.398          45.900                          50.400
 144007716.592 5                 107538244.459 6  27403760.102
                  27403767.008          34.700                          39.600
 124997913.166 5                  93342614.232 6  23786311.891
                  23786317.465          34.400                          41.000
 121935721.164 7                  91055924.611 8  23203593.555
                  23203598.512          44.800                          48.000
 20  8 16  0  0 51.0000000  0 22R01G17G07G08G03R18R24R17G28G11R02G30
                                G01R14G22R16R15E36E02E25E14E30
 122422414.489 5  95217579.561 4                  22901673.563    22901672.004
  22901678.926                          30.100          28.000
 122005122.906 6  95068831.51745                  23216770.445
  23216776.379                          36.500          34.100
 124600154.175 5  97091087.45244                  23710633.695
  23710639.820                          33.700          29.100
 123821511.115 5  96484308.17843  92464120.309 7  23562448.867
  23562457.406    23562457.316          35.700          21.500          43.900
 115921528.631 6  90328566.36746  86564877.919 8  22059146.148
  22059154.430    22059155.387          40.600          41.600          48.900
 113890309.125 6  88581270.833 6                  21335466.742    21335466.402
  21335471.961                          38.700          41.700
 119927898.563 6  93277270.295 6                  22427126.289    22427125.223
  22427129.906                          36.100          37.500
 106430746.423 7  82779360.763 7                  19889099.773    19889099.527
  19889103.672                          44.300          44.900
 112615253.388 7  87752155.17945                  21429963.820
  21429967.996                          42.700          33.700
 113638014.006 6  88549105.30344                  21624592.141
  21624597.566                          40.600          28.100
 123135415.016 5  95772012.904 6                  23075521.352    23075520.785
  23075527.828                          34.900          36.000
 119804072.064 6  93353862.66645  89464116.817 7  22797961.570
  22797970.039    22797970.121          37.100          35.100          47.200
 107035379.767 7  83404265.16548  79929079.772 8  20368165.633
  20368174.020    20368172.637          44.800          50.000          52.700
 115750726.454 6  90028365.535 6                  21714545.234    21714544.746
  21714551.070                          39.100          40.600
 114204070.790 7  88990189.09045                  21732304.531
  21732308.258                          42.900          34.500
 117600957.031 5  91467342.769 5                  22015128.023    22015127.082
  22015131.371                          32.400          35.200
 104906224.387 7  81593639.736 7                  19631742.195    19631742.555
  19631746.863                          45.400          46.400
 127094927.478 7                  94908568.166 8  24185361.227
                  24185366.789          44.500                          48.600
 124835698.074 7                  93221477.195 8  23755444.188
                  23755448.344          46.100                          50.100
 144010773.992 5                 107540527.607 6  27404341.633
                  27404348.934          35.000                          39.600
 124991832.022 5                  93338073.115 6  23785154.852
                  23785159.934          34.300                          41.000
 121934488.961 7                  91055004.456 8  23203359.258
                  23203364.043          44.800                          48.300
 20  8 16  0  0 52.0000000  0 22R01G17G07G08G03R18R24R17G28G11R02G30
                                G01R14G22R16R15E36E02E25E14E30
 122422270.307 4  95217467.460 4                  22901646.453    22901645.348
  22901652.074                          29.700          28.900
 122003108.927 5  95067262.18345                  23216386.883
  23216393.168                          35.600          34.700
 124603306.003 5  97093543.41844                  23711233.539
  23711239.457                          33.500          29.900
 123823844.202 6  96486126.13143  92465862.551 7  23562892.813
  23562901.430    23562901.340          36.000          20.900          44.100
 115918993.208 6  90326590.71146  86562984.570 8  22058664.398
  22058671.836    22058672.906          40.900          41.400          49.000
 113888570.716 6  88579918.739 6                  21335140.484    21335140.453
  21335146.211                          39.000          41.500
 119930739.912 6  93279480.210 6                  22427657.305    22427656.426
  22427661.109                          36.500          37.700
 106431537.593 7  82779976.118 7                  19889247.398    19889247.250
  19889251.566                          44.600          45.100
 112613251.084 7  87750594.94445                  21429582.250
  21429587.090                          42.600          33.400
 113640358.187 6  88550931.94644                  21625038.625
  21625043.660                          40.900          27.300
 123132098.594 5  95769433.468 6                  23074900.969    23074899.449
  23074906.480                          35.000          36.500
 119806313.975 6  93355609.61845  89465790.974 7  22798388.109
  22798396.500    22798396.660          36.400          35.400          47.200
 107036982.400 7  83405513.97348  79930276.550 8  20368470.516
  20368478.984    20368477.625          44.800          49.800          52.700
 115754821.521 6  90031550.596 6                  21715313.859    21715313.207
  21715319.207                          39.000          40.600
 114203281.404 7  88989573.99145                  21732154.953
  21732157.895                          43.200          34.300
 117597907.662 5  91464971.048 5                  22014556.461    22014556.387
  22014560.488                          32.400          34.300
 104907051.515 7  81594283.059 7                  19631897.359    19631897.340
  19631901.660                          45.100          46.200
 127096527.623 7                  94909763.103 8  24185665.594
                  24185671.430          44.500                          48.200
 124837253.623 7                  93222638.810 8  23755740.180
                  23755744.457          46.500                          50.000
 144013831.559 5                 107542810.836 6  27404923.703
                  27404930.578          34.400                          39.800
 124985750.885 5                  93333532.020 6  23783997.648
                  23784002.934          34.900                          40.900
 121933257.184 7                  91054084.634 8  23203124.563
                  23203129.504          45.000                          48.500
 20  8 16  0  0 53.0000000  0 22R01G17G07G08G03R18R24R17G28G11R02G30
                                G01R14G22R16R15E36E02E25E14E30
 122422126.903 5  95217355.954 4                  22901619.391    22901618.855
  22901625.305                          30.800          28.800
 122001095.021 5  95065692.90045                  23216004.273
  23216009.793                          35.800          34.700
 124606457.902 5  97095999.44844                  23711833.477
  23711839.223                          33.900          29.600
 123826177.341 5  96487944.18643  92467604.830 7  23563336.930
  23563345.344    23563345.242          35.400          20.600          44.200
 115916458.163 6  90324615.35146  86561091.535 8  22058181.719
  22058189.492    22058190.477          40.900          41.600          48.800
 113886832.502 6  88578566.820 6                  21334816.156    21334815.176
  21334820.625                          39.200          41.800
 119933581.195 6  93281690.103 6                  22428188.797    22428188.055
  22428192.391                          36.100          37.900
 106432329.003 7  82780591.658 7                  19889396.180    19889395.156
  19889399.469                          44.100          44.800
 112611249.069 7  87749034.93445                  21429201.492
  21429206.215                          42.700          33.700
 113642702.575 6  88552758.75044                  21625485.313
  21625489.801                          40.700          27.800
 123128782.374 5  95766854.180 6                  23074279.109    23074277.566
  23074285.070                          34.800          36.300
 119808556.244 6  93357356.83945  89467465.367 7  22798814.172
  22798823.207    22798823.445          36.500          35.300          46.900
 107038585.450 7  83406763.10548  79931473.641 8  20368775.594
  20368784.023    20368782.691          44.600          49.800          52.800
 115758916.875 6  90034735.873 6                  21716083.406    21716081.410
  21716087.508                          39.200          40.600
 114202492.563 7  88988959.31345                  21732005.188
  21732007.754                          43.300          34.200
 117594858.814 5  91462599.732 5                  22013986.578    22013985.703
  22013989.691                          32.400          34.600
 104907879.514 7  81594927.063 7                  19632052.438    19632052.332
  19632056.605                          44.800          46.100
 127098127.864 7                  94910958.060 7  24185970.117
                  24185975.883          44.500                          47.800
 124838809.516 7                  93223800.678 8  23756036.156
                  23756040.422          46.200                          49.800
 144016889.164 5                 107545094.086 6  27405505.617
                  27405512.262          34.600                          39.600
 124979669.742 5                  93328990.895 6  23782840.492
                  23782845.664          34.500                          40.800
 121932025.753 7                  91053165.051 8  23202890.195
                  23202895.281          44.600                          48.700
 20  8 16  0  0 54.0000000  0 22R01G17G07G08G03R18R24R17G28G11R02G30
                                G01R14G22R16R15E36E02E25E14E30
 122421984.295 5  95217245.011 4                  22901593.500    22901591.898
  22901598.652                          30.600          28.900
 121999081.124 6  95064123.63445                  23215620.539
  23215626.590                          36.400          34.500
 124609609.849 5  97098455.50744                  23712433.547
  23712439.039                          33.700          29.000
 123828510.559 5  96489762.26143  92469347.170 7  23563781.422
  23563789.188    23563789.305          35.700          20.600          44.100
 115913923.570 6  90322640.33847  86559198.803 8  22057699.891
  22057707.125    22057708.191          40.900          42.100          49.100
 113885094.621 6  88577215.124 6                  21334491.078    21334489.703
  21334494.988                          39.200          41.600
 119936422.445 5  93283899.980 6                  22428718.281    22428719.238
  22428723.758                          35.900          37.500
 106433120.679 7  82781207.402 7                  19889543.930    19889543.102
  19889547.383                          43.900          45.100
 112609247.348 7  87747475.16045                  21428819.844
  21428825.109                          42.600          33.900
 113645047.167 6  88554585.70644                  21625930.984
  21625935.867                          40.800          28.100
 123125466.421 5  95764275.079 6                  23073658.117    23073656.199
  23073663.594                          34.200          36.700
 119810798.819 6  93359104.29245  89469140.040 7  22799241.367
  22799249.867    22799250.219          36.500          35.400          47.000
 107040188.962 7  83408012.59648  79932671.054 8  20369080.672
  20369089.414    20369087.781          44.600          49.800          52.900
 115763012.582 6  90037921.407 6                  21716850.016    21716849.762
  21716855.879                          39.400          40.400
 114201704.322 7  88988345.09845                  21731854.672
  21731857.805                          43.200          34.000
 117591810.567 5  91460228.870 5                  22013416.203    22013414.715
  22013418.957                          31.800          34.100
 104908708.394 7  81595571.746 7                  19632206.992    19632207.648
  19632211.727                          45.300          46.100
 127099728.213 7                  94912153.127 7  24186274.422
                  24186280.332          44.900                          47.800
 124840365.816 7                  93224962.845 8  23756332.141
                  23756336.500          46.500                          50.400
 144019946.827 5                 107547377.465 6  27406087.281
                  27406094.375          34.900                          39.700
 124973588.611 5                  93324449.755 6  23781682.844
                  23781688.629          34.400                          41.200
 121930794.705 7                  91052245.770 8  23202656.023
                  23202660.957          44.700                          48.500
 20  8 16  0  0 55.0000000  0 22R01G17G07G08G03R18R24R17G28G11R02G30
                                G01R14G22R16R15E36E02E25E14E30
 122421842.502 5  95217134.654 4                  22901566.398    22901565.082
  22901572.363                          30.500          28.900
 121997067.194 6  95062554.34345                  23215238.320
  23215243.348                          37.000          34.600
 124612761.851 5  97100911.62144                  23713032.789
  23713038.902                          33.200          29.800
 123830843.884 5  96491580.44243  92471089.575 7  23564225.328
  23564233.258    23564233.496          35.400          21.300          43.800
 115911389.356 6  90320665.62247  86557306.373 8  22057217.344
  22057224.918    22057225.902          40.900          42.200          48.700
 113883357.029 6  88575863.647 7                  21334165.047    21334163.918
  21334169.336                          39.300          42.000
 119939263.746 6  93286109.874 6                  22429251.016    22429249.996
  22429255.238                          36.200          37.800
 106433912.615 7  82781823.365 7                  19889691.445    19889691.289
  19889695.289                          43.700          45.000
 112607245.940 7  87745915.62045                  21428440.125
  21428444.379                          42.300          33.200
 113647391.920 6  88556412.78344                  21626377.102
  21626382.191                          40.900          28.000
 123122150.572 5  95761696.167 6                  23073037.781    23073034.836
  23073042.277                          34.500          36.200
 119813041.790 6  93360852.06345  89470814.962 7  22799668.438
  22799676.746    22799677.027          36.900          35.700          46.700
 107041792.936 7  83409262.44148  79933868.825 8  20369385.758
  20369394.480    20369393.105          44.800          49.700          52.900
 115767108.598 6  90041107.212 6                  21717619.852    21717618.152
  21717624.395                          39.100          40.400
 114200916.643 7  88987731.31945                  21731704.266
  21731707.816                          43.200          33.900
 117588762.868 5  91457858.451 5                  22012845.922    22012844.680
  22012848.469                          32.200          34.500
 104909538.151 7  81596217.109 7                  19632362.844    19632362.945
  19632367.031                          44.900          46.500
 127101328.642 7                  94913348.262 8  24186579.008
                  24186584.984          45.100                          48.200
 124841922.502 7                  93226125.305 8  23756628.586
                  23756632.887          46.200                          50.200
 144023004.609 5                 107549660.854 6  27406669.336
                  27406676.266          34.500                          39.700
 124967507.402 5                  93319908.621 6  23780525.641
                  23780531.531          34.100                          41.300
 121929564.020 7                  91051326.752 8  23202421.648
                  23202426.746          44.600                          48.600
 20  8 16  0  0 56.0000000  0 22R01G17G07G08G03R18R24R17G28G11R02G30
                                G01R14G22R16R15E36E02E25E14E30
 122421701.444 4  95217025.018 4                  22901540.813    22901538.684
  22901545.973                          29.200          28.100
 121995053.412 5  95060985.16345                  23214854.648
  23214860.023                          35.700          34.100
 124615914.001 5  97103367.82544                  23713633.211
  23713638.805                          33.200          28.600
 123833177.274 6  96493398.66343  92472832.059 7  23564668.664
  23564677.188    23564677.426          36.000          20.900          43.700
 115908855.593 6  90318691.27346  86555414.284 8  22056735.320
  22056742.852    22056743.813          41.200          41.800          48.700
 113881619.788 6  88574512.449 6                  21333838.820    21333838.477
  21333843.930                          39.200          41.700
 119942105.026 6  93288319.705 6                  22429781.664    22429781.215
  22429786.543                          36.200          37.300
 106434704.855 7  82782439.545 7                  19889839.438    19889839.074
  19889843.434                          44.000          44.000
 112605244.878 7  87744356.35045                  21428058.922
  21428063.473                          42.200          33.200
 113649736.927 6  88558240.05744                  21626823.734
  21626828.449                          40.800          26.900
 123118835.038 5  95759117.356 5                  23072414.969    23072413.789
  23072420.969                          34.500          35.500
 119815285.097 6  93362600.09545  89472490.188 7  22800095.203
  22800103.637    22800103.824          37.000          35.200          46.700
 107043397.363 7  83410512.64648  79935066.951 8  20369691.297
  20369699.840    20369698.320          44.600          49.600          52.800
 115771204.977 6  90044293.277 6                  21718387.328    21718386.340
  21718392.875                          39.000          40.400
 114200129.601 7  88987118.04345                  21731554.859
  21731558.055                          43.200          33.700
 117585715.781 5  91455488.493 5                  22012275.820    22012273.930
  22012278.090                          32.400          34.400
 104910368.817 7  81596863.179 7                  19632518.266    19632518.059
  19632522.453                          45.100          44.800
 127102929.201 7                  94914543.493 8  24186883.594
                  24186889.473          45.400                          48.000
 124843479.588 7                  93227288.063 8  23756924.633
                  23756929.121          46.400                          49.600
 144026062.494 5                 107551944.320 6  27407251.078
                  27407258.230          34.700                          39.900
 124961426.229 5                  93315367.491 6  23779368.297
                  23779374.301          34.300                          41.300
 121928333.759 7                  91050408.052 8  23202187.594
                  23202192.688          44.600                          48.600
 20  8 16  0  0 57.0000000  0 22R01G17G07G08G03R18R24R17G28G11R02G30
                                G01R14G22R16R15E36E02E25E14E30
 122421561.223 4  95216915.938 4                  22901514.203    22901512.672
  22901519.824                          29.900          28.500
 121993039.638 6  95059415.98345                  23214470.867
  23214476.766                          36.000          34.100
 124619066.142 5  97105824.04344                  23714232.789
  23714238.754                          33.300          28.900
 123835510.753 5  96495216.95743  92474574.612 7  23565113.352
  23565121.219    23565121.449          35.900          19.900          43.800
 115906322.244 6  90316717.22946  86553522.494 8  22056252.609
  22056260.676    22056261.668          41.200          41.700          48.700
 113879882.796 6  88573161.474 6                  21333514.094    21333513.105
  21333518.523                          39.300          41.500
 119944946.232 5  93290529.562 6                  22430312.688    22430312.117
  22430317.926                          35.600          37.700
 106435497.381 7  82783055.957 7                  19889987.672    19889987.352
  19889991.563                          43.900          44.200
 112603244.119 7  87742797.31945                  21427677.664
  21427682.613                          42.100          33.000
 113652082.134 6  88560067.48644                  21627269.742
  21627274.723                          40.400          26.800
 123115519.714 5  95756538.741 6                  23071794.305    23071793.313
  23071799.570                          34.600          36.200
 119817528.791 6  93364348.42445  89474165.668 7  22800521.906
  22800530.785    22800530.953          37.000          35.200          46.500
 107045002.290 7  83411763.24348  79936265.417 8  20369996.703
  20370005.074    20370003.676          44.900          49.800          52.700
 115775301.726 6  90047479.645 6                  21719155.391    21719154.816
  21719161.410                          39.200          40.400
 114199343.136 7  88986505.21345                  21731405.469
  21731408.203                          42.800          34.300
 117582669.257 5  91453118.953 5                  22011705.117    22011703.449
  22011707.781                          32.700          34.500
 104911200.363 7  81597509.946 7                  19632673.664    19632673.723
  19632677.988                          45.300          45.500
 127104529.883 7                  94915738.793 8  24187188.391
                  24187194.109          45.300                          48.300
 124845037.081 7                  93228451.122 8  23757221.102
                  23757225.500          46.300                          49.900
 144029120.412 5                 107554227.859 6  27407832.773
                  27407839.988          35.300                          40.000
 124955345.034 5                  93310826.337 6  23778211.297
                  23778216.938          34.300                          41.000
 121927103.885 7                  91049489.634 8  23201953.734
                  23201958.637          44.700                          48.800
 20  8 16  0  0 58.0000000  0 22R01G17G07G08G03R18R24R17G28G11R02G30
                                G01R14G22R16R15E36E02E25E14E30
 122421421.787 4  95216807.481 4                  22901489.250    22901486.316
  22901493.695                          29.700          28.500
 121991025.886 5  95057846.82745                  23214087.883
  23214093.539                          35.200          34.200
 124622218.441 5  97108280.38444                  23714832.453
  23714838.602                          33.700          29.300
 123837844.368 5  96497035.38143  92476317.184 7  23565557.188
  23565565.375    23565565.578          35.800          20.100          43.500
 115903789.294 6  90314743.50446  86551631.021 8  22055770.977
  22055778.859    22055779.813          41.500          41.300          48.900
 113878146.097 6  88571810.711 6                  21333188.648    21333187.477
  21333193.156                          39.500          41.700
 119947787.418 5  93292739.392 6                  22430843.500    22430843.852
  22430849.270                          35.500          37.900
 106436290.129 7  82783672.538 7                  19890135.055    19890135.258
  19890139.656                          43.800          44.400
 112601243.706 7  87741238.55245                  21427298.023
  21427302.117                          42.400          32.700
 113654427.566 6  88561895.09144                  21627715.984
  21627721.012                          40.800          27.400
 123112204.576 5  95753960.362 6                  23071173.938    23071171.691
  23071178.301                          35.300          36.000
 119819772.854 6  93366097.04645  89475841.389 7  22800949.078
  22800957.590    22800957.938          36.600          35.700          46.600
 107046607.640 7  83413014.15948  79937464.217 8  20370302.320
  20370310.762    20370309.246          44.900          49.800          52.500
 115779398.767 6  90050666.216 6                  21719923.844    21719923.770
  21719929.918                          39.300          40.600
 114198557.272 7  88985892.85445                  21731255.586
  21731258.789                          43.000          33.500
 117579623.390 5  91450749.917 5                  22011135.656    22011133.008
  22011137.531                          32.500          34.300
 104912032.787 7  81598157.380 7                  19632829.070    19632829.664
  19632833.977                          45.600          45.700
 127106130.643 7                  94916934.169 8  24187492.875
                  24187498.668          45.400                          48.200
 124846594.939 7                  93229614.464 8  23757517.555
                  23757521.941          46.300                          49.900
 144032178.484 5                 107556511.477 6  27408414.891
                  27408421.922          34.700                          39.900
 124949263.792 5                  93306285.162 6  23777053.953
                  23777060.023          34.300                          41.200
 121925874.368 7                  91048571.485 8  23201719.641
                  23201724.688          44.300                          49.000
 20  8 16  0  0 59.0000000  0 22R01G17G07G08G03R18R24R17G28G11R02G30
                                G01R14G22R16R15E36E02E25E14E30
 122421283.091 5  95216699.675 4                  22901461.461    22901460.441
  22901467.824                          30.000          28.400
 121989012.148 5  95056277.68345                  23213704.453
  23213710.270                          35.500          33.700
 124625370.775 5  97110736.72944                  23715431.844
  23715438.359                          33.300          29.400
 123840177.991 6  96498853.75843  92478059.861 7  23566001.266
  23566009.410    23566009.496          36.300          20.100          43.600
 115901256.792 6  90312770.12946  86549739.859 8  22055289.039
  22055296.832    22055297.773          41.200          41.200          49.100
 113876409.685 6  88570460.167 6                  21332864.039    21332862.152
  21332867.746                          39.400          41.200
 119950628.617 5  93294949.216 6                  22431374.977    22431375.352
  22431380.469                          35.400          37.700
 106437083.154 7  82784289.331 7                  19890283.547    19890283.547
  19890287.840                          44.100          44.700
 112599243.528 7  87739679.96945                  21426916.703
  21426921.570                          42.700          32.200
 113656773.131 6  88563722.80944                  21628162.367
  21628167.250                          40.900          27.500
 123108889.648 5  95751382.076 6                  23070552.867    23070550.133
  23070556.953                          35.300          36.200
 119822017.182 6  93367845.87645  89477517.374 7  22801375.914
  22801384.832    22801385.066          36.800          35.700          46.700
 107048213.432 7  83414265.42848  79938663.356 8  20370607.844
  20370616.234    20370614.824          45.000          49.800          52.700
 115783496.097 6  90053853.041 6                  21720694.680    21720692.063
  21720698.660                          38.900          41.100
 114197771.962 7  88985280.91845                  21731106.680
  21731109.160                          43.100          33.600
 117576577.999 5  91448381.291 5                  22010564.438    22010562.703
  22010567.406                          32.800          34.200
 104912866.068 7  81598805.502 7                  19632985.516    19632985.473
  19632989.805                          45.600          46.000
 127107731.494 7                  94918129.612 8  24187797.508
                  24187803.320          45.700                          48.400
 124848153.181 7                  93230778.082 8  23757813.977
                  23757818.414          46.500                          50.200
 144035236.601 5                 107558795.115 6  27408997.047
                  27409004.066          35.200                          40.200
 124943182.578 5                  93301743.972 6  23775897.055
                  23775902.688          34.400                          41.200
 121924645.218 7                  91047653.613 8  23201485.938
                  23201490.770          44.400                          48.800
 20  8 16  0  1  0.0000000  0 22R01G17G07G08G03R18R24R17G28G11R02G30
                                G01R14G22R16R15E36E02E25E14E30
 122421145.205 4  95216592.365 4                  22901436.031    22901434.637
  22901441.875                          29.700          28.700
 121986998.508 5  95054708.60945                  23213321.992
  23213327.133                          35.200          33.700
 124628523.169 5  97113193.15144                  23716032.594
  23716038.383                          32.600          29.300
 123842511.744 6  96500672.28543  92479802.593 7  23566445.859
  23566453.754    23566453.680          36.100          19.900          43.900
 115898724.727 6  90310797.09346  86547849.021 8  22054807.391
  22054815.250    22054815.887          41.100          41.400          49.100
 113874673.555 6  88569109.839 6                  21332537.961    21332536.949
  21332542.465                          39.400          41.200
 119953469.829 5  93297159.047 6                  22431906.273    22431906.445
  22431911.789                          35.600          37.700
 106437876.481 7  82784906.351 7                  19890431.945    19890431.801
  19890436.023                          43.900          44.800
 112597243.772 7  87738121.72345                  21426536.266
  21426540.934                          42.700          33.300
 113659118.964 6  88565550.73644                  21628608.539
  21628613.633                          41.200          28.700
 123105575.022 5  95748804.052 5                  23069931.461    23069929.230
  23069935.895                          34.900          35.600
 119824261.914 6  93369595.01746  89479193.655 7  22801803.375
  22801812.004    22801812.215          36.900          36.100          46.600
 107049819.737 7  83415517.08948  79939862.855 8  20370913.430
  20370921.914    20370920.473          45.000          49.800          52.500
 115787593.792 6  90057040.150 6                  21721462.484    21721461.391
  21721467.297                          39.100          40.200
 114196987.283 7  88984669.48445                  21730957.359
  21730959.945                          43.300          34.200
 117573533.210 5  91446013.125 5                  22009993.969    22009993.203
  22009997.375                          31.700          34.300
 104913700.302 7  81599454.345 7                  19633140.992    19633141.520
  19633145.992                          45.400          46.300
 127109332.490 7                  94919325.162 7  24188102.398
                  24188107.996          45.700                          47.600
 124849711.846 7                  93231942.031 8  23758110.602
                  23758115.129          46.200                          50.100
 144038294.815 5                 107561078.845 6  27409578.594
                  27409586.000          34.700                          39.600
 124937101.354 5                  93297202.807 6  23774739.383
                  23774745.258          33.800                          41.400
 121923416.507 7                  91046736.072 8  23201252.031
                  23201256.941          44.200                          49.100
 20  8 16  0  1  1.0000000  0 22R01G17G07G08G03R18R24R17G28G11R02G30
                                G01R14G22R16R15E36E02E25E14E30
 122421008.145 4  95216485.754 4                  22901411.578    22901408.938
  22901416.293                          29.500          28.800
 121984984.899 5  95053139.55445                  23212937.438
  23212944.031                          35.300          33.300
 124631675.689 5  97115649.67544                  23716632.742
  23716638.430                          31.900          29.100
 123844845.603 5  96502490.88243  92481545.418 7  23566889.148
  23566897.941    23566897.867          35.900          21.100          43.600
 115896193.073 6  90308824.37646  86545958.505 8  22054325.563
  22054333.395    22054334.086          40.600          41.400          48.900
 113872937.768 6  88567759.795 6                  21332212.945    21332212.195
  21332217.379                          38.900          41.400
 119956311.052 5  93299368.849 6                  22432438.164    22432437.758
  22432443.125                          35.300          37.000
 106438670.048 7  82785523.597 7                  19890580.539    19890580.234
  19890584.297                          43.600          45.000
 112595244.271 7  87736563.66945                  21426155.930
  21426160.391                          42.600          33.100
 113661464.997 6  88567378.81344                  21629055.820
  21629060.023                          40.900          27.600
 123102260.592 5  95746226.146 5                  23069309.164    23069308.184
  23069314.762                          35.400          35.800
 119826507.079 6  93371344.48945  89480870.204 7  22802229.852
  22802239.195    22802239.254          36.600          35.800          46.800
 107051426.464 7  83416769.08948  79941062.694 8  20371219.117
  20371227.758    20371226.184          44.900          49.600          52.500
 115791691.807 6  90060227.487 6                  21722231.023    21722229.871
  21722235.813                          38.900          40.300
 114196203.192 7  88984058.50245                  21730807.539
  21730810.707                          42.600          33.700
 117570488.953 5  91443645.394 5                  22009424.914    22009423.039
  22009427.477                          32.100          34.500
 104914535.444 7  81600103.901 7                  19633297.352    19633297.898
  19633302.457                          44.900          46.300
 127110933.600 7                  94920520.798 8  24188407.031
                  24188412.648          45.200                          48.000
 124851270.906 7                  93233106.260 8  23758407.320
                  23758411.727          46.500                          50.000
 144041353.116 5                 107563362.652 6  27410160.703
                  27410167.824          34.400                          39.800
 124931020.115 5                  93292661.626 6  23773582.383
                  23773588.234          34.500                          41.300
 121922188.160 7                  91045818.808 8  23201018.148
                  23201023.137          44.500                          48.600
 20  8 16  0  1  2.0000000  0 22R01G17G07G08G03R18R24R17G28G11R02G30
                                G01R14G22R16R15E36E02E25E14E30
 122420871.826 4  95216379.726 4                  22901385.695    22901383.977
  22901390.848                          29.500          28.700
 121982971.323 5  95051570.53245                  23212554.891
  23212560.867                          35.000          33.800
 124634828.252 5  97118106.20544                  23717232.398
  23717238.449                          32.500          29.300
 123847179.608 6  96504309.56943  92483288.311 7  23567333.695
  23567342.004    23567342.004          36.400          20.900          43.600
 115893661.860 6  90306852.00746  86544068.319 8  22053843.203
  22053851.621    22053852.465          40.800          41.500          48.600
 113871202.292 6  88566409.981 6                  21331887.406    21331887.230
  21331892.340                          39.000          41.600
 119959152.178 6  93301578.627 6                  22432969.477    22432969.523
  22432974.477                          36.100          37.000
 106439463.930 7  82786141.052 7                  19890728.742    19890728.355
  19890732.660                          43.800          44.400
 112593245.134 7  87735005.89645                  21425775.883
  21425779.988                          43.000          33.000
 113663811.248 6  88569207.05944                  21629501.656
  21629506.543                          41.200          27.100
 123098946.361 5  95743648.430 5                  23068688.680    23068687.445
  23068693.680                          35.600          35.700
 119828752.550 6  93373094.21145  89482547.016 7  22802657.734
  22802666.449    22802666.461          37.000          35.700          47.000
 107053033.666 7  83418021.46148  79942262.891 8  20371525.234
  20371533.539    20371531.957          45.200          49.900          52.700
 115795790.197 6  90063415.125 6                  21723000.094    21722998.578
  21723004.781                          39.200          40.100
 114195419.685 7  88983447.98145                  21730658.063
  21730661.730                          43.400          34.700
 117567445.260 5  91441278.117 5                  22008854.766    22008853.340
  22008857.574                          31.800          34.200
 104915371.489 7  81600754.146 7                  19633453.820    19633454.246
  19633458.852                          45.500          46.400
 127112534.810 7                  94921716.506 8  24188711.617
                  24188717.344          45.300                          48.300
 124852830.379 7                  93234270.788 8  23758703.766
                  23758708.461          46.500                          50.100
 144044411.540 5                 107565646.521 6  27410742.547
                  27410749.691          34.100                          40.000
 124924938.886 5                  93288120.454 6  23772425.164
                  23772430.770          34.000                          41.200
 121920960.225 7                  91044901.841 8  23200784.750
                  23200789.496          44.600                          48.600
 20  8 16  0  1  3.0000000  0 22R01G17G07G08G03R18R24R17G28G11R02G30
                                G01R14G22R16R15E36E02E25E14E30
 122420736.301 4  95216274.321 4                  22901360.109    22901358.563
  22901365.363                          29.800          28.700
 121980957.788 5  95050001.55745                  23212172.328
  23212177.727                          34.800          33.600
 124637980.865 5  97120562.79344                  23717831.625
  23717838.512                          32.900          28.900
 123849513.621 6  96506128.29843  92485031.260 7  23567778.094
  23567786.137    23567786.219          36.400          20.900          43.800
 115891131.052 6  90304879.94646  86542178.426 8  22053361.383
  22053370.129    22053370.836          41.000          41.800          48.900
 113869467.087 6  88565060.363 6                  21331562.734    21331561.965
  21331567.480                          39.400          41.600
 119961993.254 6  93303788.352 6                  22433501.141    22433500.809
  22433505.813                          36.000          37.300
 106440258.050 7  82786758.694 7                  19890877.180    19890876.977
  19890881.012                          44.300          44.600
 112591246.292 7  87733448.36445                  21425395.195
  21425399.676                          43.100          32.600
 113666157.629 6  88571035.40844                  21629948.305
  21629953.094                          41.600          27.900
 123095632.310 5  95741070.836 5                  23068067.969    23068066.484
  23068072.570                          35.700          35.800
 119830998.324 6  93374844.15745  89484224.076 7  22803085.203
  22803093.691    22803094.035          37.400          35.700          46.800
 107054641.322 7  83419274.17748  79943463.405 8  20371830.945
  20371839.516    20371838.016          45.400          49.800          52.700
 115799888.900 6  90066602.973 6                  21723768.500    21723767.680
  21723773.637                          39.200          40.400
 114194636.775 7  88982837.92845                  21730509.719
  21730512.926                          43.600          34.600
 117564402.186 5  91438911.239 5                  22008285.313    22008283.480
  22008287.949                          32.000          34.200
 104916208.370 7  81601405.057 7                  19633610.930    19633610.918
  19633615.570                          45.500          46.600
 127114136.107 7                  94922912.288 8  24189016.469
                  24189022.199          45.500                          48.600
 124854390.192 7                  93235435.599 8  23759000.727
                  23759005.242          46.600                          50.200
 144047469.982 5                 107567930.423 6  27411324.781
                  27411332.074          34.200                          40.000
 124918857.634 5                  93283579.251 6  23771267.641
                  23771273.738          34.500                          41.800
 121919732.620 7                  91043985.122 8  23200551.023
                  23200555.813          44.900                          48.400
 20  8 16  0  1  4.0000000  0 22R01G17G07G08G03R18R24R17G28G11R02G30
                                G01R14G22R16R15E36E02E25E14E30
 122420601.604 5  95216169.565 4                  22901334.539    22901333.199
  22901340.113                          30.500          28.800
 121978944.344 5  95048432.64045                  23211788.531
  23211794.582                          35.300          33.600
 124641133.680 5  97123019.50544                  23718431.102
  23718438.383                          31.900          29.000
 123851847.774 6  96507947.10443  92486774.297 7  23568221.414
  23568230.309    23568230.145          36.200          21.100          43.900
 115888600.693 6  90302908.24046  86540288.873 8  22052880.180
  22052888.617    22052889.406          40.900          41.800          49.000
 113867732.225 6  88563711.039 7                  21331238.195    21331237.063
  21331242.492                          39.500          42.100
 119964834.403 6  93305998.120 6                  22434032.375    22434032.375
  22434037.070                          36.300          37.300
 106441052.424 7  82787376.556 7                  19891026.016    19891025.352
  19891029.348                          44.300          44.800
 112589247.788 7  87731891.08945                  21425015.438
  21425019.359                          42.700          33.600
 113668504.352 6  88572864.02044                  21630394.898
  21630399.742                          40.600          27.800
 123092318.534 5  95738493.457 6                  23067446.406    23067445.164
  23067451.641                          35.300          36.500
 119833244.542 6  93376594.45546  89485901.433 7  22803512.469
  22803521.113    22803521.484          36.900          36.000          46.900
 107056249.469 7  83420527.27648  79944664.301 8  20372137.180
  20372145.469    20372143.941          45.500          49.900          52.600
 115803987.945 6  90069791.132 6                  21724537.797    21724536.227
  21724542.480                          38.900          40.400
 114193854.476 7  88982228.33845                  21730360.344
  21730363.980                          43.500          33.800
 117561359.805 5  91436544.946 5                  22007715.297    22007713.645
  22007718.332                          31.700          33.300
 104917046.162 7  81602056.685 7                  19633767.898    19633767.566
  19633772.371                          45.500          46.500
 127115737.563 7                  94924108.162 8  24189320.953
                  24189326.938          45.000                          48.300
 124855950.455 7                  93236600.724 8  23759297.859
                  23759302.242          46.400                          50.300
 144050528.607 5                 107570214.462 6  27411906.867
                  27411914.113          34.700                          40.000
 124912776.421 5                  93279038.074 6  23770110.469
                  23770116.410          34.100                          41.800
 121918505.448 7                  91043068.741 8  23200317.430
                  23200322.336          45.200                          48.300
 20  8 16  0  1  5.0000000  0 22R01G17G07G08G03R18R24R17G28G11R02G30
                                G01R14G22R16R15E36E02E25E14E30
 122420467.693 5  95216065.454 4                  22901309.477    22901307.871
  22901315.176                          30.300          29.900
 121976930.849 5  95046863.68245                  23211405.117
  23211411.449                          35.800          33.700
 124644286.520 5  97125476.25544                  23719031.500
  23719038.254                          32.400          28.900
 123854181.993 6  96509765.99643  92488517.363 7  23568666.375
  23568674.617    23568674.410          36.000          21.100          43.900
 115886070.731 6  90300936.84246  86538399.610 8  22052398.313
  22052407.145    22052407.852          41.000          41.900          48.900
 113865997.594 6  88562361.895 7                  21330912.453    21330912.262
  21330917.535                          39.700          42.100
 119967675.507 5  93308207.878 6                  22434563.367    22434563.648
  22434568.379                          35.900          37.500
 106441847.065 7  82787994.591 7                  19891174.969    19891173.668
  19891177.902                          44.600          44.600
 112587249.582 7  87730334.04245                  21424634.758
  21424639.188                          42.700          34.100
 113670851.209 6  88574692.73844                  21630841.469
  21630846.383                          40.600          27.100
 123089004.923 5  95735916.228 6                  23066825.180    23066824.508
  23066830.961                          35.200          36.200
 119835491.025 6  93378344.96045  89487579.020 7  22803940.023
  22803948.605    22803948.676          37.400          35.900          47.200
 107057858.042 7  83421780.71448  79945865.504 8  20372443.453
  20372451.461    20372450.148          45.600          49.800          52.800
 115808087.273 6  90072979.506 6                  21725305.961    21725305.461
  21725311.453                          39.000          40.400
 114193072.750 7  88981619.20245                  21730211.641
  21730215.250                          43.400          34.000
 117558317.923 5  91434179.043 5                  22007145.133    22007144.641
  22007148.828                          31.700          33.800
 104917884.825 7  81602708.974 7                  19633924.359    19633924.512
  19633929.230                          45.200          46.400
 127117339.083 7                  94925304.102 8  24189626.164
                  24189631.660          45.000                          48.300
 124857511.074 7                  93237766.121 8  23759594.813
                  23759599.223          46.100                          50.600
 144053587.234 5                 107572498.511 6  27412488.914
                  27412496.254          34.700                          39.700
 124906695.126 5                  93274496.870 6  23768953.820
                  23768959.293          34.300                          41.900
 121917278.648 7                  91042152.599 8  23200083.953
                  23200088.848          45.300                          48.200
 20  8 16  0  1  6.0000000  0 22R01G17G07G08G03R18R24R17G28G11R02G30
                                G01R14G22R16R15E36E02E25E14E30
 122420334.468 5  95215961.824 4                  22901284.711    22901283.223
  22901290.375                          30.300          29.000
 121974917.360 5  95045294.73045                  23211021.914
  23211028.352                          35.200          33.000
 124647439.267 5  97127932.93644                  23719632.383
  23719638.016                          32.000          29.100
 123856516.189 5  96511584.84743  92490260.468 7  23569110.328
  23569118.859    23569118.535          35.800          20.900          43.800
 115883541.116 6  90298965.71446  86536510.622 8  22051917.602
  22051925.828    22051926.449          41.300          41.400          49.000
 113864263.215 6  88561012.934 6                  21330588.477    21330587.250
  21330592.734                          39.400          41.800
 119970516.525 5  93310417.590 6                  22435096.594    22435094.371
  22435099.648                          35.900          37.900
 106442641.918 7  82788612.817 7                  19891322.609    19891322.219
  19891326.496                          43.900          44.500
 112585251.618 7  87728777.18945                  21424254.320
  21424259.012                          43.200          33.300
 113673198.254 6  88576521.61044                  21631288.102
  21631293.066                          40.700          27.700
 123085691.489 5  95733339.114 6                  23066203.086    23066203.109
  23066210.105                          35.100          36.300
 119837737.903 6  93380095.78045  89489256.848 7  22804368.242
  22804376.344    22804376.387          37.500          35.700          47.200
 107059467.019 7  83423034.46148  79947067.005 8  20372749.242
  20372757.797    20372756.246          45.400          49.600          52.900
 115812186.894 6  90076168.089 6                  21726075.461    21726074.578
  21726080.402                          39.600          40.200
 114192291.553 7  88981010.47345                  21730063.258
  21730066.555                          43.300          34.200
 117555276.543 5  91431813.518 5                  22006575.289    22006575.035
  22006579.438                          31.700          34.700
 104918724.359 7  81603361.935 7                  19634081.914    19634081.680
  19634086.316                          45.200          45.900
 127118940.668 7                  94926500.086 8  24189930.609
                  24189936.469          45.100                          48.200
 124859072.036 7                  93238931.766 8  23759891.977
                  23759896.184          46.400                          50.800
 144056645.929 5                 107574782.596 6  27413070.742
                  27413077.902          34.500                          40.400
 124900613.756 5                  93269955.607 7  23767796.211
                  23767802.070          34.700                          42.300
 121916052.171 7                  91041236.728 8  23199850.594
                  23199855.402          44.900                          48.200
 20  8 16  0  1  7.0000000  0 22R01G17G07G08G03R18R24R17G28G11R02G30
                                G01R14G22R16R15E36E02E25E14E30
 122420202.093 5  95215858.850 4                  22901259.828    22901258.555
  22901265.672                          30.600          29.800
 121972903.926 5  95043725.82145                  23210639.648
  23210645.082                          34.500          33.500
 124650592.183 5  97130389.75644                  23720231.266
  23720238.105                          32.000          29.400
 123858850.554 6  96513403.81243  92492003.630 7  23569554.063
  23569563.113    23569562.742          36.100          19.900          43.600
 115881011.948 6  90296994.93846  86534621.966 8  22051436.578
  22051444.688    22051445.266          40.900          41.400          49.100
 113862529.138 6  88559664.208 6                  21330263.609    21330262.285
  21330267.934                          39.200          41.800
 119973357.510 6  93312627.238 6                  22435627.070    22435625.852
  22435630.918                          36.100          38.100
 106443437.082 7  82789231.260 7                  19891471.617    19891470.594
  19891475.059                          44.000          44.300
 112583253.976 7  87727220.58545                  21423873.906
  21423878.746                          42.800          33.800
 113675545.464 6  88578350.60244                  21631734.719
  21631739.586                          40.500          28.100
 123082378.398 5  95730762.225 6                  23065582.945    23065581.992
  23065589.211                          35.000          36.000
 119839985.042 6  93381846.79645  89490934.941 7  22804795.797
  22804803.727    22804804.109          37.200          35.900          47.000
 107061076.457 7  83424288.56848  79948268.867 8  20373055.492
  20373063.938    20373062.500          45.600          49.800          53.000
 115816286.864 6  90079356.950 6                  21726844.195    21726843.957
  21726849.594                          39.500          40.400
 114191510.957 7  88980402.22445                  21729914.773
  21729917.965                          43.100          34.300
 117552235.725 5  91429448.459 5                  22006006.047    22006005.820
  22006010.324                          32.300          34.900
 104919564.787 7  81604015.606 7                  19634239.438    19634239.012
  19634243.699                          45.400          45.700
 127120542.333 7                  94927696.165 8  24190235.500
                  24190241.207          45.300                          48.200
 124860633.397 7                  93240097.720 8  23760188.891
                  23760193.375          46.100                          51.000
 144059704.677 5                 107577066.736 6  27413652.844
                  27413660.301          34.600                          39.900
 124894532.451 5                  93265414.346 7  23766638.828
                  23766644.742          34.800                          42.100
 121914826.074 7                  91040321.146 8  23199617.203
                  23199622.152          44.800                          48.300
 20  8 16  0  1  8.0000000  0 22R01G17G07G08G03R18R24R17G28G11R02G30
                                G01R14G22R16R15E36E02E25E14E30
 122420070.343 5  95215756.443 4                  22901236.234    22901233.480
  22901241.152                          30.300          29.600
 121970890.483 5  95042156.90845                  23210256.234
  23210261.980                          34.700          33.700
 124653745.105 5  97132846.57944                  23720831.461
  23720838.016                          32.600          29.700
 123861184.933 5  96515222.79543  92493746.830 7  23569998.578
  23570007.188    23570006.941          35.800          20.400          43.600
 115878483.150 6  90295024.44846  86532733.575 8  22050955.125
  22050963.414    22050963.988          41.100          41.700          49.100
 113860795.313 6  88558315.665 6                  21329938.273    21329937.984
  21329943.184                          39.400          41.500
 119976198.408 5  93314836.822 6                  22436157.477    22436157.227
  22436162.277                          35.700          38.100
 106444232.448 7  82789849.902 7                  19891619.461    19891619.305
  19891623.652                          43.900          44.700
 112581256.634 7  87725664.21345                  21423494.203
  21423498.730                          42.600          32.700
 113677892.850 6  88580179.73544                  21632182.445
  21632186.152                          40.500          28.300
 123079065.366 5  95728185.418 5                  23064962.938    23064961.168
  23064968.344                          35.100          35.800
 119842232.546 6  93383598.09445  89492613.258 7  22805223.141
  22805231.352    22805231.688          37.400          35.700          47.000
 107062686.323 7  83425543.01048  79949471.044 8  20373362.445
  20373370.316    20373368.859          45.100          49.900          52.800
 115820387.119 6  90082546.033 6                  21727613.102    21727613.094
  21727618.922                          40.100          39.600
 114190730.929 7  88979794.40845                  21729766.102
  21729769.613                          43.000          34.400
 117549195.524 5  91427083.852 5                  22005436.695    22005436.730
  22005441.148                          32.000          35.000
 104920406.030 7  81604669.908 7                  19634396.891    19634396.320
  19634401.039                          45.300          45.900
 127122144.094 7                  94928892.272 8  24190540.258
                  24190546.012          45.400                          48.000
 124862195.103 7                  93241263.931 8  23760486.398
                  23760490.609          46.400                          50.800
 144062763.523 5                 107579350.944 6  27414235.031
                  27414242.230          35.100                          40.400
 124888451.036 5                  93260873.052 7  23765481.883
                  23765487.344          34.800                          42.200
 121913600.352 7                  91039405.833 8  23199384.180
                  23199388.914          44.900                          48.800
 20  8 16  0  1  9.0000000  0 22R01G17G07G08G03R18R24R17G28G11R02G30
                                G01R14G22R16R15E36E02E25E14E30
 122419939.529 5  95215654.628 4                  22901211.688    22901209.070
  22901216.652                          30.400          29.700
 121968877.114 5  95040588.03745                  23209872.875
  23209878.754                          35.500          34.600
 124656898.091 5  97135303.45044                  23721430.484
  23721437.949                          31.900          29.100
 123863519.392 5  96517041.87143  92495490.117 7  23570442.867
  23570451.395    23570451.137          35.800          19.600          43.400
 115875954.802 6  90293054.30846  86530845.518 8  22050474.648
  22050482.313    22050482.742          40.900          41.700          48.800
 113859061.770 6  88556967.363 6                  21329613.258    21329612.609
  21329618.406                          39.500          41.100
 119979039.319 6  93317046.427 6                  22436688.719    22436688.770
  22436693.719                          36.100          37.600
 106445028.074 7  82790468.712 7                  19891768.695    19891767.949
  19891772.320                          44.100          45.000
 112579259.590 7  87724108.08145                  21423113.641
  21423118.750                          43.100          33.500
 113680240.458 6  88582009.04244                  21632628.406
  21632632.746                          40.700          28.800
 123075752.581 5  95725608.858 6                  23064341.641    23064340.488
  23064347.484                          34.800          36.500
 119844480.382 6  93385349.66045  89494291.859 7  22805650.797
  22805659.293    22805659.453          37.500          35.400          47.300
 107064296.641 7  83426797.80448  79950673.556 8  20373668.016
  20373676.715    20373675.270          44.800          49.700          53.100
 115824487.672 6  90085735.366 6                  21728383.656    21728382.285
  21728388.246                          39.500          39.900
 114189951.492 7  88979187.06145                  21729618.094
  21729621.379                          42.600          34.200
 117546155.909 5  91424719.693 5                  22004867.313    22004867.020
  22004871.910                          31.500          34.800
 104921248.162 7  81605324.905 7                  19634554.422    19634554.105
  19634558.625                          45.600          45.800
 127123745.953 7                  94930088.475 8  24190845.055
                  24190850.816          45.300                          48.200
 124863757.220 7                  93242430.444 8  23760783.352
                  23760787.754          46.600                          50.500
 144065822.428 5                 107581635.193 6  27414817.344
                  27414824.293          35.100                          39.900
 124882369.655 5                  93256331.747 6  23764324.727
                  23764330.273          35.000                          41.600
 121912374.991 7                  91038490.793 8  23199150.641
                  23199155.750          44.900                          48.400
 20  8 16  0  1 10.0000000  0 22R01G17G07G08G03R18R24R17G28G11R02G30
                                G01R14G22R16R15E36E02E25E14E30
 122419809.430 5  95215553.454 4                  22901186.336    22901184.891
  22901192.191                          30.500          29.100
 121966863.798 5  95039019.22045                  23209489.719
  23209495.820                          35.200          34.100
 124660051.195 5  97137760.42344                  23722030.500
  23722038.055                          32.200          29.000
 123865853.975 5  96518861.03243  92497233.474 7  23570887.844
  23570895.691    23570895.473          35.700          20.600          43.200
 115873426.900 6  90291084.52146  86528957.804 8  22049993.281
  22050001.211    22050001.813          40.800          41.700          49.400
 113857328.568 6  88555619.302 6                  21329288.867    21329287.855
  21329293.648                          39.600          41.200
 119981880.287 5  93319256.036 6                  22437221.828    22437219.844
  22437225.020                          35.700          37.900
 106445824.011 7  82791087.784 7                  19891917.055    19891916.758
  19891920.945                          44.200          45.100
 112577262.907 7  87722552.21945                  21422734.109
  21422738.723                          42.600          33.600
 113682588.270 6  88583838.50244                  21633075.227
  21633079.633                          40.800          27.800
 123072440.051 5  95723032.467 6                  23063719.906    23063719.176
  23063726.859                          35.000          36.000
 119846728.666 6  93387101.57045  89495970.741 7  22806078.398
  22806086.953    22806087.336          38.100          35.500          47.000
 107065907.473 7  83428052.99548  79951876.441 8  20373974.836
  20373983.273    20373981.867          45.200          49.800          52.800
 115828588.588 6  90088924.961 6                  21729152.992    21729151.723
  21729157.547                          39.400          40.100
 114189172.689 7  88978580.20045                  21729469.438
  21729472.926                          42.400          33.100
 117543116.837 5  91422356.003 5                  22004300.352    22004298.148
  22004303.000                          31.400          34.700
 104922091.255 7  81605980.637 7                  19634712.516    19634711.629
  19634716.363                          45.500          45.900
 127125347.969 7                  94931284.781 8  24191149.867
                  24191155.770          45.500                          48.300
 124865319.745 7                  93243597.268 8  23761080.711
                  23761085.180          46.500                          50.100
 144068881.458 5                 107583919.559 6  27415399.414
                  27415406.516          35.000                          39.900
 124876288.279 5                  93251790.486 6  23763167.703
                  23763172.969          34.900                          41.500
 121911150.074 7                  91037576.077 8  23198917.750
                  23198922.570          45.200                          48.300
 20  8 16  0  1 11.0000000  0 22R01G17G07G08G03R18R24R17G28G11R02G30
                                G01R14G22R16R15E36E02E25E14E30
 122419680.156 5  95215452.890 4                  22901162.180    22901161.102
  22901168.023                          30.900          29.200
 121964850.461 5  95037450.38745                  23209106.938
  23209112.715                          35.600          33.700
 124663204.376 5  97140217.44144                  23722630.188
  23722637.906                          31.900          28.000
 123868188.627 6  96520680.22843  92498976.897 7  23571331.633
  23571339.938    23571339.688          36.000          20.600          43.700
 115870899.406 6  90289115.05046  86527070.400 8  22049512.008
  22049520.070    22049520.875          40.500          41.700          49.000
 113855595.641 6  88554271.497 6                  21328964.172    21328963.180
  21328969.043                          39.600          41.400
 119984721.221 5  93321465.656 6                  22437751.672    22437751.102
  22437756.355                          35.700          37.900
 106446620.168 7  82791707.024 7                  19892066.055    19892065.668
  19892069.781                          44.000          44.600
 112575266.537 7  87720996.60745                  21422354.039
  21422358.848                          43.100          33.300
 113684936.308 6  88585668.13544                  21633521.852
  21633526.328                          40.900          28.000
 123069127.867 5  95720456.259 6                  23063101.172    23063098.137
  23063106.078                          35.100          36.100
 119848977.282 6  93388853.73645  89497649.892 7  22806507.047
  22806514.980    22806515.195          37.700          35.000          46.800
 107067518.741 7  83429308.53248  79953079.668 8  20374281.594
  20374289.953    20374288.430          45.100          49.800          52.500
 115832689.819 6  90092114.792 6                  21729921.641    21729921.148
  21729926.836                          39.600          40.000
 114188394.479 7  88977973.79945                  21729321.914
  21729324.820                          42.200          33.500
 117540078.313 5  91419992.740 5                  22003730.867    22003728.832
  22003734.094                          31.000          34.200
 104922935.250 7  81606637.072 7                  19634870.148    19634869.738
  19634874.246                          45.300          46.100
 127126950.080 7                  94932481.159 8  24191454.656
                  24191460.445          45.500                          48.200
 124866882.678 7                  93244764.390 8  23761377.961
                  23761382.625          46.700                          49.800
 144071940.611 5                 107586203.939 6  27415981.242
                  27415988.637          35.800                          40.200
 124870206.936 5                  93247249.183 6  23762010.531
                  23762015.617          35.300                          41.400
 121909925.524 7                  91036661.652 8  23198684.617
                  23198689.715          44.900                          48.600
 20  8 16  0  1 12.0000000  0 22R01G17G07G08G03R18R24R17G28G11R02G30
                                G01R14G22R16R15E36E02E25E14E30
 122419551.72015  95215352.973 4                  22901138.258    22901137.133
  22901143.961                          30.800          29.300
 121962837.271 5  95035881.67645                  23208723.500
  23208729.594                          35.000          33.600
 124666357.701 5  97142674.56944                  23723231.023
  23723238.008                          32.300          28.600
 123870523.441 6  96522499.58443  92500720.406 7  23571776.313
  23571784.148    23571784.012          36.600          21.300          43.200
 115868372.379 6  90287145.93646  86525183.324 8  22049031.148
  22049039.195    22049039.813          40.400          41.800          49.100
 113853863.085 6  88552923.923 6                  21328639.555    21328638.871
  21328644.438                          39.600          41.500
 119987562.121 5  93323675.278 6                  22438282.578    22438281.926
  22438287.590                          35.700          38.200
 106447416.648 7  82792326.494 7                  19892215.102    19892214.152
  19892218.617                          44.100          44.800
 112573270.502 7  87719441.26345                  21421974.578
  21421978.973                          42.800          33.200
 113687284.593 6  88587497.97544                  21633968.445
  21633973.156                          40.600          27.100
 123065815.796 5  95717880.242 6                  23062480.250    23062477.711
  23062485.387                          34.500          36.100
 119851226.252 6  93390606.18445  89499329.322 7  22806934.234
  22806942.930    22806943.129          37.300          34.600          46.900
 107069130.508 7  83430564.45048  79954283.244 8  20374588.469
  20374596.637    20374595.148          44.900          49.800          52.500
 115836791.424 6  90095304.946 6                  21730691.523    21730690.531
  21730696.262                          39.400          40.200
 114187616.879 7  88977367.87345                  21729173.828
  21729176.836                          42.400          33.300
 117537040.473 5  91417629.921 5                  22003161.656    22003160.500
  22003165.297                          30.500          34.500
 104923780.114 7  81607294.207 7                  19635027.898    19635027.605
  19635032.469                          45.300          45.900
 127128552.330 7                  94933677.642 7  24191759.578
                  24191765.367          45.100                          47.900
 124868446.016 7                  93245931.816 8  23761675.688
                  23761680.063          46.500                          50.100
 144074999.832 5                 107588488.437 6  27416563.336
                  27416570.652          34.700                          39.600
 124864125.537 5                  93242707.884 6  23760853.039
                  23760858.543          35.300                          41.500
 121908701.386 7                  91035747.517 8  23198451.875
                  23198456.750          45.000                          48.600
 20  8 16  0  1 13.0000000  0 22R01G17G07G08G03R18R24R17G28G11R02G30
                                G01R14G22R16R15E36E02E25E14E30
 122419423.975 4  95215253.654 4                  22901112.203    22901113.172
  22901120.121                          29.800          28.700
 121960824.098 6  95034312.96945                  23208341.281
  23208346.594                          36.200          33.600
 124669511.011 5  97145131.69144                  23723831.820
  23723838.074                          32.800          27.500
 123872858.318 6  96524318.95143  92502463.975 7  23572220.117
  23572228.301    23572228.297          36.000          20.600          43.500
 115865845.742 6  90285177.12947  86523296.548 8  22048550.313
  22048558.344    22048558.965          40.800          42.100          49.500
 113852130.805 6  88551576.602 6                  21328315.031    21328314.336
  21328319.773                          39.600          41.400
 119990403.000 6  93325884.840 6                  22438813.453    22438813.965
  22438818.789                          36.500          37.900
 106448213.372 7  82792946.173 7                  19892363.656    19892362.863
  19892367.469                          44.400          44.500
 112571274.808 7  87717886.17745                  21421594.586
  21421599.352                          42.800          33.100
 113689633.033 6  88589327.92544                  21634415.086
  21634419.973                          40.500          27.700
 123062504.014 5  95715304.421 6                  23061859.742    23061857.102
  23061864.711                          34.500          36.200
 119853475.582 6  93392358.90545  89501009.013 7  22807362.211
  22807370.922    22807371.301          37.100          35.500          46.800
 107070742.725 7  83431820.72448  79955487.173 8  20374894.641
  20374903.387    20374901.992          44.900          49.700          52.600
 115840893.360 6  90098495.358 6                  21731460.617    21731460.063
  21731465.797                          39.600          40.200
 114186839.847 7  88976762.40045                  21729026.125
  21729028.938                          42.400          33.300
 117534003.202 5  91415267.568 5                  22002593.242    22002591.320
  22002596.617                          30.400          34.300
 104924625.850 7  81607951.996 7                  19635186.227    19635186.059
  19635190.688                          45.800          45.600
 127130154.662 7                  94934874.191 8  24192064.469
                  24192070.336          45.100                          48.200
 124870009.738 7                  93247099.539 8  23761973.406
                  23761977.609          46.300                          49.800
 144078059.144 5                 107590772.982 6  27417145.828
                  27417152.941          34.800                          39.900
 124858044.134 6                  93238166.617 6  23759695.484
                  23759700.980          36.000                          41.100
 121907477.627 7                  91034833.670 8  23198219.047
                  23198223.742          44.700                          48.500
 20  8 16  0  1 14.0000000  0 22R01G17G07G08G03R18R24R17G28G11R02G30
                                G01R14G22R16R15E36E02E25E14E30
 122419297.100 5  95215154.952 4                  22901088.797    22901089.680
  22901096.320                          30.700          28.400
 121958810.900 5  95032744.23945                  23207957.367
  23207963.441                          34.800          33.500
 124672664.448 5  97147588.91244                  23724431.945
  23724438.273                          32.400          28.600
 123875193.216 6  96526138.35043  92504207.606 7  23572664.594
  23572672.883    23572672.492          36.300          20.400          43.600
 115863319.510 6  90283208.63847  86521410.097 8  22048069.828
  22048077.563    22048078.277          41.100          42.100          49.300
 113850398.835 6  88550229.500 6                  21327990.383    21327989.949
  21327995.324                          39.600          41.300
 119993243.887 6  93328094.383 6                  22439346.023    22439345.578
  22439350.078                          36.500          37.700
 106449010.380 7  82793566.070 7                  19892513.094    19892512.082
  19892516.488                          43.900          44.600
 112569279.399 7  87716331.31445                  21421214.828
  21421219.484                          42.600          33.500
 113691981.697 6  88591158.05244                  21634862.125
  21634867.059                          40.600          27.700
 123059192.457 5  95712728.756 5                  23061237.227    23061236.605
  23061244.090                          34.600          35.800
 119855725.244 6  93394111.88845  89502688.966 7  22807790.258
  22807798.898    22807799.238          37.200          35.700          46.900
 107072355.372 7  83433077.32348  79956691.430 8  20375201.625
  20375210.367    20375208.715          44.500          49.700          52.700
 115844995.657 6  90101686.030 6                  21732230.203    21732230.078
  21732235.293                          39.700          39.800
 114186063.412 7  88976157.38045                  21728877.914
  21728881.387                          42.700          33.500
 117530966.468 5  91412905.697 5                  22002023.906    22002023.383
  22002028.043                          31.000          33.900
 104925472.481 7  81608610.482 7                  19635344.391    19635344.715
  19635349.063                          45.300          45.600
 127131757.116 7                  94936070.826 8  24192369.414
                  24192375.203          45.000                          48.200
 124871573.841 7                  93248267.538 8  23762270.828
                  23762275.332          46.300                          49.700
 144081118.522 5                 107593057.574 6  27417727.750
                  27417735.211          35.000                          39.800
 124851962.758 5                  93233625.330 6  23758538.414
                  23758543.707          35.400                          41.400
 121906254.247 7                  91033920.113 8  23197986.070
                  23197990.945          44.900                          48.300
 20  8 16  0  1 15.0000000  0 22R01G17G07G08G03R18R24R17G28G11R02G30
                                G01R14G22R16R15E36E02E25E14E30
 122419170.949 5  95215056.885 4                  22901066.891    22901065.875
  22901072.773                          30.700          28.000
 121956797.839 5  95031175.62045                  23207574.500
  23207580.629                          35.300          34.600
 124675817.904 5  97150046.13044                  23725031.586
  23725038.496                          31.900          28.700
 123877528.286 6  96527957.89943  92505951.308 7  23573108.648
  23573117.164    23573116.926          36.100          20.600          43.700
 115860793.737 6  90281240.50347  86519523.964 8  22047589.430
  22047596.973    22047597.723          41.200          42.100          49.400
 113848667.139 6  88548882.661 6                  21327665.563    21327665.602
  21327670.668                          39.400          41.600
 119996084.761 6  93330303.968 6                  22439877.359    22439876.957
  22439881.457                          36.100          38.100
 106449807.671 7  82794186.184 7                  19892661.367    19892660.965
  19892665.496                          44.500          44.600
 112567284.323 7  87714776.70945                  21420835.547
  21420839.758                          43.000          33.500
 113694330.574 6  88592988.33744                  21635309.367
  21635314.211                          40.500          27.300
 123055881.133 5  95710153.265 5                  23060617.438    23060615.730
  23060623.324                          34.000          35.800
 119857975.274 6  93395865.15845  89504369.191 7  22808218.539
  22808227.066    22808227.484          37.600          35.300          46.700
 107073968.503 7  83434334.31648  79957896.046 8  20375508.664
  20375517.266    20375515.691          44.500          49.700          52.800
 115849098.276 6  90104876.950 6                  21733000.672    21732999.406
  21733004.992                          39.600          40.000
 114185287.582 7  88975552.83145                  21728730.164
  21728733.563                          43.200          33.200
 117527930.369 5  91410544.252 5                  22001454.406    22001455.254
  22001459.637                          31.000          34.100
 104926320.029 7  81609269.676 7                  19635502.789    19635503.090
  19635507.707                          45.400          46.000
 127133359.656 7                  94937267.533 8  24192674.367
                  24192680.387          44.900                          48.400
 124873138.368 7                  93249435.840 8  23762568.477
                  23762573.121          46.400                          49.900
 144084177.989 5                 107595342.241 6  27418309.953
                  27418317.375          34.800                          39.500
 124845881.368 5                  93229084.008 6  23757381.109
                  23757386.465          34.700                          41.400
 121905031.252 7                  91033006.846 8  23197753.219
                  23197758.234          45.400                          48.600
 20  8 16  0  1 16.0000000  0 22R01G17G07G08G03R18R24R17G28G11R02G30
                                G01R14G22R16R15E36E02E25E14E30
 122419045.691 5  95214959.410 4                  22901042.938    22901042.848
  22901049.480                          31.000          26.200
 121954784.799 5  95029607.02745                  23207191.180
  23207197.551                          35.500          34.800
 124678971.545 5  97152503.51144                  23725632.734
  23725638.691                          33.100          29.700
 123879863.491 5  96529777.53743  92507695.102 7  23573552.641
  23573561.605    23573561.066          35.800          20.900          43.900
 115858268.407 6  90279272.71246  86517638.180 8  22047108.750
  22047116.449    22047117.039          40.900          41.600          49.300
 113846935.822 6  88547536.049 6                  21327343.094    21327341.293
  21327346.363                          39.500          40.700
 119998925.625 6  93332513.546 6                  22440408.203    22440408.039
  22440412.633                          36.200          37.600
 106450605.262 7  82794806.535 7                  19892811.102    19892809.930
  19892814.500                          44.500          44.200
 112565289.587 7  87713222.36645                  21420455.570
  21420460.152                          42.700          33.200
 113696679.681 6  88594818.82844                  21635756.250
  21635761.230                          40.500          27.200
 123052570.035 5  95707577.980 5                  23059997.070    23059995.500
  23060002.859                          34.300          34.800
 119860225.734 6  93397618.75345  89506049.722 7  22808647.445
  22808655.313    22808655.676          37.100          35.500          46.300
 107075582.157 7  83435591.71048  79959101.032 8  20375815.930
  20375824.414    20375822.801          44.700          49.600          52.600
 115853201.231 6  90108068.154 6                  21733769.516    21733768.574
  21733774.613                          39.200          39.600
 114184512.388 7  88974948.79145                  21728582.773
  21728586.176                          43.600          33.400
 117524894.793 5  91408183.272 5                  22000885.656    22000887.195
  22000891.301                          31.400          33.500
 104927168.523 7  81609929.624 7                  19635662.344    19635662.148
  19635666.531                          45.200          45.200
 127134962.357 7                  94938464.357 8  24192979.258
                  24192985.344          45.100                          48.200
 124874703.299 7                  93250604.471 8  23762866.102
                  23762870.773          46.200                          49.600
 144087237.607 5                 107597627.024 6  27418892.305
                  27418899.691          35.000                          39.900
 124839799.998 5                  93224542.741 6  23756223.820
                  23756229.172          35.300                          41.100
 121903808.698 7                  91032093.884 8  23197520.555
                  23197525.461          44.900                          48.600
 20  8 16  0  1 17.0000000  0 22R01G17G07G08G03R18R24R17G28G11R02G30
                                G01R14G22R16R15E36E02E25E14E30
 122418921.091 5  95214862.564 4                  22901020.289    22901019.129
  22901026.152                          30.900          27.500
 121952771.750 6  95028038.41245                  23206809.156
  23206814.539                          36.100          34.000
 124682125.137 5  97154960.86644                  23726232.508
  23726238.820                          33.600          29.400
 123882198.719 5  96531597.18443  92509438.960 7  23573998.039
  23574005.816    23574005.348          35.400          21.100          43.900
 115855743.499 6  90277305.25347  86515752.666 8  22046628.570
  22046635.906    22046636.664          40.900          42.000          49.100
 113845204.683 6  88546189.630 6                  21327018.781    21327016.684
  21327021.965                          39.400          41.100
 120001766.414 6  93334723.010 6                  22440940.148    22440938.992
  22440943.965                          36.000          37.700
 106451403.067 7  82795427.051 7                  19892959.984    19892959.195
  19892963.625                          44.100          44.400
 112563295.148 7  87711668.26045                  21420075.938
  21420080.781                          42.800          33.200
 113699028.944 6  88596649.40944                  21636203.211
  21636208.316                          40.600          28.100
 123049259.086 5  95705002.826 5                  23059376.922    23059375.262
  23059382.422                          34.100          35.300
 119862476.459 6  93399372.56245  89507730.472 7  22809074.773
  22809083.539    22809083.836          37.300          34.600          46.300
 107077196.177 7  83436849.38148  79960306.310 8  20376122.805
  20376131.438    20376129.879          44.800          49.900          52.500
 115857304.500 6  90111259.564 6                  21734539.586    21734538.844
  21734544.496                          39.100          40.000
 114183737.720 7  88974345.15445                  21728435.844
  21728438.719                          43.600          33.800
 117521859.816 5  91405822.761 5                  22000320.039    22000318.824
  22000323.242                          31.000          34.400
 104928017.883 7  81610590.238 7                  19635820.500    19635821.055
  19635825.387                          45.300          45.500
 127136565.119 7                  94939661.227 8  24193284.188
                  24193290.199          45.000                          48.300
 124876268.600 7                  93251773.350 8  23763164.148
                  23763168.742          46.200                          49.600
 144090297.240 5                 107599911.817 6  27419474.516
                  27419481.824          35.300                          39.500
 124833718.566 5                  93220001.424 6  23755066.688
                  23755071.773          34.700                          41.300
 121902586.471 7                  91031181.189 8  23197288.141
                  23197292.988          45.000                          48.200
 20  8 16  0  1 18.0000000  0 22R01G17G07G08G03R18R24R17G28G11R02G30
                                G01R14G22R16R15E36E02E25E14E30
 122418797.514 5  95214766.351 4                  22900995.500    22900996.051
  22901002.859                          30.700          28.000
 121950758.822 5  95026469.90145                  23206425.141
  23206431.574                          35.500          34.200
 124685278.912 5  97157418.35344                  23726832.594
  23726839.043                          33.200          29.100
 123884534.100 5  96533416.96943  92511182.909 7  23574442.297
  23574450.250    23574449.895          35.400          20.900          44.100
 115853219.048 6  90275338.15246  86513867.533 8  22046147.641
  22046155.445    22046156.301          41.300          41.600          48.900
 113843473.947 6  88544843.482 6                  21326693.273    21326692.809
  21326697.629                          39.600          40.900
 120004607.200 6  93336932.537 6                  22441471.688    22441469.969
  22441475.082                          36.300          37.300
 106452201.193 7  82796047.819 7                  19893109.133    19893108.465
  19893112.816                          44.100          44.100
 112561301.088 7  87710114.45045                  21419696.375
  21419701.297                          42.900          32.700
 113701378.469 6  88598480.21944                  21636650.938
  21636655.480                          40.700          26.900
 123045948.472 5  95702427.884 5                  23058757.172    23058755.203
  23058761.863                          34.200          34.800
 119864727.614 6  93401126.70445  89509411.521 7  22809503.656
  22809511.816    22809512.191          37.100          35.000          46.400
 107078810.734 7  83438107.48048  79961511.996 8  20376430.039
  20376438.691    20376437.172          44.300          49.700          52.500
 115861408.171 6  90114451.300 6                  21735308.031    21735308.305
  21735314.367                          39.200          40.300
 114182963.722 7  88973742.04445                  21728287.992
  21728291.488                          43.300          34.100
 117518825.508 5  91403462.729 5                  21999751.109    21999750.980
  21999755.234                          30.700          33.500
 104928868.153 7  81611251.560 7                  19635980.156    19635980.316
  19635984.477                          45.400          45.700
 127138168.071 7                  94940858.228 8  24193589.367
                  24193595.262          45.200                          48.200
 124877834.330 7                  93252942.576 8  23763462.180
                  23763466.676          46.000                          50.000
 144093357.067 5                 107602196.748 6  27420057.117
                  27420064.117          35.500                          39.600
 124827637.229 5                  93215460.144 6  23753909.227
                  23753914.406          35.100                          41.100
 121901364.708 7                  91030268.823 8  23197055.422
                  23197060.504          44.900                          48.400
 20  8 16  0  1 19.0000000  0 22R01G17G07G08G03R18R24R17G28G11R02G30
                                G01R14G22R16R15E36E02E25E14E30
 122418674.519 5  95214670.744 4                  22900975.164    22900973.848
  22900980.027                          30.100          27.700
 121948745.901 5  95024901.39345                  23206041.125
  23206048.660                          35.400          34.400
 124688432.687 5  97159875.83644                  23727432.367
  23727439.152                          33.200          28.900
 123886869.559 5  96535236.81343  92512926.915 7  23574886.156
  23574894.531    23574894.102          35.500          20.600          43.900
 115850694.991 6  90273371.35446  86511982.688 8  22045667.617
  22045675.078    22045676.070          41.400          41.700          48.600
 113841743.475 6  88543497.576 6                  21326368.430    21326368.301
  21326373.523                          39.100          40.600
 120007448.010 6  93339142.049 6                  22442001.344    22442001.367
  22442006.215                          36.400          37.600
 106452999.594 7  82796668.785 7                  19893259.008    19893257.625
  19893261.973                          43.900          44.000
 112559307.287 7  87708560.83645                  21419316.602
  21419321.871                          42.400          33.000
 113703728.162 6  88600311.14444                  21637097.555
  21637102.594                          40.600          27.200
 123042638.059 5  95699853.126 5                  23058135.820    23058134.902
  23058141.426                          33.300          34.600
 119866979.100 6  93402881.11745  89511092.820 7  22809932.094
  22809940.227    22809940.836          36.900          35.100          46.300
 107080425.719 7  83439365.90948  79962717.988 8  20376737.242
  20376746.070    20376744.465          44.200          49.600          52.600
 115865512.101 6  90117643.266 6                  21736079.172    21736078.336
  21736084.230                          39.400          40.500
 114182190.264 7  88973139.33945                  21728141.313
  21728144.219                          43.800          34.200
 117515791.761 5  91401103.133 5                  21999183.484    21999183.125
  21999187.348                          31.400          33.600
 104929719.251 7  81611913.532 7                  19636139.867    19636139.574
  19636143.742                          45.300          45.500
 127139771.056 7                  94942055.258 8  24193894.344
                  24193900.258          45.500                          48.300
 124879400.431 7                  93254112.065 8  23763759.992
                  23763764.691          46.100                          50.600
 144096416.927 5                 107604481.681 6  27420639.297
                  27420646.406          35.500                          39.800
 124821555.828 5                  93210918.853 6  23752752.086
                  23752757.191          34.700                          41.500
 121900143.276 7                  91029356.719 8  23196823.039
                  23196828.152          45.000                          48.300
 20  8 16  0  1 20.0000000  0 22R01G17G07G08G03R18R24R17G28G11R02G30
                                G01R14G22R16R15E36E02E25E14E30
 122418552.453 5  95214575.767 4                  22900953.000    22900950.516
  22900957.047                          30.200          27.900
 121946733.037 5  95023332.93245                  23205658.563
  23205665.648                          35.800          34.200
 124691586.633 5  97162333.44644                  23728032.695
  23728039.191                          33.700          28.600
 123889205.122 5  96537056.71343  92514670.994 7  23575331.406
  23575339.004    23575338.559          35.200          19.900          43.900
 115848171.365 6  90271404.89346  86510098.168 8  22045187.000
  22045194.813    22045195.570          41.700          41.800          48.600
 113840013.340 6  88542151.888 6                  21326044.281    21326044.254
  21326049.391                          39.600          40.900
 120010288.864 6  93341351.579 6                  22442533.266    22442532.672
  22442537.500                          36.300          37.400
 106453798.271 7  82797289.984 7                  19893408.414    19893406.820
  19893411.102                          43.800          44.000
 112557313.815 7  87707007.48845                  21418937.328
  21418942.699                          42.600          32.400
 113706078.068 6  88602142.23644                  21637544.477
  21637549.637                          40.700          28.500
 123039327.858 5  95697278.592 5                  23057516.320    23057514.320
  23057520.992                          33.900          34.200
 119869230.950 6  93404635.80645  89512774.397 7  22810361.602
  22810368.707    22810369.219          36.900          34.800          46.300
 107082041.183 7  83440624.71748  79963924.345 8  20377045.023
  20377053.563    20377051.914          44.300          49.900          52.600
 115869616.434 6  90120835.503 6                  21736849.383    21736848.047
  21736854.203                          39.800          40.700
 114181417.448 7  88972537.14845                  21727993.781
  21727997.078                          43.400          33.800
 117512758.591 5  91398744.003 5                  21998614.758    21998615.414
  21998619.590                          31.500          33.900
 104930571.275 7  81612576.208 7                  19636298.367    19636298.902
  19636303.246                          45.700          46.100
 127141374.196 7                  94943252.409 8  24194199.375
                  24194205.289          45.400                          48.200
 124880966.946 7                  93255281.865 8  23764058.305
                  23764062.789          46.300                          50.600
 144099476.851 5                 107606766.725 6  27421221.461
                  27421228.578          35.500                          40.000
 124815474.452 5                  93206377.558 6  23751594.703
                  23751599.840          35.300                          41.000
 121898922.271 7                  91028444.930 8  23196590.680
                  23196595.766          44.900                          48.300
 20  8 16  0  1 21.0000000  0 22R01G17G07G08G03R18R24R17G28G11R02G30
                                G01R14G22R16R15E36E02E25E14E30
 122418431.041 5  95214481.379 4                  22900929.820    22900928.191
  22900934.402                          30.800          29.100
 121944720.169 5  95021764.46345                  23205276.258
  23205282.711                          35.700          35.100
 124694740.587 5  97164791.08044                  23728633.164
  23728639.336                          33.200          29.300
 123891540.715 5  96538876.65143  92516415.122 7  23575775.758
  23575783.578    23575782.918          35.700          20.100          43.500
 115845648.172 6  90269438.76646  86508213.949 8  22044707.094
  22044714.625    22044715.449          41.800          41.400          48.900
 113838283.469 6  88540806.464 6                  21325720.648    21325720.242
  21325725.195                          39.400          40.700
 120013129.620 6  93343561.116 6                  22443064.016    22443063.688
  22443068.883                          36.400          37.500
 106454597.165 7  82797911.350 7                  19893557.234    19893556.105
  19893560.453                          43.800          44.400
 112555320.680 7  87705454.39145                  21418558.789
  21418563.297                          42.100          32.700
 113708428.195 6  88603973.50744                  21637991.703
  21637996.883                          40.400          28.400
 123036017.933 5  95694704.145 5                  23056896.172    23056893.980
  23056900.613                          34.100          33.700
 119871483.149 6  93406390.76845  89514456.226 7  22810790.094
  22810797.348    22810797.813          36.100          34.800          46.300
 107083657.080 7  83441883.85848  79965131.021 8  20377352.555
  20377361.074    20377359.332          44.600          49.700          52.900
 115873721.007 6  90124027.966 6                  21737617.875    21737618.262
  21737624.230                          39.900          40.500
 114180645.186 7  88971935.38545                  21727847.063
  21727850.148                          43.200          34.400
 117509725.944 5  91396385.323 5                  21998046.570    21998047.711
  21998051.855                          31.300          34.000
 104931424.180 7  81613239.569 7                  19636458.742    19636458.551
  19636462.734                          45.400          45.900
 127142977.410 7                  94944449.623 8  24194504.516
                  24194510.531          44.900                          48.200
 124882533.833 7                  93256451.944 8  23764356.500
                  23764360.973          46.400                          50.500
 144102536.886 5                 107609051.805 6  27421804.000
                  27421810.992          35.500                          40.200
 124809393.043 5                  93201836.242 6  23750438.156
                  23750442.445          35.100                          40.900
 121897701.623 7                  91027533.411 8  23196358.664
                  23196363.438          45.300                          48.200
 20  8 16  0  1 22.0000000  0 22R01G17G07G08G03R18R24R17G28G11R02G30
                                G01R14G22R16R15E36E02E25E14E30
 122418310.549 5  95214387.642 4                  22900905.836    22900905.504
  22900911.789                          30.100          28.300
 121942707.420 5  95020196.08445                  23204892.813
  23204899.816                          35.200          34.400
 124697894.653 5  97167248.79044                  23729233.117
  23729239.684                          33.000          28.600
 123893876.440 5  96540696.69143  92518159.341 7  23576219.492
  23576227.996    23576227.695          34.900          19.300          43.200
 115843125.410 6  90267472.97246  86506330.074 8  22044226.523
  22044234.691    22044235.441          41.200          41.300          48.800
 113836553.911 6  88539461.254 6                  21325396.594    21325396.039
  21325401.227                          39.400          41.200
 120015970.400 6  93345770.568 6                  22443594.859    22443595.012
  22443600.156                          36.500          37.400
 106455396.319 7  82798532.923 7                  19893706.875    19893705.215
  19893709.848                          44.000          44.200
 112553327.860 7  87703901.54645                  21418179.352
  21418184.125                          42.500          32.300
 113710778.513 6  88605804.91744                  21638439.047
  21638444.113                          40.800          27.400
 123032708.233 5  95692129.949 5                  23056276.328    23056274.344
  23056280.246                          34.400          33.900
 119873735.684 5  93408145.98345  89516138.315 7  22811218.375
  22811225.875    22811226.551          35.800          35.200          46.300
 107085273.463 7  83443143.36948  79966338.051 8  20377660.086
  20377668.480    20377667.008          44.800          49.600          52.800
 115877825.961 6  90127220.710 6                  21738389.594    21738388.133
  21738394.352                          39.600          40.600
 114179873.523 7  88971334.09645                  21727700.336
  21727703.309                          43.000          34.200
 117506693.934 5  91394027.097 5                  21997480.242    21997480.594
  21997484.281                          31.200          33.300
 104932278.005 7  81613903.671 7                  19636619.141    19636618.090
  19636622.551                          45.300          46.100
 127144580.760 7                  94945646.932 8  24194809.680
                  24194815.605          45.300                          48.300
 124884101.142 7                  93257622.328 8  23764654.547
                  23764659.078          46.200                          50.400
 144105597.019 5                 107611336.956 6  27422386.258
                  27422393.145          35.600                          40.000
 124803311.616 5                  93197294.922 6  23749280.305
                  23749285.242          35.000                          40.900
 121896481.388 7                  91026622.189 7  23196126.609
                  23196131.164          45.100                          47.800
 20  8 16  0  1 23.0000000  0 22R01G17G07G08G03R18R24R17G28G11R02G30
                                G01R14G22R16R15E36E02E25E14E30
 122418190.818 5  95214294.550 4                  22900883.523    22900882.785
  22900889.309                          30.800          27.200
 121940694.747 5  95018627.76945                  23204509.930
  23204516.844                          35.600          34.800
 124701048.806 5  97169706.56844                  23729833.398
  23729839.766                          33.100          29.100
 123896212.304 5  96542516.85343  92519903.664 7  23576662.594
  23576672.523    23576672.090          35.500          19.000          43.200
 115840603.087 6  90265507.52746  86504446.539 8  22043747.188
  22043754.504    22043755.520          41.000          41.600          48.900
 113834824.681 6  88538116.290 6                  21325072.273    21325072.020
  21325077.293                          39.300          41.000
 120018811.177 5  93347980.050 6                  22444126.320    22444126.379
  22444131.469                          35.900          37.400
 106456195.828 7  82799154.760 7                  19893855.625    19893854.707
  19893859.293                          43.900          44.400
 112551335.433 7  87702349.00545                  21417800.156
  21417804.969                          42.300          32.600
 113713129.105 6  88607636.54944                  21638886.734
  21638891.586                          40.900          27.800
 123029398.829 5  95689555.969 5                  23055655.914    23055653.977
  23055659.891                          34.600          33.800
 119875988.662 5  93409901.54945  89517820.743 7  22811647.125
  22811654.293    22811655.379          35.900          34.600          46.700
 107086890.325 7  83444403.27448  79967545.466 8  20377967.695
  20377976.176    20377974.676          45.000          49.800          52.600
 115881931.308 6  90130413.746 6                  21739160.375    21739158.266
  21739164.488                          39.600          40.800
 114179102.527 7  88970733.31345                  21727553.156
  21727556.422                          43.000          34.000
 117503662.546 5  91391669.344 5                  21996913.234    21996913.012
  21996916.809                          31.700          33.500
 104933132.774 7  81614568.476 7                  19636778.023    19636778.063
  19636782.586                          45.100          45.900
 127146184.243 7                  94946844.341 8  24195114.766
                  24195120.574          44.900                          48.300
 124885668.870 7                  93258793.039 8  23764952.977
                  23764957.602          46.200                          50.700
 144108657.236 5                 107613622.201 6  27422968.648
                  27422975.512          35.500                          39.900
 124797230.278 5                  93192753.658 6  23748123.102
                  23748128.137          35.300                          41.300
 121895261.566 7                  91025711.295 8  23195894.313
                  23195899.121          44.700                          48.000
 20  8 16  0  1 24.0000000  0 22R01G17G07G08G03R18R24R17G28G11R02G30
                                G01R14G22R16R15E36E02E25E14E30
 122418071.885 5  95214202.021 4                  22900861.391    22900860.711
  22900866.887                          30.400          27.700
 121938682.040 5  95017059.43145                  23204127.602
  23204133.906                          35.300          34.400
 124704202.987 5  97172164.37144                  23730432.992
  23730440.082                          33.200          29.500
 123898548.188 6  96544337.04043  92521648.007 7  23577108.250
  23577117.102    23577116.875          36.100          19.900          43.300
 115838081.200 6  90263542.42146  86502563.300 8  22043266.352
  22043274.734    22043275.438          40.900          41.600          49.100
 113833095.707 6  88536771.523 6                  21324749.117    21324748.168
  21324753.352                          39.200          41.300
 120021651.855 5  93350189.483 6                  22444657.320    22444657.324
  22444662.781                          35.500          37.800
 106456995.557 7  82799776.768 7                  19894005.500    19894003.992
  19894008.738                          43.700          44.600
 112549343.271 6  87700796.67645                  21417421.102
  21417425.699                          41.900          32.800
 113715479.878 6  88609468.31244                  21639334.242
  21639338.965                          40.400          28.300
 123026089.544 5  95686982.131 5                  23055034.828    23055034.012
  23055039.520                          34.500          33.800
 119878241.930 6  93411657.34445  89519503.369 7  22812075.813
  22812083.211    22812084.121          36.200          34.600          46.400
 107088507.640 7  83445663.51148  79968753.185 8  20378275.773
  20378283.914    20378282.445          45.000          49.900          52.800
 115886036.937 6  90133607.021 6                  21739930.117    21739928.621
  21739934.531                          39.700          41.000
 114178332.065 7  88970132.95245                  21727407.133
  21727409.875                          43.100          34.000
 117500631.692 5  91389311.984 5                  21996347.773    21996345.645
  21996349.320                          31.500          33.600
 104933988.358 7  81615233.930 7                  19636938.906    19636938.301
  19636942.531                          45.500          45.700
 127147787.813 7                  94948041.808 8  24195419.945
                  24195425.758          44.700                          48.200
 124887236.971 7                  93259964.015 8  23765251.383
                  23765256.063          46.200                          50.800
 144111717.573 5                 107615907.520 6  27423550.930
                  27423557.891          35.600                          40.100
 124791148.860 5                  93188212.344 6  23746965.461
                  23746970.930          35.300                          41.100
 121894042.116 7                  91024800.662 8  23195662.125
                  23195666.988          44.900                          48.500
 20  8 16  0  1 25.0000000  0 22R01G17G07G08G03R18R24R17G28G11R02G30
                                G01R14G22R16R15E36E02E25E14E30
 122417953.696 5  95214110.110 4                  22900838.906    22900838.422
  22900844.762                          30.400          27.700
 121936669.432 5  95015491.17145                  23203743.641
  23203750.906                          34.900          34.200
 124707357.262 5  97174622.25244                  23731033.469
  23731040.484                          33.000          28.900
 123900884.213 5  96546157.32543  92523392.437 7  23577552.875
  23577561.762    23577561.332          34.800          19.300          43.000
 115835559.741 6  90261577.64846  86500680.401 8  22042786.844
  22042794.934    22042795.801          41.300          41.700          49.200
 113831367.024 6  88535426.984 6                  21324424.477    21324424.180
  21324429.430                          39.400          41.200
 120024492.572 5  93352398.952 6                  22445189.086    22445188.453
  22445194.000                          35.700          38.300
 106457795.583 7  82800399.005 7                  19894154.680    19894153.648
  19894158.363                          43.700          44.400
 112547351.401 7  87699244.57045                  21417042.078
  21417046.684                          42.100          33.300
 113717830.818 6  88611300.21544                  21639780.883
  21639786.371                          40.300          28.700
 123022780.579 5  95684408.472 5                  23054414.922    23054413.492
  23054419.129                          34.000          33.000
 119880495.576 6  93413413.43145  89521186.289 7  22812504.453
  22812512.211    22812512.832          36.100          34.900          46.500
 107090125.404 7  83446924.11048  79969961.267 8  20378583.508
  20378591.828    20378590.340          44.600          49.600          53.000
 115890142.904 6  90136800.520 6                  21740698.648    21740698.859
  21740704.797                          39.500          40.900
 114177562.224 7  88969533.08145                  21727260.609
  21727263.488                          43.000          33.800
 117497601.423 5  91386955.104 5                  21995779.117    21995778.516
  21995781.871                          31.500          34.200
 104934844.852 7  81615900.097 7                  19637098.648    19637098.660
  19637102.832                          45.800          45.900
 127149391.503 7                  94949239.373 8  24195725.102
                  24195730.992          44.400                          48.200
 124888805.471 7                  93261135.306 8  23765549.813
                  23765554.492          46.300                          50.800
 144114777.971 5                 107618192.881 6  27424133.375
                  27424140.250          35.800                          40.400
 124785067.486 5                  93183671.047 6  23745808.445
                  23745813.438          35.600                          41.200
 121892823.060 7                  91023890.327 8  23195430.188
                  23195435.098          44.700                          48.700
 20  8 16  0  1 26.0000000  0 22R01G17G07G08G03R18R24R17G28G11R02G30
                                G01R14G22R16R15E36E02E25E14E30
 122417836.314 4  95214018.796 4                  22900817.945    22900815.547
  22900822.934                          29.900          28.000
 121934656.784 5  95013922.86845                  23203361.180
  23203367.805                          35.300          34.000
 124710511.628 5  97177080.18844                  23731634.203
  23731640.742                          33.200          29.200
 123903220.367 5  96547977.70143  92525136.930 7  23577997.328
  23578006.336    23578005.965          34.100          20.600          43.100
 115833038.717 6  90259613.21346  86498797.805 8  22042307.000
  22042315.266    22042315.957          41.600          41.100          49.100
 113829638.663 6  88534082.717 6                  21324100.773    21324100.422
  21324105.574                          39.200          40.000
 120027333.319 6  93354608.419 6                  22445721.156    22445719.914
  22445725.379                          36.100          37.900
 106458595.889 7  82801021.475 7                  19894304.102    19894303.246
  19894307.785                          44.200          43.300
 112545359.909 7  87697692.75445                  21416663.047
  21416667.656                          42.300          31.400
 113720182.029 6  88613132.33244                  21640229.070
  21640233.691                          40.700          26.700
 123019471.807 5  95681834.996 5                  23053795.039    23053793.176
  23053798.898                          34.100          32.900
 119882749.616 6  93415169.82445  89522869.467 7  22812933.242
  22812941.047    22812941.848          36.400          34.000          46.200
 107091743.662 7  83448185.09248  79971169.695 8  20378891.469
  20378899.918    20378898.219          44.500          49.100          52.800
 115894249.212 6  90139994.333 6                  21741469.547    21741469.543
  21741475.172                          39.600          39.600
 114176792.970 7  88968933.66545                  21727113.766
  21727117.180                          42.800          33.100
 117494571.747 5  91384598.665 5                  21995212.578    21995211.809
  21995214.723                          31.400          33.100
 104935702.284 7  81616566.976 7                  19637259.117    19637258.973
  19637263.340                          45.900          45.000
 127150995.313 7                  94950437.023 8  24196030.414
                  24196036.160          44.700                          48.100
 124890374.368 7                  93262306.899 8  23765848.406
                  23765852.945          46.200                          50.700
 144117838.503 5                 107620478.327 6  27424715.844
                  27424722.895          35.600                          40.300
 124778986.098 5                  93179129.731 6  23744651.406
                  23744656.180          35.800                          41.100
 121891604.403 7                  91022980.284 8  23195198.188
                  23195203.051          44.400                          48.900
 20  8 16  0  1 27.0000000  0 22R01G17G07G08G03R18R24R17G28G11R02G30
                                G01R14G22R16R15E36E02E25E14E30
 122417719.725 5  95213928.142 4                  22900795.852    22900793.844
  22900801.145                          30.500          28.900
 121932644.255 5  95012354.67045                  23202978.023
  23202985.047                          35.400          34.400
 124713666.051 5  97179538.18344                  23732234.703
  23732240.906                          33.100          29.000
 123905556.519 5  96549798.06843  92526881.478 7  23578441.875
  23578450.734    23578450.633          34.900          20.100          43.000
 115830518.090 6  90257649.09546  86496915.530 8  22041828.313
  22041835.469    22041836.410          41.100          41.700          48.800
 113827910.599 6  88532738.679 6                  21323777.141    21323776.906
  21323781.824                          39.200          40.200
 120030174.040 6  93356817.829 6                  22446251.930    22446251.531
  22446256.457                          36.000          38.000
 106459396.430 7  82801644.117 7                  19894454.102    19894452.789
  19894457.375                          43.900          44.300
 112543368.732 7  87696141.18545                  21416283.844
  21416288.824                          42.500          32.100
 113722533.387 6  88614964.55744                  21640675.820
  21640681.133                          40.800          28.200
 123016163.293 5  95679261.675 5                  23053173.945    23053173.352
  23053178.852                          34.400          33.100
 119885003.947 6  93416926.44345  89524552.924 7  22813361.938
  22813370.160    22813370.848          36.200          34.400          46.300
 107093362.331 7  83449446.39548  79972378.466 8  20379199.211
  20379207.801    20379206.262          44.300          49.500          52.900
 115898355.824 6  90143188.362 6                  21742240.047    21742239.734
  21742245.711                          39.200          40.300
 114176024.297 7  88968334.69545                  21726968.156
  21726970.980                          43.000          33.400
 117491542.652 5  91382242.745 5                  21994645.961    21994644.656
  21994647.723                          31.300          34.200
 104936560.555 7  81617234.532 7                  19637419.664    19637419.848
  19637423.809                          45.800          45.900
 127152599.225 7                  94951634.745 8  24196335.555
                  24196341.391          44.900                          48.300
 124891943.658 7                  93263478.759 8  23766147.109
                  23766151.590          45.900                          50.400
 144120899.052 5                 107622763.825 6  27425298.430
                  27425305.285          35.300                          40.200
 124772904.675 5                  93174588.449 6  23743494.172
                  23743498.949          35.600                          41.000
 121890386.112 7                  91022070.534 8  23194966.516
                  23194971.387          44.600                          48.800
 20  8 16  0  1 28.0000000  0 22R01G17G07G08G03R18R24R17G28G11R02G30
                                G01R14G22R16R15E36E02E25E14E30
 122417603.950 5  95213838.102 4                  22900773.547    22900772.301
  22900779.445                          30.100          29.000
 121930631.755 5  95010786.49345                  23202595.031
  23202602.203                          35.400          34.600
 124716820.594 5  97181996.26545                  23732834.211
  23732841.254                          33.700          30.700
 123907892.837 5  96551618.57543  92528626.099 7  23578886.398
  23578895.324    23578895.355          35.500          19.900          43.600
 115827997.910 6  90255685.31646  86495033.582 8  22041348.289
  22041355.996    22041356.836          40.900          41.900          48.700
 113826182.903 6  88531394.882 6                  21323452.797    21323453.281
  21323458.156                          39.200          40.700
 120033014.703 5  93359027.226 6                  22446782.711    22446782.555
  22446787.773                          35.900          37.500
 106460197.253 7  82802266.977 7                  19894603.203    19894602.508
  19894607.125                          43.900          44.400
 112541377.878 7  87694589.87245                  21415904.953
  21415910.078                          42.200          32.800
 113724885.007 6  88616797.00444                  21641123.648
  21641128.695                          40.800          27.200
 123012854.881 5  95676688.472 5                  23052553.789    23052553.145
  23052558.742                          33.300          32.500
 119887258.686 6  93418683.38645  89526236.661 7  22813790.539
  22813799.125    22813799.797          36.100          34.800          46.600
 107094981.516 7  83450708.10048  79973587.587 8  20379507.375
  20379515.832    20379514.332          44.300          49.500          52.800
 115902462.775 6  90146382.676 6                  21743010.938    21743010.156
  21743016.109                          39.300          40.500
 114175256.253 7  88967736.22145                  21726821.477
  21726824.789                          43.000          34.100
 117488514.201 5  91379887.271 5                  21994078.680    21994076.902
  21994080.848                          31.200          34.400
 104937419.741 7  81617902.787 7                  19637581.039    19637580.496
  19637584.680                          45.300          45.800
 127154203.263 7                  94952832.559 8  24196640.727
                  24196646.465          44.400                          48.000
 124893513.368 7                  93264650.939 8  23766446.055
                  23766450.355          45.800                          50.100
 144123959.776 5                 107625049.391 6  27425881.117
                  27425887.621          35.300                          39.600
 124766823.275 5                  93170047.125 6  23742336.633
                  23742341.633          35.600                          40.900
 121889168.254 7                  91021161.085 8  23194734.547
                  23194739.594          45.100                          48.200
 20  8 16  0  1 29.0000000  0 22R01G17G07G08G03R18R24R17G28G11R02G30
                                G01R14G22R16R15E36E02E25E14E30
 122417488.969 5  95213748.692 4                  22900752.273    22900750.789
  22900757.898                          30.600          27.000
 121928619.291 5  95009218.35045                  23202212.711
  23202219.309                          35.000          34.600
 124719975.207 5  97184454.39744                  23733435.133
  23733441.816                          33.800          29.100
 123910229.200 5  96553439.12243  92530370.805 7  23579331.406
  23579339.832    23579339.902          35.800          20.400          43.400
 115825478.184 6  90253721.89746  86493151.964 8  22040868.531
  22040876.664    22040877.410          41.000          41.600          48.500
 113824455.447 6  88530051.323 6                  21323129.969    21323129.730
  21323134.547                          39.500          40.900
 120035855.386 6  93361236.669 6                  22447312.742    22447313.629
  22447318.941                          36.200          37.500
 106460998.370 7  82802890.059 7                  19894753.328    19894752.293
  19894756.816                          44.100          44.900
 112539387.353 7  87693038.81845                  21415526.734
  21415531.277                          42.300          33.100
 113727236.823 6  88618629.56844                  21641571.391
  21641576.055                          40.900          27.800
 123009546.741 5  95674115.475 5                  23051933.453    23051933.211
  23051938.691                          33.500          32.800
 119889513.806 6  93420440.62345  89527920.667 7  22814220.281
  22814228.102    22814229.047          36.800          34.500          46.000
 107096601.164 7  83451970.16448  79974797.059 8  20379815.656
  20379824.164    20379822.570          44.500          49.800          52.800
 115906570.070 6  90149577.227 6                  21743781.359    21743780.996
  21743786.586                          39.700          40.700
 114174488.798 7  88967138.20945                  21726675.305
  21726678.734                          42.700          33.200
 117485486.365 5  91377532.273 5                  21993512.492    21993510.395
  21993514.102                          31.700          34.800
 104938279.807 7  81618571.731 7                  19637741.992    19637741.277
  19637745.566                          45.600          46.000
 127155807.398 7                  94954030.467 8  24196946.234
                  24196951.836          44.600                          48.000
 124895083.474 7                  93265823.421 8  23766744.406
                  23766749.141          45.700                          50.100
 144127020.551 5                 107627335.039 6  27426463.516
                  27426470.063          35.300                          39.900
 124760741.880 5                  93165505.857 6  23741179.430
                  23741184.332          35.300                          41.200
 121887950.762 7                  91020251.924 8  23194502.953
                  23194507.895          44.700                          48.400
 20  8 16  0  1 30.0000000  0 22R01G17G07G08G03R18R24R17G28G11R02G30
                                G01R14G22R16R15E36E02E25E14E30
 122417374.786 5  95213659.862 4                  22900731.531    22900729.270
  22900736.426                          30.500          28.200
 121926606.939 5  95007650.27845                  23201829.375
  23201836.195                          34.800          34.200
 124723129.937 5  97186912.62944                  23734035.133
  23734042.277                          33.700          29.200
 123912565.703 6  96555259.76043  92532115.591 7  23579775.703
  23579784.301    23579784.652          36.000          20.900          43.700
 115822958.867 6  90251758.79846  86491270.667 8  22040389.266
  22040397.234    22040398.066          40.100          41.500          48.600
 113822728.326 6  88528708.000 6                  21322807.258    21322805.957
  21322811.098                          39.300          41.200
 120038696.043 6  93363446.119 6                  22447845.195    22447844.715
  22447850.172                          36.100          38.100
 106461799.760 7  82803513.369 7                  19894903.023    19894901.719
  19894906.652                          44.300          44.800
 112537397.168 7  87691488.02445                  21415147.625
  21415152.609                          42.200          33.400
 113729588.847 6  88620462.31244                  21642018.453
  21642023.609                          40.000          27.400
 123006238.888 5  95671542.705 5                  23051314.477    23051313.691
  23051318.738                          33.300          32.800
 119891769.225 6  93422198.08745  89529604.914 7  22814648.984
  22814657.289    22814658.277          37.100          34.800          46.000
 107098221.273 7  83453232.58348  79976006.878 8  20380123.734
  20380132.445    20380130.902          44.600          49.800          52.400
 115910677.707 6  90152772.060 6                  21744551.695    21744551.516
  21744557.277                          39.400          40.400
 114173721.991 7  88966540.69845                  21726529.281
  21726532.746                          42.600          33.500
 117482459.053 5  91375177.709 5                  21992944.625    21992943.434
  21992947.379                          30.600          34.000
 104939140.807 7  81619241.386 7                  19637902.414    19637902.664
  19637906.660                          45.400          45.700
 127157411.669 7                  94955228.455 8  24197251.469
                  24197257.250          44.700                          48.000
 124896653.987 7                  93266996.207 8  23767043.516
                  23767048.043          45.900                          50.100
 144130081.423 5                 107629620.804 6  27427045.781
                  27427052.410          34.900                          39.900
 124754660.531 5                  93160964.537 6  23740021.906
                  23740027.141          35.300                          41.000
 121886733.703 7                  91019343.072 8  23194271.547
                  23194276.277          45.200                          48.700
 20  8 16  0  1 31.0000000  0 22R01G17G07G08G03R18R24R17G28G11R02G30
                                G01R14G22R16R15E36E02E25E14E30
 122417261.413 5  95213571.643 4                  22900709.930    22900708.320
  22900715.184                          31.100          28.000
 121924594.604 6  95006082.23045                  23201446.531
  23201453.324                          36.000          34.000
 124726284.647 5  97189370.84745                  23734636.039
  23734642.664                          33.700          30.200
 123914902.285 6  96557080.48043  92533860.425 7  23580220.781
  23580228.980    23580229.176          36.100          19.600          43.600
 115820439.997 6  90249796.04146  86489389.692 8  22039909.625
  22039917.895    22039918.578          40.700          41.400          48.900
 113821001.468 6  88527364.911 6                  21322483.102    21322482.574
  21322487.527                          38.800          41.300
 120041536.747 6  93365655.502 6                  22448378.031    22448376.410
  22448381.355                          36.100          38.100
 106462601.408 7  82804136.871 7                  19895052.836    19895051.781
  19895056.375                          44.400          44.700
 112535407.274 7  87689937.45545                  21414769.914
  21414773.910                          42.300          33.100
 113731941.079 6  88622295.23144                  21642466.680
  21642471.305                          39.900          28.300
 123002931.263 5  95668970.123 5                  23050696.281    23050693.531
  23050698.953                          33.200          32.200
 119894025.043 6  93423955.87045  89531289.448 7  22815078.266
  22815086.512    22815087.480          36.500          34.900          46.300
 107099841.823 7  83454495.34848  79977217.044 8  20380431.695
  20380440.754    20380439.297          44.300          49.500          52.500
 115914785.671 6  90155967.148 6                  21745322.375    21745321.914
  21745327.934                          38.900          40.800
 114172955.718 7  88965943.59745                  21726383.063
  21726386.828                          43.000          33.900
 117479432.336 5  91372823.598 5                  21992377.852    21992377.176
  21992380.656                          31.500          34.400
 104940002.723 7  81619911.767 7                  19638063.680    19638063.660
  19638067.957                          45.800          45.600
 127159016.038 7                  94956426.521 8  24197556.742
                  24197562.484          44.700                          48.000
 124898224.870 7                  93268169.273 8  23767342.313
                  23767346.977          46.300                          50.000
 144133142.393 5                 107631906.550 6  27427628.375
                  27427635.027          35.300                          39.700
 124748579.095 5                  93156423.236 6  23738864.602
                  23738869.828          35.900                          40.700
 121885517.002 7                  91018434.498 8  23194039.961
                  23194044.727          45.400                          48.600
 20  8 16  0  1 32.0000000  0 22R01G17G07G08G03R18R24R17G28G11R02G30
                                G01R14G22R16R15E36E02E25E14E30
 122417148.821 5  95213484.081 4                  22900689.680    22900687.934
  22900694.113                          30.600          28.800
 121922582.305 6  95004514.21345                  23201063.305
  23201070.434                          36.000          34.200
 124729439.490 5  97191829.15844                  23735236.336
  23735243.047                          33.800          29.100
 123917238.926 5  96558901.24143  92535605.353 7  23580666.383
  23580673.582    23580673.785          35.900          19.300          43.600
 115817921.566 6  90247833.62946  86487509.057 8  22039430.492
  22039438.855    22039439.344          40.600          41.800          49.300
 113819275.005 6  88526022.063 6                  21322159.672    21322158.938
  21322164.164                          39.200          41.500
 120044377.434 6  93367864.912 6                  22448907.938    22448907.254
  22448912.449                          36.000          38.800
 106463403.369 7  82804760.619 7                  19895203.000    19895201.676
  19895206.363                          44.000          44.600
 112533417.757 7  87688387.18845                  21414390.617
  21414395.410                          42.000          32.900
 113734293.568 6  88624128.33944                  21642913.844
  21642918.953                          40.100          27.100
 122999623.978 5  95666397.784 5                  23050075.047    23050073.762
  23050079.184                          33.500          32.600
 119896281.244 6  93425713.94545  89532974.268 7  22815508.406
  22815515.816    22815516.777          36.400          34.900          46.100
 107101462.874 7  83455758.50848  79978427.568 8  20380740.633
  20380749.316    20380747.766          44.500          49.700          52.600
 115918893.999 6  90159162.509 6                  21746092.773    21746092.430
  21746098.656                          38.800          40.600
 114172190.084 7  88965347.00145                  21726237.781
  21726241.129                          42.700          33.800
 117476406.217 5  91370469.977 5                  21991810.930    21991810.273
  21991814.098                          31.200          34.500
 104940865.573 7  81620582.875 7                  19638225.688    19638225.031
  19638229.461                          45.100          45.900
 127160620.536 7                  94957624.702 8  24197861.977
                  24197867.773          44.700                          48.000
 124899796.206 7                  93269342.663 8  23767641.273
                  23767646.023          46.300                          50.300
 144136203.493 5                 107634192.431 6  27428210.977
                  27428217.668          35.600                          39.700
 124742497.737 5                  93151881.959 6  23737707.359
                  23737712.414          35.700                          40.900
 121884300.728 7                  91017526.248 8  23193808.492
                  23193813.371          45.000                          48.400
