     2.11           OBSERVATION DATA    M (MIXED)           RINEX VERSION / TYPE
teqc  2016Nov7      KASI/KOREA          20200706 00:17:51UTCPGM / RUN BY / DATE
Linux 2.4.20-8|Pentium IV|gcc|Linux|486/DX+                 COMMENT
  0.0000      (antenna height)                              COMMENT
 +36.39942714 (latitude)                                    COMMENT
+127.37448264 (longitude)                                   COMMENT
0116.859      (elevation)                                   COMMENT
BIT 2 OF LLI FLAGS DATA COLLECTED UNDER A/S CONDITION       COMMENT
23902M002 (COGO code)                                       COMMENT
DAEJ                                                        MARKER NAME
23902M002                                                   MARKER NUMBER
KASI GPS            KASI/KOREA                              OBSERVER / AGENCY
5412K48145          TRIMBLE NETR9       5.44                REC # / TYPE / VERS
4923363230          TRM59800.00     SCIS                    ANT # / TYPE
 -3120042.2018  4084615.1423  3764027.3215                  APPROX POSITION XYZ
        0.0000        0.0000        0.0000                  ANTENNA: DELTA H/E/N
     1     1                                                WAVELENGTH FACT L1/2
    10    L1    L2    L5    C1    P1    P2    C5    S1    S2# / TYPES OF OBSERV
          S5                                                # / TYPES OF OBSERV
    18                                                      LEAP SECONDS
 SNR is mapped to RINEX snr flag value [0-9]                COMMENT
  L1 & L2: min(max(int(snr_dBHz/6), 0), 9)                  COMMENT
  2020     7     6     0     0    0.0000000     GPS         TIME OF FIRST OBS
                                                            END OF HEADER
 20  7  6  0  0  0.0000000  0 19G08G27R11R24G30G09R23R13G07R12G11G01
                                G21G16E27E14E13E30E15
 107023067.500 7  83394646.38948  79919864.705 8  20365816.781
  20365824.203    20365823.516          45.600          50.700          52.800
 113233201.721 6  88233702.37047  84557293.728 8  21547563.852
  21547571.141    21547570.543          41.700          44.800          49.300
 122816309.995 6  95523798.299 5                  22983399.383    22983398.594
  22983402.520                          36.000          35.600
 121504700.269 6  94503676.717 6                  22721990.016    22721990.059
  22721994.797                          36.700          36.200
 125767843.387 5  98000936.54944  93917559.647 7  23932817.117
  23932826.164    23932825.879          33.700          28.600          42.400
 128930447.426 5 100465287.43844  96279238.038 6  24534649.047
  24534659.211    24534659.953          32.600          26.400          40.900
 105678276.552 7  82194251.534 6                  19755436.867    19755436.305
  19755444.227                          45.400          40.000
 107949278.636 5  83960577.752 6                  20215437.078    20215434.184
  20215439.773                          32.600          40.200
 114153784.984 6  88950966.77347                  21722727.688
  21722733.195                          41.400          43.300
 104607068.450 7  81361100.841 7                  19582667.531    19582666.563
  19582671.266                          46.100          46.600
 109491946.807 7  85318371.10846                  20835608.883
  20835613.965                          44.100          36.200
 120469521.643 5  93872427.28645  89961075.638 7  22924595.617
  22924605.789    22924604.020          35.800          34.900          45.100
 127298705.682 5  99193824.97242                  24224139.602
  24224145.004                          33.500          16.900
 117815201.510 6  91804097.38044                  22419493.484
  22419498.758                          39.600          27.000
 123600293.157 7                  92298942.080 8  23520351.125
                  23520356.293          47.200                          50.600
 129997380.343 6                  97075993.565 7  24737678.617
                  24737683.453          38.500                          42.600
 134211754.702 6                 100223086.753 7  25539646.852
                  25539652.406          40.400                          44.500
 123429539.487 7                  92171426.071 8  23487861.328
                  23487867.012          44.800                          48.300
 121508408.339 7                  90736825.873 8  23122279.281
                  23122285.707          46.500                          51.100
 20  7  6  0  0  1.0000000  0 19G08G27R11R24G30G09R23R13G07R12G11G01
                                G21G16E27E14E13E30E15
 107023629.929 7  83395084.65148  79920284.712 8  20365923.875
  20365931.285    20365930.574          46.000          50.800          52.700
 113235545.530 7  88235528.71147  84559043.968 8  21548009.258
  21548017.207    21548016.594          42.000          44.600          49.400
 122819909.708 5  95526598.087 5                  22984073.016    22984072.164
  22984076.316                          35.600          35.300
 121500827.205 6  94500664.340 6                  22721266.617    22721265.852
  22721270.523                          36.800          36.700
 125764688.567 5  97998478.25544  93915203.821 7  23932217.766
  23932225.570    23932225.918          33.100          28.000          42.700
 128932876.317 5 100467180.07044  96281051.840 6  24535111.828
  24535121.145    24535122.078          33.000          27.200          40.800
 105676246.897 7  82192672.920 6                  19755057.742    19755056.910
  19755064.734                          45.100          40.000
 107946676.451 5  83958553.843 6                  20214948.727    20214946.184
  20214952.348                          33.000          40.200
 114151842.364 6  88949453.04147                  21722358.516
  21722363.383                          41.200          43.500
 104608219.387 7  81361996.006 7                  19582882.836    19582881.977
  19582886.832                          45.400          46.900
 109489873.704 7  85316755.70746                  20835214.219
  20835219.293                          43.800          36.000
 120465725.259 5  93869469.07545  89958240.668 7  22923873.156
  22923883.277    22923881.656          35.500          35.000          45.400
 127301554.797 5  99196045.04742                  24224681.813
  24224686.926                          33.900          17.400
 117817326.116 6  91805752.91644                  22419897.555
  22419902.926                          39.000          26.400
 123599358.250 7                  92298243.924 8  23520173.516
                  23520178.402          46.800                          50.600
 129991604.874 6                  97071680.718 7  24736579.797
                  24736584.582          38.400                          43.000
 134209024.182 6                 100221047.720 7  25539127.297
                  25539132.711          40.700                          44.300
 123430938.058 7                  92172470.460 8  23488127.422
                  23488133.246          44.800                          48.200
 121507961.664 7                  90736492.310 8  23122194.359
                  23122200.805          47.000                          51.300
 20  7  6  0  0  2.0000000  0 19G08G27R11R24G30G09R23R13G07R12G11G01
                                G21G16E27E14E13E30E15
 107024192.760 7  83395523.21448  79920704.997 8  20366030.836
  20366038.418    20366037.676          46.300          50.900          53.200
 113237889.534 7  88237355.20647  84560794.353 8  21548455.719
  21548463.164    21548462.531          42.300          44.700          49.300
 122823509.824 6  95529398.147 5                  22984745.789    22984745.902
  22984749.969                          36.200          35.300
 121496954.503 6  94497652.226 6                  22720542.289    22720541.309
  22720546.281                          36.800          36.100
 125761534.050 5  97996020.19344  93912848.150 7  23931617.648
  23931625.227    23931625.414          33.200          27.800          42.500
 128935305.374 5 100469072.85744  96282865.723 6  24535574.313
  24535583.516    24535584.391          33.200          26.800          40.900
 105674217.990 7  82191094.868 6                  19754678.734    19754677.539
  19754685.492                          45.300          40.100
 107944074.747 5  83956530.269 6                  20214462.336    20214459.043
  20214465.172                          33.200          40.900
 114149900.254 6  88947939.70647                  21721988.539
  21721993.777                          41.600          43.600
 104609370.982 7  81362891.701 7                  19583098.195    19583097.629
  19583102.340                          45.500          47.100
 109487801.086 7  85315140.68046                  20834820.000
  20834825.008                          44.100          36.000
 120461929.063 5  93866511.00145  89955405.876 7  22923151.180
  22923161.012    22923159.426          35.400          35.100          45.300
 127304404.162 5  99198265.33242                  24225224.930
  24225229.262                          33.700          16.900
 117819450.953 6  91807408.62344                  22420301.531
  22420307.395                          39.400          26.700
 123598423.552 7                  92297545.944 8  23519995.430
                  23520000.434          47.000                          50.900
 129985829.338 6                  97067367.828 7  24735480.656
                  24735485.586          38.800                          43.000
 134206293.872 6                 100219008.850 7  25538607.945
                  25538613.297          40.900                          44.500
 123432336.899 7                  92173515.048 8  23488393.578
                  23488399.352          44.600                          48.100
 121507515.440 7                  90736159.094 8  23122109.578
                  23122115.762          46.700                          51.200
 20  7  6  0  0  3.0000000  0 19G08G27R11R24G30G09R23R13G07R12G11G01
                                G21G16E27E14E13E30E15
 107024755.983 7  83395962.09048  79921125.580 8  20366138.008
  20366145.422    20366144.898          46.400          50.900          52.900
 113240233.749 7  88239181.86347  84562544.907 8  21548902.086
  21548909.402    21548908.707          42.400          44.600          49.300
 122827110.223 6  95532198.462 5                  22985419.625    22985419.832
  22985423.711                          36.500          35.300
 121493082.041 6  94494640.346 5                  22719817.344    22719817.176
  22719821.984                          36.800          35.600
 125758379.796 5  97993562.33044  93910492.705 7  23931017.383
  23931024.887    23931025.223          33.500          27.900          42.600
 128937734.547 5 100470965.72144  96284679.734 6  24536036.945
  24536045.785    24536046.742          33.100          27.400          41.000
 105672189.784 7  82189517.388 6                  19754299.430    19754298.621
  19754306.344                          45.300          40.000
 107941473.444 5  83954507.056 6                  20213973.727    20213971.805
  20213978.125                          32.200          40.500
 114147958.702 6  88946426.81247                  21721619.406
  21721624.367                          41.700          43.400
 104610523.237 7  81363787.889 7                  19583313.516    19583313.395
  19583317.992                          45.300          46.600
 109485728.963 7  85313526.04146                  20834425.719
  20834430.672                          43.800          36.200
 120458133.200 6  93863553.18145  89952571.252 7  22922428.586
  22922438.543    22922436.992          36.100          34.900          45.500
 127307253.832 5  99200485.89442                  24225766.414
  24225771.543                          33.700          17.400
 117821575.969 6  91809064.48844                  22420706.586
  22420711.746                          39.500          26.400
 123597489.070 7                  92296848.111 8  23519817.781
                  23519822.563          47.100                          50.900
 129980053.802 6                  97063054.937 7  24734381.391
                  24734386.324          38.800                          42.900
 134203563.810 6                 100216970.178 7  25538088.414
                  25538093.641          40.900                          44.400
 123433735.967 7                  92174559.810 8  23488659.813
                  23488665.641          44.800                          48.100
 121507069.690 7                  90735826.232 8  23122024.633
                  23122030.953          46.400                          50.900
 20  7  6  0  0  4.0000000  0 19G08G27R11R24G30G09R23R13G07R12G11G01
                                G21G16E27E14E13E30E15
 107025319.517 7  83396401.20748  79921546.405 8  20366245.078
  20366252.766    20366252.102          46.300          50.800          53.000
 113242578.142 7  88241008.66647  84564295.595 8  21549347.703
  21549355.379    21549354.832          42.000          44.700          49.400
 122830710.869 6  95534998.977 5                  22986093.258    22986093.586
  22986097.539                          36.000          35.300
 121489209.985 6  94491628.723 6                  22719092.719    22719093.531
  22719097.910                          37.100          36.400
 125755225.799 5  97991104.67144  93908137.450 7  23930416.758
  23930424.879    23930425.047          32.900          28.300          42.500
 128940163.874 5 100472858.68844  96286493.822 6  24536498.633
  24536508.105    24536508.953          33.100          25.700          40.900
 105670162.254 7  82187940.417 6                  19753920.523    19753919.711
  19753927.301                          45.200          40.400
 107938872.550 5  83952484.152 6                  20213486.109    20213484.426
  20213491.059                          32.800          40.900
 114146017.601 6  88944914.26247                  21721249.461
  21721255.074                          41.600          43.400
 104611676.071 7  81364684.542 7                  19583529.820    19583529.293
  19583533.859                          45.600          46.600
 109483657.308 7  85311911.76446                  20834031.547
  20834036.605                          43.700          36.100
 120454337.409 6  93860595.42745  89949736.759 7  22921706.891
  22921716.242    22921714.734          36.300          34.800          45.600
 127310103.682 5  99202706.55342                  24226308.336
  24226313.852                          33.300          17.400
 117823701.219 6  91810720.52444                  22421110.680
  22421116.215                          39.400          25.900
 123596554.779 7                  92296150.426 8  23519639.945
                  23519644.883          47.400                          51.200
 129974278.177 6                  97058741.965 7  24733282.469
                  24733287.441          38.300                          42.800
 134200833.971 6                 100214931.634 7  25537568.953
                  25537574.434          40.900                          44.400
 123435135.271 7                  92175604.747 8  23488926.242
                  23488931.855          44.400                          48.300
 121506624.363 7                  90735493.681 8  23121939.930
                  23121946.207          46.500                          50.900
 20  7  6  0  0  5.0000000  0 19G08G27R11R24G30G09R23R13G07R12G11G01
                                G21G16E27E14E13E30E15
 107025883.455 7  83396840.63948  79921967.522 8  20366352.836
  20366360.113    20366359.477          46.000          50.800          52.900
 113244922.781 7  88242835.66247  84566046.453 8  21549794.234
  21549801.586    21549800.965          42.000          44.700          49.300
 122834311.856 6  95537799.769 5                  22986768.078    22986767.832
  22986771.340                          36.000          35.100
 121485338.233 6  94488617.365 5                  22718369.172    22718369.449
  22718373.953                          36.700          35.800
 125752072.087 5  97988647.23744  93905782.395 7  23929816.313
  23929824.809    23929825.211          33.500          28.500          42.400
 128942593.323 5 100474751.76444  96288308.036 6  24536961.500
  24536970.375    24536971.090          33.500          26.300          41.000
 105668135.464 7  82186364.016 6                  19753541.680    19753540.688
  19753548.547                          45.700          40.500
 107936272.097 5  83950461.579 6                  20212998.211    20212998.168
  20213004.004                          32.400          40.400
 114144077.063 6  88943402.16347                  21720880.047
  21720885.898                          41.600          43.200
 104612829.615 7  81365581.749 7                  19583746.313    19583745.258
  19583749.820                          45.700          46.100
 109481586.175 7  85310297.89645                  20833637.305
  20833642.344                          42.900          35.900
 120450541.895 5  93857637.87545  89946902.439 7  22920984.242
  22920993.820    22920992.594          35.900          35.000          45.700
 127312953.851 5  99204927.44543                  24226851.141
  24226856.316                          33.300          18.300
 117825826.621 6  91812376.67744                  22421514.820
  22421520.664                          39.400          25.600
 123595620.727 7                  92295452.912 8  23519462.250
                  23519467.203          47.100                          50.700
 129968502.527 6                  97054428.964 7  24732183.164
                  24732188.375          38.300                          42.800
 134198104.339 6                 100212893.297 7  25537049.320
                  25537054.859          40.900                          44.700
 123436534.831 7                  92176649.873 8  23489192.375
                  23489198.152          44.700                          48.300
 121506179.504 7                  90735161.490 8  23121855.352
                  23121861.547          45.900                          51.300
 20  7  6  0  0  6.0000000  0 19G08G27R11R24G30G09R23R13G07R12G11G01
                                G21G16E27E14E13E30E15
 107026447.759 7  83397280.35948  79922388.927 8  20366459.828
  20366467.430    20366466.891          45.800          50.800          52.600
 113247267.603 7  88244662.79247  84567797.465 8  21550240.586
  21550247.793    21550247.281          42.400          44.600          49.300
 122837913.223 6  95540600.812 5                  22987442.266    22987441.559
  22987445.441                          36.200          34.900
 121481466.802 6  94485606.261 6                  22717644.969    22717645.520
  22717650.027                          36.500          36.000
 125748918.621 5  97986189.98444  93903427.564 7  23929217.039
  23929224.750    23929224.809          33.600          27.700          42.400
 128945022.985 5 100476645.01344  96290122.369 6  24537423.938
  24537432.691    24537433.547          33.100          27.200          41.100
 105666109.369 7  82184788.164 6                  19753162.469    19753162.172
  19753169.609                          45.400          40.500
 107933672.063 5  83948439.317 6                  20212512.727    20212511.188
  20212517.074                          32.700          40.200
 114142137.067 6  88941890.47747                  21720511.211
  21720516.648                          41.800          43.300
 104613983.867 7  81366479.482 7                  19583961.813    19583961.316
  19583965.832                          45.700          46.400
 109479515.537 7  85308684.41646                  20833243.445
  20833248.430                          43.000          36.100
 120446746.571 6  93854680.48445  89944068.276 7  22920261.641
  22920271.719    22920270.207          36.000          35.400          45.500
 127315804.297 5  99207148.60443                  24227393.203
  24227398.625                          33.600          18.600
 117827952.259 6  91814033.01344                  22421919.875
  22421925.160                          39.200          27.500
 123594686.860 7                  92294755.555 8  23519284.500
                  23519289.367          46.900                          50.900
 129962726.830 6                  97050115.942 7  24731084.242
                  24731089.500          38.500                          43.000
 134195374.965 6                 100210855.123 7  25536530.328
                  25536535.434          40.900                          44.800
 123437934.658 7                  92177695.207 8  23489458.789
                  23489464.441          44.300                          48.300
 121505735.111 7                  90734829.635 8  23121770.930
                  23121777.000          46.000                          51.400
 20  7  6  0  0  7.0000000  0 19G08G27R11R24G30G09R23R13G07R12G11G01
                                G21G16E27E14E13E30E15
 107027012.439 7  83397720.36648  79922810.605 8  20366567.188
  20366574.984    20366574.293          45.800          50.800          52.700
 113249612.642 6  88246490.10347  84569548.624 8  21550686.703
  21550694.109    21550693.480          41.600          44.600          49.600
 122841514.875 5  95543402.098 5                  22988114.898    22988115.422
  22988119.469                          35.900          35.200
 121477595.705 6  94482595.407 6                  22716921.016    22716921.469
  22716926.223                          37.100          36.100
 125745765.503 5  97983733.00544  93901072.954 7  23928616.922
  23928624.797    23928625.051          33.600          28.600          42.700
 128947452.731 5 100478538.30444  96291936.798 6  24537886.563
  24537894.914    24537895.871          33.300          27.400          41.000
 105664083.995 7  82183212.883 6                  19752783.977    19752783.180
  19752790.867                          45.800          40.300
 107931072.525 5  83946417.416 6                  20212026.617    20212024.137
  20212030.145                          32.400          40.300
 114140197.568 6  88940379.17047                  21720142.094
  21720147.414                          41.600          43.700
 104615138.795 7  81367377.769 7                  19584178.695    19584177.297
  19584182.082                          45.600          46.400
 109477445.386 7  85307071.30446                  20832849.227
  20832854.352                          43.000          36.000
 120442951.504 6  93851723.29445  89941234.288 7  22919540.109
  22919549.656    22919547.957          36.200          35.400          45.600
 127318654.951 5  99209369.85143                  24227936.328
  24227941.090                          34.200          18.600
 117830078.099 6  91815689.52744                  22422324.078
  22422329.648                          39.100          26.400
 123593753.225 7                  92294058.361 8  23519107.039
                  23519111.746          46.800                          51.100
 129956951.055 6                  97045802.877 7  24729985.305
                  24729990.176          38.100                          43.000
 134192645.823 6                 100208817.120 7  25536010.852
                  25536016.047          41.200                          44.700
 123439334.732 7                  92178740.706 8  23489725.156
                  23489731.000          44.400                          48.300
 121505291.174 7                  90734498.129 8  23121686.602
                  23121692.527          46.600                          51.200
 20  7  6  0  0  8.0000000  0 19G08G27R11R24G30G09R23R13G07R12G11G01
                                G21G16E27E14E13E30E15
 107027577.450 7  83398160.63448  79923232.514 8  20366675.133
  20366682.477    20366681.813          45.900          50.800          52.500
 113251957.828 6  88248317.52047  84571299.902 8  21551132.813
  21551140.391    21551139.664          41.000          44.500          49.500
 122845116.810 6  95546203.569 5                  22988789.820    22988789.465
  22988793.539                          36.000          35.500
 121473724.889 6  94479584.742 5                  22716198.219    22716197.602
  22716202.289                          37.000          35.800
 125742612.539 5  97981276.14944  93898718.467 7  23928016.391
  23928024.797    23928025.172          33.300          28.300          43.000
 128949882.563 5 100480431.68744  96293751.282 6  24538348.320
  24538357.242    24538358.426          33.000          27.100          41.000
 105662059.296 7  82181638.104 6                  19752405.906    19752404.961
  19752412.473                          46.300          40.100
 107928473.254 5  83944395.804 6                  20211539.031    20211537.730
  20211543.316                          32.700          40.400
 114138258.548 6  88938868.24847                  21719773.367
  21719778.531                          40.900          43.400
 104616294.312 7  81368276.504 7                  19584394.875    19584393.750
  19584398.313                          45.700          46.400
 109475375.691 7  85305458.56346                  20832455.828
  20832460.551                          43.400          36.200
 120439156.615 5  93848766.22645  89938400.408 7  22918818.258
  22918827.539    22918825.777          35.600          34.900          45.600
 127321505.854 5  99211591.33343                  24228478.258
  24228483.676                          33.400          18.300
 117832204.135 6  91817346.16644                  22422728.211
  22422734.207                          38.900          25.500
 123592819.738 7                  92293361.277 8  23518929.273
                  23518934.188          46.800                          50.900
 129951175.204 6                  97041489.725 7  24728886.031
                  24728891.320          38.800                          43.300
 134189916.834 6                 100206779.259 7  25535491.531
                  25535496.957          40.900                          44.700
 123440734.990 7                  92179786.352 8  23489991.477
                  23489997.578          44.100                          48.200
 121504847.654 7                  90734166.915 8  23121602.008
                  23121608.113          46.300                          51.500
 20  7  6  0  0  9.0000000  0 19G08G27R11R24G30G09R23R13G07R12G11G01
                                G21G16E27E14E13E30E15
 107028142.884 7  83398601.23348  79923654.773 8  20366782.570
  20366790.031    20366789.480          46.000          50.800          52.700
 113254303.308 6  88250145.15647  84573051.396 8  21551579.313
  21551586.629    21551586.125          41.600          44.600          49.600
 122848719.059 6  95549005.329 5                  22989464.516    22989463.898
  22989467.789                          36.300          35.600
 121469854.444 6  94476574.398 5                  22715474.063    22715473.715
  22715478.359                          37.200          35.700
 125739460.021 5  97978819.65444  93896364.283 7  23927416.352
  23927424.766    23927424.895          33.100          28.100          43.100
 128952312.676 5 100482325.26944  96295565.980 6  24538810.242
  24538819.547    24538820.695          32.500          27.200          40.900
 105660035.354 7  82180063.944 6                  19752026.773    19752026.258
  19752034.176                          46.400          40.200
 107925874.519 5  83942374.569 6                  20211053.719    20211050.930
  20211056.703                          32.600          40.800
 114136320.132 6  88937357.79147                  21719404.133
  21719409.609                          40.700          43.300
 104617450.573 7  81369175.817 7                  19584611.000    19584610.063
  19584614.813                          45.600          46.100
 109473306.534 7  85303846.22846                  20832062.305
  20832066.676                          43.300          36.200
 120435361.937 6  93845809.34245  89935566.764 7  22918095.523
  22918105.477    22918103.719          36.000          34.800          45.400
 127324357.071 5  99213813.06543                  24229020.750
  24229026.441                          33.700          18.300
 117834330.426 6  91819003.01844                  22423133.742
  22423138.770                          38.900          26.500
 123591886.538 7                  92292664.407 8  23518751.695
                  23518756.480          47.100                          50.800
 129945399.356 6                  97037176.619 7  24727787.016
                  24727791.969          38.900                          43.100
 134187188.191 6                 100204741.607 7  25534972.383
                  25534977.695          40.700                          44.800
 123442135.577 7                  92180832.263 8  23490258.484
                  23490264.113          44.700                          48.100
 121504404.650 7                  90733836.106 8  23121517.398
                  23121523.836          46.600                          51.400
 20  7  6  0  0 10.0000000  0 19G08G27R11R24G30G09R23R13G07R12G11G01
                                G21G16E27E14E13E30E15
 107028708.659 7  83399042.09748  79924077.254 8  20366889.859
  20366897.758    20366897.074          44.800          50.300          52.500
 113256648.946 6  88251972.93047  84574803.000 8  21552025.609
  21552032.988    21552032.426          41.100          44.100          49.900
 122852321.616 5  95551807.340 5                  22990139.141    22990138.691
  22990142.082                          35.500          35.000
 121465984.306 6  94473564.290 5                  22714750.406    22714750.227
  22714754.785                          36.800          35.700
 125736308.11515  97976363.73954  93894010.259 7  23926816.742
  23926825.035    23926825.199          32.500          27.200          43.000
 128954742.822 5 100484218.88544  96297380.722 6  24539272.547
  24539281.969    24539282.859          31.300          26.200          40.700
 105658012.085 7  82178490.293 6                  19751648.570    19751648.348
  19751656.008                          46.600          40.200
 107923276.191 5  83940353.638 6                  20210564.836    20210564.129
  20210570.117                          32.800          40.700
 114134382.209 6  88935847.72547                  21719034.930
  21719040.895                          40.800          42.800
 104618607.458 7  81370075.618 7                  19584827.438    19584826.828
  19584831.547                          45.300          46.600
 109471237.871 7  85302234.28545                  20831668.188
  20831673.066                          42.900          35.800
 120431567.486 5  93842852.62845  89932733.237 7  22917373.359
  22917383.336    22917381.574          35.200          34.000          45.500
 127327208.531 5  99216034.99842                  24229563.258
  24229569.215                          32.500          17.800
 117836456.888 6  91820659.99544                  22423537.828
  22423543.547                          38.000          25.900
 123590953.513 7                  92291967.667 8  23518573.938
                  23518579.004          47.300                          50.700
 129939623.449 6                  97032863.432 7  24726687.711
                  24726692.824          38.700                          42.600
 134184459.702 6                 100202704.107 7  25534453.008
                  25534458.352          40.200                          44.800
 123443536.377 7                  92181878.292 7  23490524.883
                  23490530.520          44.600                          47.800
 121503962.073 7                  90733505.608 8  23121433.219
                  23121439.566          46.300                          51.500
 20  7  6  0  0 11.0000000  0 19G08G27R11R24G30G09R23R13G07R12G11G01
                                G21G16E27E14E13E30E15
 107029274.803 7  83399483.25048  79924500.034 8  20366997.250
  20367005.656    20367004.801          43.500          50.000          52.400
 113258994.805 6  88253800.87147  84576554.776 8  21552471.836
  21552479.289    21552478.777          40.400          43.800          49.500
 122855924.502 5  95554609.576 5                  22990812.430    22990812.473
  22990816.316                          35.600          35.400
 121462114.432 6  94470554.432 6                  22714025.805    22714026.551
  22714031.035                          36.400          36.100
 125733156.06515  97973907.59254  93891656.445 7  23926218.133
  23926225.273    23926225.563          31.200          26.300          42.500
 128957173.153 5 100486112.64544  96299195.543 6  24539735.844
  24539744.398    24539745.563          30.800          26.000          41.300
 105655989.535 7  82176917.198 6                  19751271.438    19751270.090
  19751277.824                          45.900          40.300
 107920678.224 5  83938333.058 6                  20210080.289    20210077.313
  20210083.684                          32.200          41.000
 114132444.778 6  88934338.03947                  21718666.680
  21718672.164                          40.200          42.700
 104619765.011 7  81370975.938 7                  19585044.250    19585043.543
  19585048.152                          44.900          46.700
 109469169.667 7  85300622.69845                  20831274.547
  20831279.441                          42.300          35.500
 120427773.229 5  93839896.07045  89929899.886 7  22916651.836
  22916661.246    22916659.520          34.000          33.700          45.400
 127330060.243 5  99218257.12542                  24230106.648
  24230111.871                          31.600          16.900
 117838583.486 6  91822317.08344                  22423943.047
  22423948.133                          37.900          25.800
 123590020.688 7                  92291271.089 8  23518396.656
                  23518401.559          46.700                          50.800
 129933847.486 6                  97028550.198 7  24725588.523
                  24725593.770          38.300                          42.700
 134181731.466 6                 100200666.796 7  25533933.789
                  25533939.336          39.800                          44.800
 123444937.426 7                  92182924.523 7  23490791.445
                  23490797.180          44.500                          47.900
 121503519.949 7                  90733175.451 8  23121349.070
                  23121355.379          46.000                          51.300
 20  7  6  0  0 12.0000000  0 19G08G27R11R24G30G09R23R13G07R12G11G01
                                G21G16E27E14E13E30E15
 107029841.350 7  83399924.71348  79924923.085 8  20367105.633
  20367113.363    20367112.664          43.200          49.800          52.400
 113261340.864 6  88255628.96247  84578306.705 8  21552918.305
  21552925.754    21552925.191          39.700          43.600          49.200
 122859527.681 5  95557412.069 5                  22991486.406    22991486.871
  22991490.594                          35.700          35.600
 121458244.958 6  94467544.815 6                  22713303.133    22713302.805
  22713307.398                          36.600          36.200
 125730004.30215  97971451.67954  93889302.832 7  23925618.227
  23925625.664    23925625.797          30.800          27.400          42.700
 128959604.05515 100488006.95254  96301010.529 6  24540198.805
  24540206.973    24540208.133          30.500          26.500          41.400
 105653967.710 7  82175344.676 6                  19750892.844    19750892.371
  19750899.813                          45.100          40.600
 107918080.825 5  83936312.800 6                  20209593.961    20209591.039
  20209597.285                          32.000          40.900
 114130507.931 6  88932828.80647                  21718298.477
  21718303.508                          40.100          42.400
 104620923.212 7  81371876.768 7                  19585260.289    19585260.309
  19585264.918                          45.000          46.800
 109467101.986 7  85299011.51045                  20830881.086
  20830886.164                          42.100          35.300
 120423979.210 5  93836939.69345  89927066.683 7  22915929.055
  22915939.301    22915937.586          33.600          33.300          45.500
 127332912.69115  99220479.88152                  24230649.430
  24230654.563                          32.400          17.800
 117840710.366 6  91823974.39144                  22424347.727
  22424352.781                          37.500          24.700
 123589088.101 7                  92290574.664 8  23518219.094
                  23518224.129          45.900                          51.000
 129928071.481 6                  97024236.951 7  24724489.727
                  24724494.727          38.400                          42.800
 134179003.475 6                 100198629.646 7  25533414.344
                  25533420.211          40.200                          44.900
 123446338.736 7                  92183970.961 8  23491058.305
                  23491063.813          44.000                          48.000
 121503078.271 7                  90732845.635 8  23121265.008
                  23121271.480          45.500                          51.000
 20  7  6  0  0 13.0000000  0 19G08G27R11R24G30G09R23R13G07R12G11G01
                                G21G16E27E14E13E30E15
 107030408.192 7  83400366.40848  79925346.392 8  20367213.203
  20367221.180    20367220.520          43.100          50.300          52.400
 113263687.100 6  88257457.20447  84580058.777 8  21553364.523
  21553372.348    21553371.805          40.200          43.900          49.500
 122863131.225 5  95560214.796 5                  22992162.164    22992161.215
  22992164.973                          35.700          35.400
 121454375.745 6  94464535.418 6                  22712580.055    22712579.363
  22712583.934                          36.600          36.200
 125726852.26215  97968995.43854  93886949.404 7  23925018.594
  23925025.918    23925026.086          31.300          27.800          43.100
 128962034.249 5 100489900.51544  96302825.564 6  24540660.391
  24540669.563    24540670.652          30.300          26.700          41.300
 105651946.567 7  82173772.669 6                  19750515.227    19750514.445
  19750521.910                          45.700          40.200
 107915483.779 5  83934292.879 6                  20209105.766    20209104.633
  20209110.938                          32.300          41.100
 114128571.544 6  88931319.93047                  21717929.500
  21717935.152                          40.500          42.600
 104622082.083 7  81372778.103 7                  19585478.086    19585477.227
  19585481.844                          45.500          46.800
 109465034.735 7  85297400.67645                  20830488.031
  20830492.742                          42.400          35.200
 120420185.413 5  93833983.49245  89924233.644 7  22915207.461
  22915217.531    22915215.578          33.600          33.700          45.700
 127335764.92415  99222702.42052                  24231191.578
  24231197.250                          32.300          17.400
 117842837.403 6  91825631.83344                  22424752.469
  22424757.508                          37.700          25.800
 123588155.688 7                  92289878.392 8  23518041.844
                  23518046.621          46.300                          51.200
 129922295.399 6                  97019923.665 7  24723390.305
                  24723395.680          38.100                          43.100
 134176275.685 6                 100196592.664 7  25532895.422
                  25532901.172          40.800                          44.700
 123447740.262 7                  92185017.554 7  23491324.648
                  23491330.590          44.300                          47.700
 121502637.065 7                  90732516.154 8  23121181.117
                  23121187.543          45.900                          51.400
 20  7  6  0  0 14.0000000  0 19G08G27R11R24G30G09R23R13G07R12G11G01
                                G21G16E27E14E13E30E15
 107030975.451 7  83400808.43148  79925769.987 8  20367321.039
  20367329.141    20367328.387          44.100          50.800          52.800
 113266033.579 6  88259285.62847  84581811.004 8  21553811.492
  21553818.902    21553818.301          40.900          44.500          49.500
 122866735.029 6  95563017.775 5                  22992836.016    22992835.828
  22992839.660                          36.000          34.700
 121450506.842 6  94461526.272 6                  22711855.609    22711856.180
  22711860.422                          37.100          36.100
 125723701.017 5  97966539.91844  93884596.204 7  23924418.344
  23924426.199    23924426.504          31.900          27.900          42.900
 128964465.000 5 100491794.60244  96304640.743 6  24541122.891
  24541132.230    24541133.250          30.800          27.000          41.600
 105649926.130 7  82172201.227 6                  19750137.773    19750136.797
  19750144.234                          46.100          40.600
 107912887.137 5  83932273.251 6                  20208621.266    20208618.438
  20208624.813                          32.900          40.400
 114126635.710 6  88929811.49047                  21717560.875
  21717566.770                          40.600          43.100
 104623241.651 7  81373679.983 7                  19585694.750    19585694.238
  19585698.930                          45.500          46.900
 109462968.020 7  85295790.24146                  20830094.367
  20830099.340                          43.200          36.000
 120416391.772 5  93831027.40545  89921400.753 7  22914485.422
  22914495.512    22914493.629          34.600          34.000          45.300
 127338617.488 5  99224925.17942                  24231734.828
  24231740.133                          32.400          17.800
 117844964.655 6  91827289.42644                  22425157.148
  22425162.270                          38.300          26.300
 123587223.499 7                  92289182.265 8  23517864.219
                  23517869.246          47.200                          51.400
 129916519.284 6                  97015610.313 7  24722291.164
                  24722296.613          38.600                          43.000
 134173548.130 6                 100194555.848 7  25532376.672
                  25532382.180          41.000                          44.900
 123449142.044 7                  92186064.337 7  23491591.492
                  23491597.301          44.900                          47.900
 121502196.292 7                  90732187.007 8  23121097.281
                  23121103.500          46.500                          51.400
 20  7  6  0  0 15.0000000  0 19G08G27R11R24G30G09R23R13G07R12G11G01
                                G21G16E27E14E13E30E15
 107031543.095 7  83401250.74948  79926193.870 8  20367429.391
  20367437.027    20367436.410          44.300          50.700          52.700
 113268380.248 6  88261114.20147  84583563.393 8  21554258.242
  21554265.387    21554264.766          41.400          44.500          49.100
 122870339.211 6  95565821.029 5                  22993510.016    22993510.375
  22993514.016                          36.800          35.200
 121446638.345 6  94458517.446 6                  22711131.758    22711132.480
  22711136.973                          37.100          36.000
 125720550.061 5  97964084.62444  93882243.230 7  23923817.852
  23923826.496    23923827.020          31.900          27.400          43.100
 128966895.890 5 100493688.79744  96306456.013 6  24541585.211
  24541594.652    24541595.578          31.300          27.300          41.300
 105647906.431 7  82170630.334 6                  19749759.734    19749759.367
  19749766.680                          46.700          39.900
 107910290.933 5  83930254.020 6                  20208134.688    20208132.559
  20208138.551                          33.100          39.600
 114124700.377 6  88928303.44147                  21717193.211
  21717198.402                          41.100          43.100
 104624401.917 7  81374582.409 7                  19585912.125    19585911.582
  19585916.145                          45.700          44.900
 109460901.785 7  85294180.19245                  20829700.820
  20829706.063                          43.000          35.700
 120412598.437 5  93828071.56445  89918568.055 7  22913763.172
  22913773.609    22913771.961          34.500          34.500          45.200
 127341470.252 5  99227148.11142                  24232277.406
  24232282.961                          33.100          17.800
 117847092.123 6  91828947.19344                  22425561.039
  22425567.086                          38.300          25.400
 123586291.519 7                  92288486.324 8  23517686.828
                  23517691.918          47.300                          51.000
 129910743.136 6                  97011296.950 7  24721192.094
                  24721197.539          39.000                          43.200
 134170820.815 6                 100192519.223 7  25531857.469
                  25531863.121          41.100                          44.700
 123450544.083 7                  92187111.325 8  23491858.180
                  23491864.059          44.800                          48.100
 121501755.989 7                  90731858.220 8  23121013.430
                  23121019.777          46.500                          50.900
 20  7  6  0  0 16.0000000  0 19G08G27R11R24G30G09R23R13G07R12G11G01
                                G21G16E27E14E13E30E15
 107032111.082 7  83401693.33248  79926618.026 8  20367537.492
  20367545.227    20367544.480          44.800          50.800          52.700
 113270727.135 6  88262942.94947  84585315.935 8  21554704.766
  21554711.910    21554711.445          41.200          44.500          49.200
 122873943.661 6  95568624.486 5                  22994185.508    22994185.301
  22994188.570                          36.600          35.800
 121442770.142 6  94455508.827 5                  22710408.711    22710408.945
  22710413.730                          37.000          35.700
 125717399.336 5  97961629.52244  93879890.442 7  23923217.828
  23923227.016    23923227.426          31.800          28.900          43.000
 128969326.957 5 100495583.13144  96308271.400 6  24542048.266
  24542057.441    24542058.145          31.900          27.700          41.300
 105645887.431 7  82169059.998 6                  19749382.961    19749381.840
  19749389.313                          46.400          40.100
 107907695.160 5  83928235.068 6                  20207649.273    20207646.344
  20207652.281                          32.800          40.100
 114122765.612 6  88926795.83247                  21716824.891
  21716830.238                          41.300          43.300
 104625562.798 7  81375485.323 7                  19586129.367    19586128.793
  19586133.449                          45.600          45.300
 109458836.052 7  85292570.53545                  20829307.742
  20829312.953                          43.000          35.700
 120408805.309 5  93825115.88245  89915735.511 7  22913042.945
  22913051.820    22913049.902          34.600          34.800          45.200
 127344323.311 5  99229371.29742                  24232820.828
  24232825.773                          33.400          17.800
 117849219.795 6  91830605.11244                  22425966.078
  22425971.953                          38.800          26.500
 123585359.762 7                  92287790.523 8  23517509.586
                  23517514.641          46.900                          50.500
 129904966.904 6                  97006983.561 7  24720093.016
                  24720098.223          39.100                          43.200
 134168093.720 6                 100190482.764 7  25531338.422
                  25531344.141          40.700                          44.800
 123451946.364 7                  92188158.483 8  23492124.977
                  23492131.063          44.900                          48.000
 121501316.146 7                  90731529.755 8  23120929.766
                  23120935.961          46.800                          51.000
 20  7  6  0  0 17.0000000  0 19G08G27R11R24G30G09R23R13G07R12G11G01
                                G21G16E27E14E13E30E15
 107032679.427 7  83402136.20148  79927042.438 8  20367645.172
  20367653.484    20367652.746          45.100          50.800          52.700
 113273074.186 6  88264771.81747  84587068.604 8  21555151.141
  21555158.660    21555158.035          41.500          44.700          49.500
 122877548.424 6  95571428.210 5                  22994860.125    22994859.727
  22994863.250                          37.100          35.600
 121438902.201 6  94452500.433 6                  22709685.367    22709685.547
  22709690.375                          36.800          36.200
 125714248.925 5  97959174.65044  93877537.840 7  23922618.063
  23922627.578    23922627.941          32.400          28.700          43.400
 128971758.052 5 100497477.48944  96310086.882 6  24542510.805
  24542520.059    24542520.766          32.200          26.900          41.100
 105643869.118 7  82167490.191 6                  19749005.500    19749004.547
  19749012.035                          46.200          40.200
 107905099.803 5  83926216.481 6                  20207163.305    20207160.352
  20207166.309                          32.500          40.000
 114120831.320 6  88925288.59047                  21716456.539
  21716462.164                          40.900          43.100
 104626724.294 7  81376388.707 7                  19586347.023    19586346.211
  19586350.852                          45.100          46.000
 109456770.788 7  85290961.23046                  20828915.078
  20828920.059                          43.300          36.300
 120405012.280 5  93822160.26845  89912903.091 7  22912320.719
  22912330.125    22912328.250          34.800          34.600          45.300
 127347176.596 5  99231594.60743                  24233363.633
  24233368.547                          33.700          19.000
 117851347.614 6  91832263.15444                  22426371.891
  22426376.914                          39.200          26.500
 123584428.191 7                  92287094.866 8  23517332.445
                  23517337.367          47.300                          50.700
 129899190.635 6                  97002670.096 7  24718993.953
                  24718999.164          39.100                          43.100
 134165366.844 6                 100188446.458 7  25530819.734
                  25530825.277          40.700                          44.800
 123453348.871 7                  92189205.813 8  23492391.953
                  23492397.832          45.000                          48.200
 121500876.739 7                  90731201.619 8  23120846.227
                  23120852.484          46.700                          50.900
 20  7  6  0  0 18.0000000  0 19G08G27R11R24G30G09R23R13G07R12G11G01
                                G21G16E27E14E13E30E15
 107033248.159 7  83402579.36948  79927467.144 8  20367753.930
  20367761.559    20367760.879          45.400          51.000          52.700
 113275421.468 6  88266600.86747  84588821.449 8  21555598.516
  21555605.195    21555604.664          41.600          44.600          49.900
 122881153.540 6  95574232.177 6                  22995535.094    22995534.309
  22995537.922                          36.800          36.400
 121435034.556 6  94449492.295 6                  22708962.469    22708962.098
  22708967.137                          36.900          36.100
 125711098.744 5  97956719.96344  93875185.445 7  23922018.859
  23922028.145    23922028.746          32.600          28.600          43.000
 128974189.350 5 100499371.99544  96311902.465 6  24542972.594
  24542982.613    24542983.402          31.900          26.100          40.900
 105641851.511 7  82165920.958 6                  19748628.734    19748627.488
  19748634.836                          46.200          40.000
 107902504.857 5  83924198.150 6                  20206677.289    20206674.582
  20206680.281                          33.200          40.100
 114118897.566 6  88923781.77547                  21716088.852
  21716094.148                          41.400          43.300
 104627886.484 7  81377292.628 7                  19586563.836    19586563.914
  19586568.559                          45.400          46.300
 109454706.030 7  85289352.32845                  20828522.594
  20828527.223                          43.200          35.900
 120401219.600 5  93819204.94145  89910070.869 7  22911598.391
  22911608.152    22911606.461          35.300          34.700          45.500
 127350030.193 5  99233818.19942                  24233907.000
  24233911.664                          33.400          17.800
 117853475.666 6  91833921.38144                  22426775.953
  22426781.805                          39.200          26.400
 123583496.837 7                  92286399.374 8  23517155.125
                  23517160.051          47.100                          50.800
 129893414.312 6                  96998356.608 7  24717894.586
                  24717900.035          38.900                          43.100
 134162640.226 6                 100186410.327 7  25530300.711
                  25530306.387          40.600                          44.900
 123454751.643 7                  92190253.344 8  23492658.781
                  23492664.785          45.300                          48.200
 121500437.797 7                  90730873.843 8  23120762.430
                  23120768.965          46.700                          51.200
 20  7  6  0  0 19.0000000  0 19G08G27R11R24G30G09R23R13G07R12G11G01
                                G21G16E27E14E13E30E15
 107033817.267 7  83403022.83048  79927892.132 8  20367862.563
  20367869.938    20367869.188          45.700          51.100          52.700
 113277768.989 6  88268430.10647  84590574.453 8  21556044.383
  21556051.914    21556051.500          41.700          44.700          49.800
 122884758.950 6  95577036.362 6                  22996209.219    22996209.234
  22996212.723                          37.000          36.700
 121431167.354 6  94446484.434 6                  22708237.375    22708238.996
  22708243.988                          37.000          36.500
 125707948.936 5  97954265.57944  93872833.305 7  23921419.492
  23921428.676    23921429.164          32.400          27.600          43.300
 128976620.884 5 100501266.69044  96313718.159 6  24543435.617
  24543445.234    24543446.156          31.900          27.700          40.800
 105639834.649 7  82164352.289 6                  19748252.031    19748250.508
  19748257.898                          46.200          39.900
 107899910.345 5  83922180.225 6                  20206190.969    20206188.953
  20206194.371                          32.400          40.300
 114116964.372 6  88922275.38947                  21715721.430
  21715726.352                          41.400          43.400
 104629049.406 7  81378197.126 7                  19586781.852    19586781.574
  19586786.180                          45.300          46.500
 109452641.802 7  85287743.83945                  20828128.930
  20828134.320                          43.200          35.700
 120397427.129 5  93816249.76745  89907238.821 7  22910877.492
  22910886.473    22910884.816          35.200          34.700          45.400
 127352883.488 5  99236041.44542                  24234449.195
  24234454.879                          33.600          16.900
 117855603.957 6  91835579.78844                  22427181.398
  22427186.855                          39.000          26.700
 123582565.721 7                  92285704.059 8  23516977.867
                  23516982.914          47.300                          50.200
 129887637.968 6                  96994043.105 7  24716795.266
                  24716800.680          39.300                          43.400
 134159913.828 6                 100184374.409 7  25529781.828
                  25529787.793          40.900                          44.800
 123456154.680 7                  92191301.060 8  23492925.883
                  23492931.715          45.500                          48.300
 121499999.324 7                  90730546.418 8  23120679.180
                  23120685.531          46.800                          51.300
 20  7  6  0  0 20.0000000  0 19G08G27R11R24G30G09R23R13G07R12G11G01
                                G21G16E27E14E13E30E15
 107034386.671 7  83403466.52348  79928317.335 8  20367970.586
  20367978.113    20367977.492          45.800          51.000          52.800
 113280116.622 6  88270259.42847  84592327.571 8  21556491.453
  21556498.723    21556498.148          41.800          44.500          49.700
 122888364.515 6  95579840.725 6                  22996884.945    22996883.648
  22996887.391                          36.600          36.300
 121427300.373 6  94443476.779 6                  22707516.750    22707515.902
  22707520.832                          36.900          36.700
 125704799.252 5  97951811.27644  93870481.299 7  23920820.227
  23920829.465    23920829.863          33.200          28.200          43.100
 128979052.422 5 100503161.40044  96315533.920 6  24543898.570
  24543907.898    24543908.859          31.500          26.900          41.000
 105637818.407 7  82162784.098 6                  19747874.328    19747873.473
  19747881.039                          46.200          40.000
 107897316.255 5  83920162.591 6                  20205707.125    20205703.363
  20205708.484                          32.700          40.200
 114115031.605 6  88920769.33147                  21715353.672
  21715358.480                          41.300          43.000
 104630212.914 7  81379102.082 7                  19586999.852    19586999.426
  19587004.012                          45.500          46.700
 109450577.970 7  85286135.66646                  20827736.461
  20827741.602                          43.500          36.300
 120393634.733 5  93813294.66545  89904406.865 7  22910155.906
  22910164.684    22910163.129          35.400          34.900          45.300
 127355737.537 5  99238265.36042                  24234993.305
  24234997.848                          33.600          17.800
 117857732.348 6  91837238.27544                  22427586.688
  22427591.836                          39.300          25.600
 123581634.739 7                  92285008.848 8  23516800.711
                  23516805.680          47.600                          50.100
 129881861.474 6                  96989729.505 7  24715696.313
                  24715701.441          38.900                          42.900
 134157187.600 6                 100182338.587 7  25529263.328
                  25529268.715          41.100                          45.300
 123457557.895 7                  92192348.915 7  23493193.156
                  23493198.750          45.100                          47.800
 121499561.242 7                  90730219.280 8  23120595.758
                  23120602.168          46.900                          50.800
 20  7  6  0  0 21.0000000  0 19G08G27R11R24G30G09R23R13G07R12G11G01
                                G21G16E27E14E13E30E15
 107034956.512 7  83403910.55948  79928742.861 8  20368078.828
  20368086.629    20368085.961          45.500          50.900          52.800
 113282464.502 7  88272088.94647  84594080.857 8  21556938.578
  21556945.609    21556944.965          42.500          44.300          49.600
 122891970.579 6  95582645.403 6                  22997558.383    22997558.273
  22997562.316                          37.000          36.200
 121423433.751 6  94440469.417 6                  22706793.195    22706792.746
  22706797.832                          36.800          36.500
 125701649.951 5  97949357.27144  93868129.524 7  23920221.313
  23920230.145    23920230.648          32.800          28.600          43.400
 128981484.156 5 100505056.25644  96317349.836 6  24544361.531
  24544370.531    24544371.395          31.500          26.900          40.600
 105635802.924 7  82161216.495 6                  19747497.547    19747496.609
  19747504.152                          46.400          39.600
 107894722.567 5  83918145.269 6                  20205220.773    20205217.172
  20205222.785                          32.100          40.200
 114113099.443 6  88919263.74947                  21714985.773
  21714990.855                          41.300          43.200
 104631377.099 7  81380007.572 7                  19587217.891    19587217.215
  19587221.969                          45.700          46.700
 109448514.686 7  85284527.90845                  20827344.164
  20827348.867                          43.800          35.800
 120389842.645 5  93810339.78745  89901575.109 7  22909434.594
  22909443.246    22909441.676          35.800          35.000          45.500
 127358591.880 5  99240489.53143                  24235535.781
  24235540.902                          33.400          18.300
 117859861.014 6  91838896.97244                  22427992.398
  22427996.895                          39.200          26.200
 123580704.019 7                  92284313.826 8  23516623.609
                  23516628.633          47.700                          50.200
 129876085.023 6                  96985415.914 7  24714597.031
                  24714602.484          38.700                          43.300
 134154461.651 6                 100180302.986 7  25528744.422
                  25528750.176          41.200                          45.200
 123458961.416 7                  92193396.993 7  23493460.109
                  23493465.797          45.200                          47.600
 121499123.667 7                  90729892.513 8  23120512.609
                  23120518.824          47.200                          50.700
 20  7  6  0  0 22.0000000  0 19G08G27R11R24G30G09R23R13G07R12G11G01
                                G21G16E27E14E13E30E15
 107035526.702 7  83404354.86348  79929168.664 8  20368187.883
  20368195.238    20368194.453          45.300          50.900          52.700
 113284812.621 7  88273918.63847  84595834.308 8  21557385.227
  21557392.262    21557391.828          42.600          44.400          49.200
 122895576.910 6  95585450.340 5                  22998233.891    22998233.477
  22998237.355                          36.600          35.800
 121419567.424 6  94437462.304 6                  22706069.477    22706069.570
  22706074.813                          37.100          36.000
 125698500.866 5  97946903.43644  93865777.969 7  23919621.922
  23919630.840    23919631.320          33.100          29.100          43.500
 128983916.061 5 100506951.25744  96319165.857 6  24544824.078
  24544833.273    24544834.195          32.200          27.400          40.700
 105633788.152 7  82159649.450 6                  19747121.016    19747119.902
  19747127.469                          46.400          39.500
 107892129.393 5  83916128.357 6                  20204732.578    20204731.629
  20204737.098                          32.400          39.900
 114111167.808 6  88917758.57747                  21714617.617
  21714623.336                          41.300          43.000
 104632541.950 7  81380913.553 7                  19587436.602    19587435.305
  19587439.957                          45.800          47.100
 109446451.908 7  85282920.55245                  20826951.313
  20826956.273                          44.100          35.500
 120386050.826 6  93807385.12245  89898743.532 7  22908713.203
  22908721.602    22908720.047          36.500          35.200          45.400
 127361446.474 5  99242713.88042                  24236079.859
  24236084.176                          33.400          17.800
 117861989.890 6  91840555.84044                  22428396.852
  22428401.906                          39.200          26.900
 123579773.512 7                  92283618.971 8  23516446.516
                  23516451.578          47.600                          50.100
 129870308.502 6                  96981102.289 7  24713498.023
                  24713503.234          38.500                          43.400
 134151735.957 6                 100178267.549 7  25528225.680
                  25528231.574          41.600                          45.000
 123460365.174 7                  92194445.261 7  23493727.008
                  23493732.992          45.000                          47.700
 121498686.548 7                  90729566.095 8  23120429.492
                  23120435.750          47.000                          50.800
 20  7  6  0  0 23.0000000  0 19G08G27R11R24G30G09R23R13G07R12G11G01
                                G21G16E27E14E13E30E15
 107036097.269 7  83404799.45748  79929594.726 8  20368296.336
  20368303.797    20368303.063          45.300          50.800          52.500
 113287160.888 7  88275748.46447  84597587.906 8  21557831.914
  21557839.418    21557838.688          42.500          44.600          49.300
 122899183.528 6  95588255.487 6                  22998908.664    22998908.555
  22998912.301                          36.500          36.100
 121415701.395 6  94434455.374 5                  22705346.883    22705346.512
  22705351.934                          37.100          35.800
 125695352.090 5  97944449.85045  93863426.604 7  23919022.641
  23919031.625    23919031.902          33.200          30.200          43.000
 128986348.025 5 100508846.28344  96320981.937 6  24545287.039
  24545296.121    24545296.887          32.000          26.500          40.500
 105631774.050 7  82158082.934 6                  19746744.898    19746743.496
  19746750.934                          46.500          39.700
 107889536.557 5  83914111.712 6                  20204247.648    20204246.387
  20204251.531                          32.700          39.600
 114109236.652 6  88916253.78447                  21714250.219
  21714255.672                          41.400          43.000
 104633707.470 7  81381820.072 7                  19587654.656    19587653.707
  19587658.211                          45.600          46.800
 109444389.610 7  85281313.56146                  20826558.820
  20826563.855                          43.600          36.100
 120382259.126 6  93804430.56145  89895912.078 7  22907991.109
  22908000.051    22907998.469          36.300          34.600          45.400
 127364301.267 5  99244938.44542                  24236623.086
  24236627.430                          33.900          17.400
 117864118.924 6  91842214.84044                  22428801.500
  22428807.082                          38.800          25.800
 123578843.191 8                  92282924.250 8  23516269.453
                  23516274.492          48.000                          50.300
 129864531.914 6                  96976788.594 7  24712398.727
                  24712404.086          38.700                          43.000
 134149010.456 6                 100176232.267 7  25527707.023
                  25527712.703          41.300                          44.900
 123461769.162 7                  92195493.677 8  23493994.375
                  23494000.113          45.200                          48.000
 121498249.853 7                  90729239.996 8  23120346.234
                  23120352.535          46.900                          50.900
 20  7  6  0  0 24.0000000  0 19G08G27R11R24G30G09R23R13G07R12G11G01
                                G21G16E27E14E13E30E15
 107036668.189 7  83405244.33648  79930021.067 8  20368404.859
  20368412.398    20368411.727          45.700          50.900          52.600
 113289509.388 7  88277578.46547  84599341.641 8  21558278.734
  21558286.094    21558285.543          42.500          44.500          49.100
 122902790.439 6  95591060.873 6                  22999583.531    22999583.594
  22999587.223                          36.800          36.400
 121411835.717 6  94431448.780 6                  22704623.914    22704623.793
  22704629.199                          37.100          36.400
 125692203.580 5  97941996.46544  93861075.423 7  23918424.078
  23918432.656    23918432.879          33.000          28.600          42.900
 128988780.143 5 100510741.43044  96322798.154 6  24545749.477
  24545758.965    24545759.691          32.300          26.800          40.700
 105629760.671 7  82156516.957 6                  19746368.102    19746367.215
  19746374.609                          46.400          39.500
 107886944.224 5  83912095.413 6                  20203762.711    20203761.090
  20203766.035                          32.600          39.800
 114107306.039 6  88914749.41347                  21713883.195
  21713888.500                          41.400          43.000
 104634873.674 7  81382727.127 7                  19587872.578    19587871.984
  19587876.465                          45.800          46.700
 109442327.770 7  85279706.93745                  20826166.711
  20826171.465                          44.100          35.800
 120378467.698 6  93801476.19445  89893080.810 7  22907269.047
  22907278.516    22907277.043          36.300          34.500          45.700
 127367156.360 5  99247163.15142                  24237165.938
  24237170.605                          33.500          17.400
 117866248.166 6  91843873.98344                  22429206.984
  22429212.195                          38.800          26.800
 123577913.072 7                  92282229.685 8  23516092.641
                  23516097.547          47.800                          50.000
 129858755.287 6                  96972474.882 7  24711299.094
                  24711304.742          39.100                          43.300
 134146285.174 6                 100174197.167 7  25527188.430
                  25527194.238          40.900                          44.800
 123463173.378 7                  92196542.299 8  23494261.430
                  23494267.426          45.100                          48.100
 121497813.631 7                  90728914.241 8  23120263.328
                  23120269.555          47.100                          51.000
 20  7  6  0  0 25.0000000  0 19G08G27R11R24G30G09R23R13G07R12G11G01
                                G21G16E27E14E13E30E15
 107037239.482 7  83405689.50048  79930447.686 8  20368513.680
  20368521.188    20368520.465          45.800          50.800          52.700
 113291858.099 7  88279408.62547  84601095.543 8  21558725.586
  21558733.145    21558732.473          42.300          44.300          49.400
 122906397.704 6  95593866.516 6                  23000259.305    23000258.086
  23000262.348                          36.500          36.000
 121407970.402 6  94428442.409 6                  22703900.945    22703900.645
  22703906.402                          36.900          36.200
 125689055.319 5  97939543.27944  93858724.476 7  23917824.977
  23917833.672    23917834.047          33.700          29.000          43.000
 128991212.41715 100512636.70554  96324614.468 6  24546212.406
  24546221.816    24546222.348          31.500          26.200          40.400
 105627747.997 7  82154951.555 6                  19745992.211    19745990.828
  19745998.324                          46.200          39.700
 107884352.247 5  83910079.511 6                  20203277.258    20203275.629
  20203280.602                          32.900          39.700
 114105375.940 6  88913245.44347                  21713515.617
  21713521.191                          41.300          43.000
 104636040.561 7  81383634.695 7                  19588091.313    19588090.238
  19588095.035                          45.700          45.900
 109440266.451 7  85278100.71045                  20825774.141
  20825779.289                          44.000          35.900
 120374676.452 6  93798521.97845  89890249.704 7  22906548.031
  22906557.055    22906555.512          36.400          34.300          45.700
 127370011.776 5  99249388.15842                  24237709.422
  24237713.902                          33.500          16.900
 117868377.623 6  91845533.30344                  22429612.680
  22429617.465                          39.000          25.500
 123576983.177 7                  92281535.294 8  23515915.664
                  23515920.566          47.700                          50.300
 129852978.617 6                  96968161.126 7  24710200.039
                  24710205.480          39.000                          43.500
 134143560.148 6                 100172162.250 7  25526669.867
                  25526675.574          40.900                          44.800
 123464577.888 7                  92197591.100 8  23494528.734
                  23494534.531          44.900                          48.300
 121497377.856 7                  90728588.827 8  23120180.477
                  23120186.691          46.900                          50.600
 20  7  6  0  0 26.0000000  0 19G08G27R11R24G30G09R23R13G07R12G11G01
                                G21G16E27E14E13E30E15
 107037811.122 7  83406134.93848  79930874.563 8  20368622.414
  20368629.941    20368629.246          45.700          51.000          53.000
 113294206.970 7  88281238.90947  84602849.569 8  21559172.594
  21559180.102    21559179.523          42.100          44.300          49.600
 122910005.277 6  95596672.371 6                  23000932.406    23000932.773
  23000937.500                          36.300          36.200
 121404105.379 6  94425436.242 5                  22703177.734    22703177.820
  22703183.590                          36.700          35.500
 125685907.391 5  97937090.33944  93856373.728 7  23917225.563
  23917234.648    23917234.730          33.800          28.500          43.000
 128993644.811 5 100514532.08344  96326430.887 6  24546675.508
  24546684.660    24546685.164          31.900          26.800          40.200
 105625735.993 7  82153386.672 6                  19745615.422    19745614.613
  19745622.234                          46.000          40.300
 107881760.696 5  83908063.829 6                  20202791.617    20202789.941
  20202795.246                          32.900          40.000
 114103446.358 6  88911741.87247                  21713149.023
  21713153.992                          41.300          43.400
 104637208.058 7  81384542.750 7                  19588309.414    19588308.996
  19588313.605                          45.800          46.100
 109438205.600 7  85276494.85345                  20825382.070
  20825387.055                          44.100          35.700
 120370885.448 6  93795567.93745  89887418.739 7  22905826.555
  22905835.598    22905834.105          36.600          34.200          45.700
 127372867.330 5  99251613.26442                  24238251.648
  24238257.270                          34.400          17.800
 117870507.286 6  91847192.77844                  22430018.125
  22430022.672                          39.200          26.700
 123576053.478 8                  92280841.025 8  23515738.773
                  23515743.754          48.000                          50.200
 129847201.857 6                  96963847.328 7  24709100.734
                  24709106.203          38.900                          43.100
 134140835.311 6                 100170127.464 7  25526151.578
                  25526157.223          40.900                          45.100
 123465982.602 7                  92198640.080 8  23494795.945
                  23494802.000          44.700                          48.200
 121496942.519 7                  90728263.743 8  23120097.586
                  23120103.863          46.600                          50.900
 20  7  6  0  0 27.0000000  0 19G08G27R11R24G30G09R23R13G07R12G11G01
                                G21G16E27E14E13E30E15
 107038383.150 7  83406580.66848  79931301.731 8  20368731.250
  20368738.871    20368738.016          45.900          50.900          52.700
 113296556.085 6  88283069.38847  84604603.776 8  21559619.695
  21559626.949    21559626.516          41.800          44.400          49.300
 122913613.147 6  95599478.520 6                  23001607.367    23001608.156
  23001612.699                          36.200          36.000
 121400240.646 6  94422430.346 5                  22702454.336    22702455.102
  22702460.852                          36.400          35.800
 125682759.685 5  97934637.58044  93854023.161 7  23916626.836
  23916635.633    23916635.785          33.500          28.600          43.100
 128996077.424 5 100516427.64244  96328247.385 6  24547138.297
  24547147.559    24547148.215          31.800          26.400          40.200
 105623724.729 7  82151822.351 6                  19745239.609    19745238.578
  19745246.309                          46.200          39.900
 107879169.663 5  83906048.574 6                  20202306.031    20202304.672
  20202309.949                          32.900          40.300
 114101517.306 6  88910238.71047                  21712781.406
  21712787.004                          41.700          43.200
 104638376.240 7  81385451.334 7                  19588528.234    19588527.641
  19588532.180                          45.900          46.200
 109436145.247 7  85274889.38745                  20824989.891
  20824995.113                          43.700          35.700
 120367094.631 6  93792614.06445  89884587.935 7  22905104.953
  22905114.246    22905112.863          36.100          34.700          45.800
 127375723.233 5  99253838.60942                  24238795.609
  24238800.762                          33.800          17.800
 117872637.129 6  91848852.39744                  22430423.305
  22430428.066                          39.400          25.600
 123575123.996 8                  92280146.932 8  23515562.047
                  23515566.789          48.200                          50.500
 129841425.072 6                  96959533.499 7  24708001.242
                  24708006.828          39.100                          43.100
 134138110.726 6                 100168092.887 7  25525632.930
                  25525638.672          41.300                          44.900
 123467387.577 7                  92199689.243 8  23495063.500
                  23495069.250          44.700                          48.000
 121496507.647 7                  90727938.999 8  23120014.867
                  23120021.035          46.900                          50.800
 20  7  6  0  0 28.0000000  0 19G08G27R11R24G30G09R23R13G07R12G11G01
                                G21G16E27E14E13E30E15
 107038955.598 7  83407026.72848  79931729.193 8  20368840.398
  20368847.723    20368846.953          46.000          51.000          52.500
 113298905.387 7  88284900.01247  84606358.132 8  21560067.195
  21560074.043    21560073.543          42.000          44.600          49.300
 122917221.360 5  95602284.910 6                  23002284.141    23002282.980
  23002287.934                          35.700          36.400
 121396376.252 6  94419424.697 6                  22701732.250    22701732.637
  22701738.145                          36.600          36.200
 125679612.314 5  97932185.09644  93851672.839 7  23916028.109
  23916036.695    23916037.094          33.500          29.400          43.200
 128998510.113 5 100518323.22944  96330064.051 6  24547600.906
  24547610.527    24547611.012          32.000          25.400          40.600
 105621714.188 7  82150258.596 6                  19744864.453    19744862.984
  19744870.375                          46.200          40.100
 107876578.979 5  83904033.619 6                  20201819.836    20201819.676
  20201824.867                          32.700          40.200
 114099588.801 6  88908735.98647                  21712414.398
  21712419.836                          41.400          43.300
 104639545.118 7  81386360.459 7                  19588747.297    19588746.395
  19588751.074                          45.800          46.500
 109434085.412 7  85273284.32446                  20824598.141
  20824603.156                          43.800          36.100
 120363304.074 6  93789660.38145  89881757.327 7  22904383.320
  22904392.918    22904391.625          36.500          35.000          45.800
 127378579.393 5  99256064.23042                  24239339.586
  24239344.359                          33.700          17.400
 117874767.205 6  91850512.19644                  22430828.453
  22430833.734                          39.500          25.800
 123574194.744 8                  92279453.010 8  23515384.875
                  23515389.980          48.000                          50.700
 129835648.255 6                  96955219.653 7  24706901.844
                  24706907.527          39.100                          42.900
 134135386.392 6                 100166058.473 7  25525114.633
                  25525120.297          40.700                          45.100
 123468792.821 7                  92200738.621 8  23495330.695
                  23495336.738          44.400                          48.200
 121496073.257 7                  90727614.619 8  23119932.055
                  23119938.434          46.900                          51.100
 20  7  6  0  0 29.0000000  0 19G08G27R11R24G30G09R23R13G07R12G11G01
                                G21G16E27E14E13E30E15
 107039528.352 7  83407473.03348  79932156.900 8  20368948.984
  20368956.684    20368955.934          45.600          51.000          52.500
 113301254.908 7  88286730.81147  84608112.630 8  21560513.922
  21560521.078    21560520.719          42.100          44.600          49.200
 122920829.827 5  95605091.474 6                  23002958.859    23002958.016
  23002963.129                          35.100          36.700
 121392512.154 6  94416419.320 5                  22701008.727    22701009.758
  22701015.473                          36.000          35.900
 125676465.133 5  97929732.74944  93849322.701 7  23915428.695
  23915437.934    23915438.223          33.700          28.300          42.900
 129000943.008 5 100520218.99244  96331880.782 6  24548064.156
  24548073.254    24548073.770          32.000          26.000          40.800
 105619704.349 7  82148695.394 6                  19744487.758    19744487.176
  19744494.742                          45.800          40.300
 107873988.766 5  83902018.987 6                  20201335.445    20201334.379
  20201339.652                          32.700          40.200
 114097660.797 6  88907233.64447                  21712047.539
  21712052.969                          41.200          43.200
 104640714.638 7  81387270.088 7                  19588965.242    19588965.387
  19588969.914                          46.000          46.400
 109432026.047 7  85271679.62446                  20824206.016
  20824211.336                          43.700          36.000
 120359513.724 6  93786706.85845  89878926.855 7  22903661.773
  22903671.535    22903670.270          36.500          34.600          45.700
 127381435.775 5  99258290.00542                  24239882.773
  24239887.934                          33.300          16.900
 117876897.455 6  91852172.13944                  22431233.469
  22431239.309                          39.000          26.200
 123573265.678 7                  92278759.230 8  23515208.125
                  23515213.152          47.500                          50.800
 129829871.383 6                  96950905.746 7  24705802.570
                  24705808.277          38.800                          42.900
 134132662.276 6                 100164024.223 7  25524596.203
                  25524601.992          41.000                          45.100
 123470198.279 7                  92201788.150 8  23495598.180
                  23495604.027          44.800                          48.600
 121495639.307 7                  90727290.547 8  23119849.297
                  23119855.840          47.000                          50.800
 20  7  6  0  0 30.0000000  0 19G08G27R11R24G30G09R23R13G07R12G11G01
                                G21G16E27E14E13E30E15
 107040101.459 7  83407919.60948  79932584.878 8  20369057.656
  20369065.773    20369065.020          45.800          51.000          52.500
 113303604.604 7  88288561.74347  84609867.287 8  21560961.406
  21560968.406    21560967.801          42.500          44.500          49.100
 122924438.578 5  95607898.284 6                  23003633.164    23003633.469
  23003638.527                          34.900          36.500
 121388648.428 6  94413414.182 6                  22700287.727    22700287.305
  22700292.875                          36.000          36.600
 125673318.263 5  97927280.63444  93846972.757 7  23914829.789
  23914839.027    23914839.090          33.500          28.900          42.900
 129003375.980 5 100522114.81044  96333697.606 6  24548527.820
  24548536.336    24548536.902          32.400          25.300          40.800
 105617695.228 7  82147132.737 6                  19744113.211    19744111.426
  19744119.246                          45.800          40.200
 107871398.953 5  83900004.673 6                  20200850.781    20200849.770
  20200854.598                          32.600          39.800
 114095733.320 6  88905731.71247                  21711680.469
  21711686.176                          41.100          43.400
 104641884.800 7  81388180.212 7                  19589185.000    19589184.313
  19589189.051                          45.800          46.700
 109429967.168 7  85270075.30146                  20823814.484
  20823819.504                          44.100          36.200
 120355723.532 6  93783753.46145  89876096.545 7  22902940.805
  22902950.410    22902949.094          36.800          34.900          45.700
 127384292.414 5  99260515.90742                  24240426.664
  24240431.543                          34.100          17.800
 117879027.904 6  91853832.21844                  22431639.148
  22431644.816                          39.200          25.300
 123572336.821 7                  92278065.600 8  23515031.586
                  23515036.422          47.600                          51.000
 129824094.466 6                  96946591.794 7  24704703.578
                  24704708.969          39.300                          42.800
 134129938.381 6                 100161990.142 7  25524077.766
                  25524083.508          41.200                          44.900
 123471603.989 7                  92202837.865 8  23495865.852
                  23495871.652          44.600                          48.400
 121495205.782 7                  90726966.825 8  23119767.031
                  23119773.328          47.100                          51.000
 20  7  6  0  0 31.0000000  0 19G08G27R11R24G30G09R23R13G07R12G11G01
                                G21G16E27E14E13E30E15
 107040674.940 7  83408366.48148  79933013.129 8  20369167.086
  20369174.953    20369174.223          45.800          51.000          52.800
 113305954.513 7  88290392.84247  84611622.091 8  21561408.594
  21561415.445    21561414.953          42.100          44.500          49.200
 122928047.727 5  95610705.387 6                  23004310.180    23004308.824
  23004314.023                          34.700          36.700
 121384784.964 6  94410409.269 6                  22699565.516    22699564.797
  22699570.355                          36.500          36.400
 125670171.685 5  97924828.76044  93844623.035 7  23914231.367
  23914240.223    23914240.469          33.500          26.600          43.500
 129005809.064 5 100524010.70544  96335514.538 6  24548990.750
  24548999.375    24548999.785          33.200          24.600          40.600
 105615686.791 7  82145570.631 6                  19743737.383    19743736.305
  19743743.754                          45.900          40.700
 107868809.541 5  83897990.703 6                  20200365.742    20200364.500
  20200369.621                          32.500          39.900
 114093806.356 6  88904230.18847                  21711314.570
  21711319.574                          41.300          43.500
 104643055.645 7  81389090.870 7                  19589403.734    19589403.707
  19589408.184                          45.800          46.300
 109427908.791 7  85268471.37046                  20823422.922
  20823427.777                          43.900          36.000
 120351933.607 6  93780800.27245  89873266.403 7  22902220.148
  22902229.152    22902227.906          36.800          35.100          45.400
 127387149.316 5  99262742.08942                  24240970.695
  24240975.285                          33.300          17.400
 117881158.585 6  91855492.49144                  22432044.469
  22432050.129                          39.200          27.600
 123571408.174 7                  92277372.134 8  23514854.633
                  23514859.715          47.400                          50.800
 129818317.464 6                  96942277.801 7  24703604.156
                  24703609.762          39.200                          42.600
 134127214.722 6                 100159956.236 7  25523559.617
                  25523565.383          41.100                          45.100
 123473009.926 7                  92203887.769 8  23496133.352
                  23496139.129          44.600                          48.300
 121494772.721 7                  90726643.438 8  23119684.484
                  23119690.941          46.800                          50.900
 20  7  6  0  0 32.0000000  0 19G08G27R11R24G30G09R23R13G07R12G11G01
                                G21G16E27E14E13E30E15
 107041248.795 7  83408813.64348  79933441.649 8  20369276.648
  20369284.148    20369283.316          45.900          51.000          52.500
 113308304.644 7  88292224.11247  84613377.045 8  21561855.828
  21561862.719    21561862.207          42.200          44.300          49.100
 122931657.187 5  95613512.767 6                  23004984.148    23004984.098
  23004989.395                          35.300          36.400
 121380921.797 6  94407404.603 6                  22698841.461    22698842.484
  22698847.715                          36.400          36.800
 125667025.361 5  97922377.07444  93842273.502 7  23913632.930
  23913641.402    23913641.680          33.500          28.300          43.100
 129008242.321 5 100525906.75544  96337331.575 6  24549453.836
  24549462.414    24549462.641          33.100          24.900          40.700
 105613679.061 7  82144009.059 6                  19743361.203    19743360.516
  19743368.410                          46.000          40.400
 107866220.574 5  83895977.074 6                  20199881.844    20199879.977
  20199884.750                          32.700          39.900
 114091879.911 6  88902729.05747                  21710947.141
  21710953.039                          41.100          43.400
 104644227.131 7  81390002.021 7                  19589623.031    19589622.949
  19589627.508                          45.700          46.500
 109425850.871 7  85266867.79045                  20823031.016
  20823036.172                          43.800          35.700
 120348143.861 6  93777847.22645  89870436.406 7  22901498.789
  22901507.926    22901506.563          36.400          34.600          45.500
 127390006.457 5  99264968.40042                  24241513.516
  24241519.063                          33.000          16.900
 117883289.433 6  91857152.89844                  22432450.266
  22432455.484                          39.500          27.000
 123570479.730 7                  92276678.819 8  23514678.109
                  23514683.027          47.100                          50.100
 129812540.429 6                  96937963.782 7  24702504.617
                  24702510.188          39.100                          42.600
 134124491.273 6                 100157922.505 7  25523041.430
                  25523047.102          40.700                          44.900
 123474416.130 7                  92204937.849 8  23496400.836
                  23496406.832          44.700                          48.200
 121494340.120 7                  90726320.383 8  23119602.172
                  23119608.637          47.100                          50.800
 20  7  6  0  0 33.0000000  0 19G08G27R11R24G30G09R23R13G07R12G11G01
                                G21G16E27E14E13E30E15
 107041823.023 7  83409261.09048  79933870.453 8  20369385.727
  20369393.355    20369392.691          46.200          51.100          52.800
 113310654.933 6  88294055.49747  84615132.154 8  21562302.703
  21562310.137    21562309.480          41.900          44.500          49.200
 122935266.904 5  95616320.314 6                  23005660.945    23005659.309
  23005664.988                          34.500          36.300
 121377058.991 6  94404400.205 6                  22698120.516    22698119.996
  22698125.363                          36.200          36.900
 125663879.318 5  97919925.60944  93839924.188 7  23913034.453
  23913042.711    23913043.016          33.300          27.700          43.000
 129010675.750 5 100527802.91544  96339148.744 6  24549917.344
  24549925.578    24549925.656          33.200          25.700          40.800
 105611672.042 7  82142448.047 6                  19742987.016    19742985.445
  19742993.180                          45.900          40.600
 107863632.061 5  83893963.745 6                  20199397.992    20199395.598
  20199399.996                          32.900          40.600
 114089954.020 6  88901228.36247                  21710580.859
  21710586.520                          41.100          43.600
 104645399.298 7  81390913.716 7                  19589842.742    19589842.121
  19589846.941                          45.800          46.600
 109423793.484 7  85265264.63446                  20822639.461
  20822644.578                          43.800          36.500
 120344354.379 6  93774894.37845  89867606.602 7  22900776.992
  22900786.852    22900785.449          36.200          34.800          45.300
 127392863.887 5  99267194.95942                  24242057.844
  24242062.809                          33.200          15.600
 117885420.466 6  91858813.44544                  22432856.414
  22432860.898                          39.700          25.300
 123569551.514 7                  92275985.667 8  23514501.469
                  23514506.289          47.300                          50.300
 129806763.338 6                  96933649.740 7  24701405.375
                  24701411.016          39.000                          42.700
 134121768.068 6                 100155888.939 7  25522523.203
                  25522528.730          41.200                          44.800
 123475822.591 7                  92205988.113 8  23496668.578
                  23496674.320          44.500                          48.000
 121493907.964 7                  90725997.689 8  23119520.016
                  23119526.418          46.800                          51.000
 20  7  6  0  0 34.0000000  0 19G08G27R11R24G30G09R23R13G07R12G11G01
                                G21G16E27E14E13E30E15
 107042397.589 7  83409708.80248  79934299.517 8  20369494.805
  20369502.820    20369501.914          45.800          51.000          52.500
 113313005.462 7  88295887.07947  84616887.392 8  21562749.836
  21562757.246    21562756.730          42.400          44.300          49.100
 122938876.912 5  95619128.111 6                  23006335.758    23006334.801
  23006340.582                          34.200          36.700
 121373196.534 6  94401396.055 6                  22697397.352    22697397.832
  22697403.164                          36.500          37.000
 125660733.547 5  97917474.36044  93837575.057 7  23912436.195
  23912444.219    23912444.297          33.300          27.900          43.400
 129013109.263 5 100529699.15344  96340965.949 6  24550380.023
  24550388.699    24550388.953          32.800          26.100          41.100
 105609665.694 7  82140887.554 6                  19742611.344    19742610.281
  19742618.180                          45.800          40.200
 107861043.917 5  83891950.741 6                  20198913.430    20198910.984
  20198915.371                          33.000          40.100
 114088028.616 6  88899728.05047                  21710214.563
  21710220.129                          41.400          43.400
 104646572.156 7  81391825.925 7                  19590062.961    19590061.805
  19590066.426                          45.700          46.700
 109421736.556 7  85263661.83546                  20822248.164
  20822253.156                          43.800          36.500
 120340565.077 5  93771941.68545  89864776.915 7  22900056.602
  22900065.605    22900064.598          35.900          35.200          45.100
 127395721.565 5  99269421.74442                  24242600.891
  24242606.734                          33.800          16.900
 117887551.738 6  91860474.16644                  22433260.516
  22433266.387                          39.200          26.300
 123568623.482 7                  92275292.656 8  23514324.758
                  23514329.684          47.400                          50.600
 129800986.235 6                  96929335.652 7  24700306.117
                  24700311.594          39.100                          42.900
 134119045.073 6                 100153855.547 7  25522004.789
                  25522010.711          41.100                          45.200
 123477229.262 7                  92207038.554 8  23496936.359
                  23496942.027          44.700                          48.100
 121493476.287 7                  90725675.302 8  23119437.891
                  23119444.180          46.600                          51.100
 20  7  6  0  0 35.0000000  0 19G08G27R11R24G30G09R23R13G07R12G11G01
                                G21G16E27E14E13E30E15
 107042972.544 7  83410156.82248  79934728.865 8  20369604.281
  20369612.055    20369611.355          45.800          50.900          52.500
 113315356.169 7  88297718.79947  84618642.802 8  21563197.188
  21563204.520    21563204.059          42.300          44.000          49.100
 122942487.254 5  95621936.151 6                  23007011.156    23007010.137
  23007016.055                          34.300          36.400
 121369334.418 6  94398392.195 6                  22696675.977    22696675.430
  22696681.168                          36.700          37.000
 125657587.996 5  97915023.28144  93835226.161 7  23911837.492
  23911845.406    23911845.898          33.400          28.700          43.400
 129015542.926 5 100531595.53144  96342783.322 6  24550842.305
  24550851.809    24550852.164          31.600          25.100          41.000
 105607660.072 7  82139327.620 6                  19742236.086    19742235.516
  19742243.293                          45.800          39.900
 107858456.214 5  83889938.083 6                  20198429.398    20198426.301
  20198430.703                          33.200          39.800
 114086103.768 6  88898228.16147                  21709848.484
  21709853.855                          41.700          43.200
 104647745.667 7  81392738.662 7                  19590282.297    19590281.723
  19590286.027                          45.500          45.100
 109419680.139 7  85262059.42546                  20821857.352
  20821861.832                          43.800          36.100
 120336775.956 6  93768989.12245  89861947.409 7  22899334.859
  22899344.695    22899343.398          36.500          34.600          45.100
 127398579.481 5  99271648.70742                  24243144.383
  24243150.633                          33.300          16.900
 117889683.171 6  91862135.02744                  22433666.891
  22433671.938                          39.600          26.100
 123567695.670 7                  92274599.806 8  23514148.453
                  23514153.211          47.600                          50.500
 129795209.024 6                  96925021.510 7  24699207.000
                  24699212.109          39.000                          43.100
 134116322.341 6                 100151822.315 7  25521486.898
                  25521492.488          41.300                          45.300
 123478636.197 7                  92208089.196 8  23497203.977
                  23497209.707          45.100                          48.000
 121493045.040 7                  90725353.276 8  23119355.828
                  23119362.152          46.900                          51.700
 20  7  6  0  0 36.0000000  0 19G08G27R11R24G30G09R23R13G07R12G11G01
                                G21G16E27E14E13E30E15
 107043547.830 7  83410605.09848  79935158.475 8  20369713.969
  20369721.609    20369720.832          45.800          51.000          52.900
 113317707.074 7  88299550.66847  84620398.332 8  21563644.008
  21563651.980    21563651.551          42.400          44.200          49.200
 122946097.915 5  95624744.440 6                  23007686.164    23007685.762
  23007691.742                          34.300          36.300
 121365472.553 6  94395388.536 6                  22695953.492    22695953.543
  22695959.031                          36.700          36.900
 125654442.755 5  97912572.43444  93832877.427 7  23911237.898
  23911246.859    23911247.164          32.800          27.700          43.200
 129017976.727 5 100533491.97844  96344600.752 6  24551305.891
  24551314.684    24551315.270          32.400          25.400          40.900
 105605655.133 7  82137768.232 6                  19741861.453    19741860.723
  19741868.582                          45.500          40.200
 107855868.923 5  83887925.737 6                  20197943.523    20197941.012
  20197946.188                          32.400          39.800
 114084179.358 6  88896728.62247                  21709482.094
  21709487.727                          41.700          43.400
 104648919.795 7  81393651.878 7                  19590501.367    19590501.137
  19590505.867                          45.600          45.600
 109417624.184 7  85260457.39046                  20821465.820
  20821470.480                          43.700          36.200
 120332987.102 6  93766036.76345  89859118.038 7  22898614.898
  22898623.824    22898622.496          36.300          34.900          45.500
 127401437.614 5  99273875.78842                  24243689.078
  24243694.711                          33.300          16.900
 117891814.807 6  91863796.05644                  22434072.398
  22434077.516                          39.200          26.900
 123566768.032 7                  92273907.097 8  23513971.859
                  23513976.637          47.400                          50.000
 129789431.724 6                  96920707.327 7  24698107.164
                  24698112.605          39.100                          43.000
 134113599.765 6                 100149789.236 7  25520968.945
                  25520974.422          40.900                          45.500
 123480043.361 7                  92209139.979 8  23497471.813
                  23497477.598          45.300                          48.200
 121492614.206 7                  90725031.556 8  23119273.883
                  23119280.129          46.500                          51.700
 20  7  6  0  0 37.0000000  0 19G08G27R11R24G30G09R23R13G07R12G11G01
                                G21G16E27E14E13E30E15
 107044123.529 7  83411053.69348  79935588.369 8  20369823.258
  20369831.141    20369830.422          46.000          50.900          52.500
 113320058.194 7  88301382.71647  84622154.041 8  21564092.023
  21564099.469    21564098.844          42.100          44.300          49.200
 122949708.947 5  95627552.985 6                  23008361.625    23008361.633
  23008367.426                          34.200          36.200
 121361611.020 6  94392385.139 6                  22695230.922    22695231.387
  22695236.957                          36.600          36.500
 125651297.826 5  97910121.84044  93830528.920 7  23910639.953
  23910648.289    23910648.813          33.000          28.000          43.000
 129020410.656 5 100535388.55544  96346418.313 6  24551769.750
  24551777.809    24551778.367          31.900          24.400          40.800
 105603650.932 7  82136209.405 6                  19741487.039    19741485.734
  19741493.926                          45.800          40.600
 107853282.099 5  83885913.780 6                  20197458.742    20197456.758
  20197461.797                          33.100          39.800
 114082255.534 6  88895229.53647                  21709116.133
  21709121.512                          41.300          43.400
 104650094.613 7  81394565.615 7                  19590721.773    19590721.246
  19590725.797                          45.700          46.100
 109415568.718 7  85258855.72646                  20821075.109
  20821079.398                          43.900          36.600
 120329198.437 6  93763084.55745  89856288.855 7  22897893.328
  22897902.758    22897901.539          36.000          34.600          45.300
 127404296.069 5  99276103.16342                  24244233.008
  24244238.734                          33.800          17.400
 117893946.654 6  91865457.23144                  22434477.781
  22434483.168                          39.400          24.700
 123565840.632 7                  92273214.559 8  23513795.258
                  23513800.289          47.500                          50.400
 129783654.445 6                  96916393.101 7  24697008.063
                  24697013.383          39.800                          42.700
 134110877.468 6                 100147756.366 7  25520450.805
                  25520456.500          41.200                          45.200
 123481450.773 7                  92210190.989 8  23497739.656
                  23497745.320          45.000                          48.100
 121492183.876 7                  90724710.197 8  23119191.945
                  23119198.270          46.300                          51.300
 20  7  6  0  0 38.0000000  0 19G08G27R11R24G30G09R23R13G07R12G11G01
                                G21G16E27E14E13E30E15
 107044699.569 7  83411502.55548  79936018.537 8  20369933.070
  20369940.746    20369940.121          46.100          51.100          52.600
 113322409.503 7  88303214.90447  84623909.897 8  21564539.188
  21564546.762    21564546.285          42.000          44.200          49.300
 122953320.236 5  95630361.790 6                  23009038.195    23009037.605
  23009043.184                          34.100          36.400
 121357749.817 6  94389381.962 6                  22694509.211    22694508.898
  22694514.699                          36.800          36.400
 125648153.158 5  97907671.44644  93828180.629 7  23910042.016
  23910049.801    23910050.355          32.600          28.700          42.800
 129022844.738 5 100537285.23344  96348235.948 6  24552233.633
  24552240.977    24552241.664          31.900          25.200          40.800
 105601647.435 7  82134651.129 6                  19741112.320    19741111.520
  19741119.344                          46.000          40.400
 107850695.712 5  83883902.119 6                  20196975.352    20196972.691
  20196977.457                          33.300          40.100
 114080332.216 6  88893730.84647                  21708750.188
  21708755.520                          41.400          43.600
 104651270.102 7  81395479.890 7                  19590941.867    19590941.234
  19590945.953                          45.300          46.300
 109413513.756 7  85257254.46445                  20820683.422
  20820688.492                          44.100          35.900
 120325410.036 6  93760132.55945  89853459.818 7  22897172.789
  22897181.910    22897180.492          36.500          34.400          45.100
 127407154.798 5  99278330.76543                  24244777.094
  24244782.684                          33.700          18.300
 117896078.717 6  91867118.56844                  22434883.211
  22434888.906                          39.400          26.400
 123564913.441 7                  92272522.175 8  23513618.852
                  23513623.758          47.600                          50.400
 129777877.122 6                  96912078.862 7  24695908.500
                  24695913.895          39.800                          43.000
 134108155.412 6                 100145723.645 7  25519932.641
                  25519938.426          41.500                          45.000
 123482858.449 7                  92211242.169 7  23498007.398
                  23498013.078          44.900                          47.700
 121491753.983 7                  90724389.172 8  23119110.125
                  23119116.523          46.400                          51.400
 20  7  6  0  0 39.0000000  0 19G08G27R11R24G30G09R23R13G07R12G11G01
                                G21G16E27E14E13E30E15
 107045275.974 7  83411951.71148  79936448.976 8  20370043.016
  20370050.488    20370049.691          46.100          51.100          52.600
 113324761.030 6  88305047.26747  84625665.912 8  21564987.070
  21564994.199    21564993.754          41.700          44.500          49.200
 122956931.770 5  95633170.777 6                  23009713.477    23009713.305
  23009719.039                          34.200          36.000
 121353889.016 6  94386379.111 6                  22693786.773    22693787.414
  22693792.754                          36.700          36.400
 125645008.760 5  97905221.26844  93825832.537 7  23909443.344
  23909451.516    23909452.191          33.300          27.700          43.400
 129025278.979 5 100539182.05144  96350053.727 6  24552696.344
  24552704.227    24552705.047          31.600          25.100          40.800
 105599644.652 7  82133093.413 6                  19740738.180    19740737.082
  19740744.953                          46.000          40.100
 107848109.713 5  83881890.818 6                  20196490.164    20196488.398
  20196493.383                          32.400          40.400
 114078409.425 6  88892232.57447                  21708384.531
  21708389.602                          41.600          43.500
 104652446.281 7  81396394.688 7                  19591161.656    19591161.418
  19591166.082                          45.300          46.300
 109411459.292 7  85255653.58546                  20820292.391
  20820297.500                          44.500          36.000
 120321621.819 6  93757180.69345  89850630.978 7  22896451.266
  22896461.004    22896459.430          36.200          34.200          45.200
 127410013.747 5  99280558.49342                  24245321.109
  24245326.746                          33.000          17.400
 117898210.986 6  91868780.08244                  22435289.414
  22435294.477                          39.200          26.100
 123563986.458 7                  92271829.952 8  23513442.469
                  23513447.520          47.500                          50.500
 129772099.757 6                  96907764.565 7  24694809.000
                  24694814.613          39.700                          42.700
 134105433.594 6                 100143691.115 7  25519414.852
                  25519420.508          41.200                          45.000
 123484266.362 7                  92212293.525 7  23498275.516
                  23498281.078          45.000                          47.600
 121491324.546 7                  90724068.492 8  23119028.492
                  23119034.688          46.200                          51.100
 20  7  6  0  0 40.0000000  0 19G08G27R11R24G30G09R23R13G07R12G11G01
                                G21G16E27E14E13E30E15
 107045852.723 7  83412401.12248  79936879.648 8  20370152.805
  20370160.262    20370159.535          46.100          51.200          52.500
 113327112.717 6  88306879.74447  84627422.042 8  21565434.320
  21565441.777    21565441.305          41.600          44.300          49.100
 122960543.615 5  95635979.973 5                  23010388.914    23010389.785
  23010394.969                          34.400          35.900
 121350028.454 6  94383376.455 6                  22693064.516    22693065.246
  22693070.707                          36.800          36.200
 125641864.604 5  97902771.28544  93823484.626 7  23908844.852
  23908853.145    23908853.805          33.000          28.100          43.500
 129027713.263 5 100541078.89044  96351871.547 6  24553158.672
  24553167.605    24553168.219          31.000          25.600          41.100
 105597642.544 7  82131536.220 6                  19740363.633    19740362.793
  19740370.668                          45.200          40.500
 107845524.184 5  83879879.841 6                  20196006.711    20196003.566
  20196009.082                          32.800          40.500
 114076487.152 6  88890734.70247                  21708018.563
  21708023.836                          41.600          43.600
 104653623.083 7  81397309.992 7                  19591382.563    19591381.586
  19591386.254                          45.200          46.400
 109409405.286 7  85254053.05845                  20819901.891
  20819906.746                          44.200          35.800
 120317833.768 6  93754228.97145  89847802.256 7  22895730.477
  22895740.152    22895738.828          36.200          34.400          45.600
 127412872.924 5  99282786.39442                  24245864.656
  24245870.859                          32.600          16.900
 117900343.417 6  91870441.70244                  22435695.211
  22435700.465                          39.500          24.800
 123563059.663 7                  92271137.864 8  23513265.984
                  23513271.117          47.600                          50.500
 129766322.271 6                  96903450.237 7  24693709.430
                  24693715.016          39.900                          42.800
 134102711.934 6                 100141658.721 7  25518896.906
                  25518902.586          41.200                          44.900
 123485674.495 7                  92213345.060 8  23498543.398
                  23498548.977          44.700                          48.000
 121490895.541 7                  90723748.128 8  23118946.719
                  23118953.219          46.300                          51.200
 20  7  6  0  0 41.0000000  0 19G08G27R11R24G30G09R23R13G07R12G11G01
                                G21G16E27E14E13E30E15
 107046429.858 7  83412850.83448  79937310.634 8  20370262.563
  20370270.055    20370269.273          45.900          51.000          52.700
 113329464.661 6  88308712.42447  84629178.353 8  21565881.625
  21565889.367    21565888.785          41.600          44.200          49.100
 122964155.815 5  95638789.486 5                  23011066.305    23011065.664
  23011071.043                          34.400          35.800
 121346168.226 6  94380374.054 6                  22692343.063    22692343.523
  22692348.746                          36.900          36.200
 125638720.721 5  97900321.50244  93821136.963 7  23908247.633
  23908254.906    23908255.605          32.800          28.000          43.300
 129030147.828 5 100542975.96044  96353689.517 6  24553621.883
  24553630.980    24553631.371          31.200          25.300          40.600
 105595641.178 7  82129979.600 6                  19739989.703    19739988.559
  19739996.465                          45.300          40.400
 107842939.107 5  83877869.203 6                  20195521.133    20195519.914
  20195525.086                          33.000          40.600
 114074565.420 6  88889237.24047                  21707652.938
  21707658.227                          41.400          43.400
 104654800.566 7  81398225.808 7                  19591602.859    19591602.184
  19591606.777                          45.400          46.900
 109407351.806 7  85252452.94346                  20819510.672
  20819515.941                          43.500          36.200
 120314045.973 6  93751277.44345  89844973.721 7  22895009.938
  22895019.305    22895017.863          36.600          34.700          45.400
 127415732.419 5  99285014.59342                  24246409.070
  24246414.957                          32.900          17.800
 117902476.080 6  91872103.52544                  22436101.250
  22436106.172                          39.000          25.800
 123562133.111 7                  92270445.951 8  23513089.680
                  23513094.617          47.000                          50.600
 129760544.788 6                  96899135.891 7  24692610.492
                  24692615.574          39.500                          43.000
 134099990.593 6                 100139626.526 7  25518379.023
                  25518384.629          41.100                          45.300
 123487082.900 7                  92214396.795 7  23498811.141
                  23498817.078          44.600                          47.500
 121490467.009 7                  90723428.139 8  23118865.234
                  23118871.566          46.500                          51.300
 20  7  6  0  0 42.0000000  0 19G08G27R11R24G30G09R23R13G07R12G11G01
                                G21G16E27E14E13E30E15
 107047007.361 7  83413300.83648  79937741.887 8  20370372.430
  20370379.969    20370379.188          46.100          51.100          52.600
 113331816.779 6  88310545.24547  84630934.801 8  21566329.695
  21566336.965    21566336.430          41.100          44.200          49.200
 122967768.403 5  95641599.255 6                  23011742.391    23011741.648
  23011747.109                          34.000          36.100
 121342308.300 6  94377371.873 6                  22691621.766    22691621.770
  22691626.996                          36.900          36.200
 125635577.175 5  97897871.99144  93818789.477 7  23907648.563
  23907656.840    23907657.508          33.000          27.100          42.800
 129032582.386 5 100544873.01344  96355507.583 6  24554085.859
  24554094.105    24554094.695          31.500          25.400          40.600
 105593640.493 7  82128423.513 6                  19739615.500    19739614.539
  19739622.539                          45.600          40.200
 107840354.431 5  83875858.926 6                  20195037.586    20195036.066
  20195041.141                          32.800          40.400
 114072644.208 7  88887740.19947                  21707286.938
  21707292.727                          42.000          43.500
 104655978.695 7  81399142.123 7                  19591823.148    19591822.777
  19591827.398                          45.500          46.500
 109405298.821 7  85250853.20646                  20819120.180
  20819125.180                          43.700          36.100
 120310258.438 6  93748326.12245  89842145.347 7  22894289.289
  22894298.809    22894296.973          36.600          34.700          45.400
 127418592.138 5  99287242.92943                  24246953.023
  24246959.164                          33.500          18.300
 117904608.931 6  91873765.48644                  22436507.164
  22436511.992                          39.100          27.000
 123561206.765 7                  92269754.193 8  23512913.430
                  23512918.313          47.300                          50.400
 129754767.268 6                  96894821.500 7  24691510.617
                  24691516.086          39.600                          43.000
 134097269.439 6                 100137594.509 7  25517861.125
                  25517866.867          41.200                          45.300
 123488491.548 7                  92215448.706 7  23499079.383
                  23499084.996          44.600                          47.300
 121490038.938 7                  90723108.462 8  23118783.883
                  23118790.234          46.500                          51.500
 20  7  6  0  0 43.0000000  0 19G08G27R11R24G30G09R23R13G07R12G11G01
                                G21G16E27E14E13E30E15
 107047585.256 7  83413751.14748  79938173.422 8  20370482.289
  20370489.879    20370489.160          46.100          51.000          52.500
 113334169.119 6  88312378.23547  84632691.422 8  21566776.813
  21566784.680    21566784.063          41.000          44.300          49.300
 122971381.234 5  95644409.216 5                  23012418.273    23012417.770
  23012423.129                          34.100          35.900
 121338448.720 6  94374369.987 6                  22690898.555    22690899.785
  22690905.031                          36.700          36.500
 125632433.882 5  97895422.66044  93816442.214 7  23907050.805
  23907058.641    23907059.223          32.900          26.600          42.900
 129035017.174 5 100546770.23543  96357325.764 6  24554549.180
  24554557.277    24554557.883          31.300          23.900          41.300
 105591640.515 7  82126867.976 6                  19739241.773    19739241.086
  19739248.500                          45.700          40.400
 107837770.214 5  83873848.969 6                  20194553.461    20194551.773
  20194557.195                          33.000          40.400
 114070723.534 7  88886243.56247                  21706921.398
  21706927.039                          42.400          43.500
 104657157.506 7  81400058.973 7                  19592044.039    19592043.414
  19592048.012                          45.600          46.400
 109403246.297 7  85249253.84245                  20818729.922
  20818734.566                          43.700          35.800
 120306471.067 6  93745374.92945  89839317.119 7  22893568.109
  22893578.191    22893576.320          36.500          34.200          45.800
 127421452.133 5  99289471.52142                  24247497.508
  24247503.473                          33.200          17.400
 117906741.998 6  91875427.60144                  22436912.742
  22436917.961                          38.900          26.400
 123560280.617 7                  92269062.595 8  23512737.289
                  23512742.191          47.800                          50.300
 129748989.700 6                  96890507.057 7  24690410.992
                  24690416.449          39.300                          42.600
 134094548.509 6                 100135562.653 7  25517343.641
                  25517349.152          41.100                          45.100
 123489900.438 7                  92216500.797 7  23499347.516
                  23499353.121          44.600                          47.100
 121489611.322 7                  90722789.141 8  23118702.414
                  23118708.750          46.600                          51.300
 20  7  6  0  0 44.0000000  0 19G08G27R11R24G30G09R23R13G07R12G11G01
                                G21G16E27E14E13E30E15
 107048163.553 7  83414201.76648  79938605.279 8  20370592.078
  20370599.984    20370599.262          46.000          51.100          52.500
 113336521.688 6  88314211.41147  84634448.208 8  21567224.602
  21567232.242    21567231.652          41.400          44.300          49.000
 122974994.367 5  95647219.434 5                  23013093.531    23013093.813
  23013099.305                          34.200          35.900
 121334589.517 6  94371368.368 6                  22690178.578    22690177.996
  22690183.539                          36.900          36.400
 125629290.913 5  97892973.60244  93814095.186 7  23906453.063
  23906460.516    23906461.340          33.100          27.800          42.700
 129037452.105 5 100548667.59244  96359144.047 6  24555011.758
  24555020.582    24555021.543          31.800          24.800          41.300
 105589641.294 7  82125313.028 6                  19738868.594    19738866.934
  19738874.875                          45.900          40.700
 107835186.440 5  83871839.408 6                  20194069.539    20194068.051
  20194073.258                          32.900          40.400
 114068803.406 7  88884747.36447                  21706556.305
  21706561.660                          42.000          43.500
 104658337.054 7  81400976.410 7                  19592265.141    19592264.242
  19592268.828                          45.600          46.700
 109401194.337 7  85247654.91745                  20818339.398
  20818344.156                          43.400          35.700
 120302684.004 6  93742423.97245  89836489.108 7  22892847.461
  22892857.484    22892855.727          36.000          34.100          45.400
 127424312.352 5  99291700.26142                  24248042.008
  24248047.938                          33.000          16.300
 117908875.273 6  91877089.90444                  22437318.875
  22437324.008                          39.100          26.400
 123559354.716 7                  92268371.180 8  23512560.961
                  23512565.961          47.600                          50.400
 129743212.073 6                  96886192.609 7  24689311.977
                  24689317.023          39.300                          42.400
 134091827.874 6                 100133530.999 7  25516825.703
                  25516831.398          41.100                          44.900
 123491309.628 7                  92217553.115 7  23499615.789
                  23499621.438          44.200                          47.500
 121489184.205 7                  90722470.177 8  23118621.172
                  23118627.496          46.600                          51.000
 20  7  6  0  0 45.0000000  0 19G08G27R11R24G30G09R23R13G07R12G11G01
                                G21G16E27E14E13E30E15
 107048742.179 7  83414652.64948  79939037.372 8  20370702.289
  20370710.152    20370709.293          46.300          50.900          52.500
 113338874.428 6  88316044.71247  84636205.115 8  21567672.961
  21567680.086    21567679.414          41.400          44.200          49.200
 122978607.857 5  95650029.936 6                  23013771.039    23013769.922
  23013775.598                          34.500          36.000
 121330730.531 6  94368366.965 5                  22689457.172    22689456.727
  22689461.887                          37.100          35.700
 125626148.176 5  97890524.71544  93811748.345 7  23905854.570
  23905862.684    23905863.203          32.600          26.400          43.000
 129039887.166 5 100550565.04644  96360962.436 6  24555474.961
  24555483.992    24555484.816          31.200          24.700          41.400
 105587642.751 7  82123758.598 6                  19738493.656    19738493.484
  19738501.191                          45.700          40.400
 107832603.049 5  83869830.067 6                  20193585.883    20193584.238
  20193589.500                          32.900          39.900
 114066883.766 6  88883251.53547                  21706190.875
  21706196.508                          41.400          43.400
 104659517.248 7  81401894.328 7                  19592485.352    19592485.293
  19592489.863                          45.700          45.700
 109399142.824 7  85246056.33146                  20817949.406
  20817953.730                          43.500          36.000
 120298897.099 5  93739473.12745  89833661.221 7  22892127.781
  22892136.688    22892135.078          35.900          33.900          45.600
 127427172.947 5  99293929.28442                  24248586.758
  24248592.230                          33.300          17.400
 117911008.736 6  91878752.33444                  22437725.031
  22437729.824                          38.800          25.900
 123558428.995 7                  92267679.898 8  23512384.883
                  23512389.914          47.500                          50.300
 129737434.406 6                  96881878.128 7  24688212.305
                  24688217.430          39.100                          42.800
 134089107.427 6                 100131499.499 7  25516307.969
                  25516313.691          41.100                          44.700
 123492719.023 7                  92218605.580 7  23499884.109
                  23499889.566          44.900                          47.400
 121488757.477 7                  90722151.538 8  23118540.141
                  23118546.230          46.200                          51.000
 20  7  6  0  0 46.0000000  0 19G08G27R11R24G30G09R23R13G07R12G11G01
                                G21G16E27E14E13E30E15
 107049321.197 7  83415103.83148  79939469.748 8  20370812.719
  20370820.301    20370819.590          46.000          51.000          52.500
 113341227.371 7  88317878.17647  84637962.191 8  21568120.719
  21568127.777    21568127.203          42.000          44.200          49.300
 122982221.628 5  95652840.610 6                  23014447.930    23014445.828
  23014451.980                          33.700          36.200
 121326871.980 6  94365365.874 6                  22688735.031    22688734.973
  22688740.184                          37.200          36.400
 125623005.688 5  97888076.02144  93809401.703 7  23905256.594
  23905264.586    23905265.066          32.900          27.100          43.300
 129042322.366 5 100552462.60244  96362780.915 6  24555938.734
  24555947.281    24555948.340          31.800          26.900          41.300
 105585644.930 7  82122204.755 6                  19738120.406    19738119.824
  19738127.625                          45.600          40.300
 107830020.111 5  83867821.134 6                  20193101.781    20193100.457
  20193105.906                          32.900          40.000
 114064964.671 6  88881756.14047                  21705825.734
  21705831.207                          41.200          43.600
 104660698.075 7  81402812.745 7                  19592706.516    19592706.098
  19592710.871                          45.800          46.300
 109397091.802 7  85244458.13346                  20817558.594
  20817563.664                          43.400          36.200
 120295110.425 5  93736522.48345  89830833.511 7  22891407.078
  22891416.063    22891414.316          35.700          34.600          45.200
 127430033.717 5  99296158.49042                  24249131.070
  24249136.539                          33.300          16.900
 117913142.421 6  91880414.94744                  22438130.547
  22438135.871                          39.200          25.600
 123557503.506 7                  92266988.776 8  23512208.898
                  23512213.672          47.400                          50.400
 129731656.689 6                  96877563.607 7  24687112.891
                  24687117.945          39.200                          42.700
 134086387.190 6                 100129468.176 7  25515790.344
                  25515796.129          40.700                          44.600
 123494128.650 7                  92219658.244 7  23500152.305
                  23500157.730          44.900                          47.400
 121488331.239 7                  90721833.242 8  23118459.016
                  23118465.152          45.900                          51.000
 20  7  6  0  0 47.0000000  0 19G08G27R11R24G30G09R23R13G07R12G11G01
                                G21G16E27E14E13E30E15
 107049900.591 7  83415555.30348  79939902.415 8  20370922.852
  20370930.500    20370929.703          46.200          51.000          52.700
 113343580.553 6  88319711.82147  84639719.434 8  21568568.164
  21568575.613    21568575.094          41.700          44.300          49.200
 122985835.731 5  95655651.590 5                  23015123.734    23015121.801
  23015128.438                          33.700          35.600
 121323013.737 6  94362365.018 6                  22688013.758    22688013.605
  22688018.809                          37.300          36.300
 125619863.577 5  97885627.62044  93807055.291 7  23904658.875
  23904666.668    23904667.223          32.500          28.200          43.200
 129044757.747 5 100554360.30744  96364599.539 6  24556401.000
  24556410.840    24556411.574          31.600          26.100          41.400
 105583647.849 7  82120651.451 6                  19737747.594    19737746.609
  19737754.246                          45.400          40.200
 107827437.612 5  83865812.566 6                  20192619.391    20192616.992
  20192622.371                          32.400          40.100
 114063046.135 6  88880261.17647                  21705460.750
  21705466.203                          41.400          43.400
 104661879.571 7  81403731.692 7                  19592928.289    19592927.352
  19592932.023                          45.800          46.700
 109395041.319 7  85242860.35245                  20817168.445
  20817173.344                          43.600          35.700
 120291323.974 5  93733571.99745  89828005.981 7  22890685.977
  22890695.703    22890693.832          35.800          34.500          45.500
 127432894.786 5  99298387.87142                  24249675.000
  24249680.934                          33.300          16.900
 117915276.327 6  91882077.73344                  22438537.070
  22438541.930                          38.900          24.600
 123556578.245 7                  92266297.840 8  23512032.742
                  23512037.691          47.300                          50.700
 129725878.950 6                  96873249.039 7  24686013.219
                  24686018.230          39.400                          42.800
 134083667.257 6                 100127437.034 7  25515272.766
                  25515278.559          41.200                          44.900
 123495538.594 7                  92220711.104 7  23500420.500
                  23500426.098          44.700                          47.900
 121487905.470 7                  90721515.297 8  23118377.992
                  23118384.242          46.000                          51.000
 20  7  6  0  0 48.0000000  0 19G08G27R11R24G30G09R23R13G07R12G11G01
                                G21G16E27E14E13E30E15
 107050480.313 7  83416007.03548  79940335.326 8  20371032.938
  20371040.918    20371040.086          46.100          51.000          52.500
 113345933.901 7  88321545.59747  84641476.798 8  21569016.078
  21569023.402    21569022.867          42.200          44.100          49.200
 122989450.124 5  95658462.791 6                  23015798.781    23015798.340
  23015804.926                          34.100          36.100
 121319155.793 6  94359364.373 6                  22687292.453    22687291.938
  22687297.191                          37.500          36.500
 125616721.677 5  97883179.40844  93804709.053 7  23904060.766
  23904068.887    23904069.348          33.200          27.000          42.800
 129047193.184 5 100556258.03344  96366418.218 6  24556864.680
  24556874.211    24556875.078          32.200          26.000          41.500
 105581651.447 7  82119098.701 6                  19737374.031    19737373.039
  19737381.055                          45.800          40.400
 107824855.533 5  83863804.252 6                  20192135.633    20192133.992
  20192138.773                          32.800          40.200
 114061128.080 6  88878766.58447                  21705095.570
  21705101.074                          41.300          43.500
 104663061.714 7  81404651.127 7                  19593148.844    19593148.520
  19593153.352                          46.000          46.300
 109392991.285 7  85241262.92846                  20816778.133
  20816783.172                          43.700          36.600
 120287537.701 5  93730621.65945  89825178.582 7  22889965.203
  22889975.105    22889973.324          35.500          34.900          45.800
 127435756.070 5  99300617.45343                  24250219.641
  24250225.391                          33.600          18.300
 117917410.356 6  91883740.61744                  22438942.852
  22438948.039                          39.200          26.000
 123555653.143 7                  92265607.022 8  23511856.742
                  23511861.602          47.300                          50.900
 129720101.137 6                  96868934.447 7  24684914.086
                  24684919.074          39.600                          42.700
 134080947.485 6                 100125406.048 7  25514755.195
                  25514761.012          40.800                          45.000
 123496948.718 7                  92221764.124 7  23500688.727
                  23500694.324          44.900                          47.900
 121487480.132 7                  90721197.665 8  23118296.922
                  23118303.258          46.300                          51.200
 20  7  6  0  0 49.0000000  0 19G08G27R11R24G30G09R23R13G07R12G11G01
                                G21G16E27E14E13E30E15
 107051060.431 7  83416459.07148  79940768.538 8  20371143.477
  20371151.227    20371150.473          45.500          51.100          52.500
 113348287.441 6  88323379.52747  84643234.337 8  21569463.531
  21569471.262    21569470.691          41.900          44.300          49.100
 122993064.843 5  95661274.226 6                  23016474.250    23016474.398
  23016481.336                          33.900          36.600
 121315298.158 6  94356363.983 6                  22686570.742    22686570.703
  22686575.766                          37.100          36.300
 125613580.034 5  97880731.37344  93802363.051 7  23903463.813
  23903470.984    23903471.637          32.400          27.500          42.500
 129049628.798 5 100558155.92344  96368237.008 6  24557329.234
  24557337.766    24557338.594          31.600          25.400          41.500
 105579655.767 7  82117546.503 6                  19737001.461    19737000.395
  19737007.996                          45.900          40.400
 107822273.843 5  83861796.277 6                  20191651.602    20191649.938
  20191655.441                          32.200          40.500
 114059210.543 6  88877272.39947                  21704731.016
  21704736.332                          41.100          43.400
 104664244.539 7  81405571.101 7                  19593370.742    19593369.992
  19593374.746                          46.200          46.600
 109390941.747 7  85239665.88946                  20816388.164
  20816393.207                          43.700          36.700
 120283751.712 6  93727671.53645  89822351.352 7  22889245.195
  22889254.695    22889252.859          36.200          34.900          45.900
 127438617.598 5  99302847.18142                  24250764.719
  24250769.883                          33.200          17.800
 117919544.644 6  91885403.69744                  22439349.180
  22439354.227                          39.200          25.700
 123554728.281 7                  92264916.379 8  23511680.563
                  23511685.727          47.300                          50.300
 129714323.288 6                  96864619.808 7  24683814.172
                  24683819.488          39.600                          42.600
 134078227.970 6                 100123375.250 7  25514237.680
                  25514243.473          41.200                          44.900
 123498359.107 7                  92222817.335 7  23500957.344
                  23500962.730          44.900                          47.700
 121487055.240 7                  90720880.388 8  23118216.117
                  23118222.328          46.300                          51.400
 20  7  6  0  0 50.0000000  0 19G08G27R11R24G30G09R23R13G07R12G11G01
                                G21G16E27E14E13E30E15
 107051640.912 7  83416911.39848  79941202.009 8  20371254.070
  20371261.629    20371260.969          45.500          51.000          52.800
 113350641.226 7  88325213.64147  84644992.012 8  21569911.844
  21569919.277    21569918.609          42.000          44.300          49.300
 122996679.882 5  95664085.939 6                  23017150.438    23017151.035
  23017157.910                          34.300          36.700
 121311440.816 6  94353363.869 6                  22685849.820    22685849.270
  22685854.207                          37.300          36.200
 125610438.672 5  97878283.54044  93800017.230 7  23902865.516
  23902873.254    23902873.734          32.200          26.900          42.600
 129052064.574 5 100560053.91344  96370055.913 6  24557793.039
  24557801.410    24557802.133          31.500          26.000          41.700
 105577660.794 7  82115994.861 6                  19736628.695    19736627.223
  19736635.074                          45.800          39.900
 107819692.666 5  83859788.689 6                  20191169.023    20191166.723
  20191172.082                          32.600          40.400
 114057293.566 6  88875778.65647                  21704365.945
  21704371.500                          41.300          43.400
 104665428.046 7  81406491.611 7                  19593592.539    19593591.805
  19593596.355                          46.000          46.500
 109388892.696 7  85238069.22546                  20815998.031
  20816003.320                          43.300          36.700
 120279965.890 6  93724721.54445  89819524.298 7  22888524.383
  22888534.246    22888532.285          36.000          34.600          46.000
 127441479.415 5  99305077.18142                  24251309.453
  24251314.477                          33.600          17.400
 117921679.103 6  91887066.92244                  22439755.578
  22439760.453                          39.300          26.200
 123553803.634 7                  92264225.886 8  23511504.836
                  23511509.680          47.200                          50.600
 129708545.362 6                  96860305.123 7  24682714.766
                  24682719.766          39.600                          42.500
 134075508.681 6                 100121344.606 7  25513720.313
                  25513726.074          40.900                          45.000
 123499769.752 7                  92223870.729 7  23501225.508
                  23501231.168          44.700                          47.900
 121486630.817 7                  90720563.437 8  23118135.227
                  23118141.598          46.600                          51.200
 20  7  6  0  0 51.0000000  0 19G08G27R11R24G30G09R23R13G07R12G11G01
                                G21G16E27E14E13E30E15
 107052221.747 7  83417363.99448  79941635.751 8  20371364.547
  20371372.211    20371371.469          45.400          51.100          52.600
 113352995.179 7  88327047.88547  84646749.827 8  21570359.719
  21570367.184    21570366.582          42.100          44.100          49.300
 123000295.196 5  95666897.822 6                  23017829.500    23017827.504
  23017834.434                          33.800          36.000
 121307583.853 6  94350364.011 6                  22685128.422    22685128.313
  22685132.953                          37.400          36.400
 125607297.640 5  97875835.99344  93797671.620 7  23902267.313
  23902275.445    23902275.973          31.800          26.100          42.600
 129054500.421 5 100561951.98144  96371874.902 6  24558256.109
  24558265.039    24558265.680          31.900          26.200          41.600
 105575666.521 7  82114443.759 6                  19736256.156    19736254.230
  19736262.340                          45.700          39.600
 107817111.841 5  83857781.343 6                  20190685.289    20190683.402
  20190688.750                          32.100          40.600
 114055377.091 6  88874285.30147                  21704001.555
  21704006.770                          41.400          43.600
 104666612.195 7  81407412.614 7                  19593813.391    19593813.305
  19593818.043                          46.200          46.500
 109386844.153 7  85236472.95646                  20815608.359
  20815613.441                          43.600          36.300
 120276180.311 5  93721771.73745  89816697.398 7  22887803.969
  22887813.832    22887811.957          35.500          35.000          45.700
 127444341.474 5  99307307.32442                  24251854.352
  24251859.047                          33.700          16.900
 117923813.783 6  91888730.30544                  22440161.430
  22440166.617                          39.500          26.900
 123552879.182 7                  92263535.555 8  23511328.773
                  23511333.770          46.800                          50.500
 129702767.406 6                  96855990.425 7  24681615.070
                  24681620.484          39.100                          42.600
 134072789.619 6                 100119314.142 7  25513202.711
                  25513208.746          41.400                          44.700
 123501180.626 7                  92224924.320 7  23501494.164
                  23501499.621          44.900                          47.700
 121486206.831 7                  90720246.832 8  23118054.656
                  23118060.961          46.700                          51.300
 20  7  6  0  0 52.0000000  0 19G08G27R11R24G30G09R23R13G07R12G11G01
                                G21G16E27E14E13E30E15
 107052802.976 7  83417816.89948  79942069.774 8  20371474.891
  20371482.879    20371482.066          45.600          51.000          52.700
 113355349.333 7  88328882.29247  84648507.823 8  21570807.008
  21570815.207    21570814.508          42.100          44.300          49.100
 123003910.823 5  95669709.986 6                  23018505.688    23018504.254
  23018511.109                          34.100          36.200
 121303727.246 6  94347364.406 6                  22684406.117    22684407.199
  22684411.734                          37.300          36.500
 125604156.839 5  97873388.60344  93795326.247 7  23901669.641
  23901677.684    23901678.246          32.200          26.700          42.600
 129056936.437 5 100563850.17644  96373694.013 6  24558720.102
  24558728.609    24558729.133          31.200          25.000          41.700
 105573672.961 7  82112893.216 6                  19735882.953    19735881.887
  19735889.582                          45.700          39.900
 107814531.472 5  83855774.449 6                  20190202.570    20190200.164
  20190205.555                          32.800          40.800
 114053461.151 6  88872792.35747                  21703636.617
  21703642.156                          41.500          43.500
 104667797.008 7  81408334.135 7                  19594035.242    19594035.031
  19594039.758                          46.000          46.600
 109384796.109 7  85234877.07846                  20815218.445
  20815223.777                          43.400          36.600
 120272394.966 5  93718822.12845  89813870.674 7  22887083.523
  22887093.590    22887091.504          35.500          34.000          45.300
 127447203.797 5  99309537.75343                  24252398.852
  24252403.781                          33.300          18.600
 117925948.666 6  91890393.84444                  22440567.945
  22440572.895                          39.500          25.600
 123551954.942 7                  92262845.381 8  23511152.797
                  23511157.980          46.900                          50.300
 129696989.408 6                  96851675.681 7  24680515.445
                  24680520.742          39.300                          42.300
 134070070.824 6                 100117283.854 7  25512685.609
                  25512691.133          41.600                          44.800
 123502591.766 7                  92225978.089 7  23501762.570
                  23501768.145          44.600                          47.500
 121485783.340 7                  90719930.581 8  23117973.961
                  23117980.367          46.600                          50.800
 20  7  6  0  0 53.0000000  0 19G08G27R11R24G30G09R23R13G07R12G11G01
                                G21G16E27E14E13E30E15
 107053384.547 7  83418270.06548  79942504.058 8  20371585.953
  20371593.551    20371592.727          45.600          51.100          52.800
 113357703.714 6  88330716.87547  84650265.948 8  21571255.234
  21571263.246    21571262.410          41.800          44.400          49.100
 123007526.766 5  95672522.393 5                  23019181.875    23019180.953
  23019187.652                          34.200          35.800
 121299870.955 6  94344365.074 6                  22683685.602    22683685.820
  22683690.574                          37.600          36.400
 125601016.339 5  97870941.46144  93792981.075 7  23901072.031
  23901080.113    23901080.453          32.500          27.000          42.600
 129059372.62115 100565748.48954  96375513.224 6  24559184.156
  24559192.102    24559192.734          31.300          24.800          41.300
 105571680.115 7  82111343.214 6                  19735510.539    19735509.109
  19735517.063                          45.800          40.200
 107811951.556 5  83853767.815 6                  20189718.695    20189716.898
  20189722.469                          32.600          40.500
 114051545.747 6  88871299.82647                  21703272.188
  21703277.621                          41.700          43.500
 104668982.491 7  81409256.177 7                  19594257.484    19594257.238
  19594261.836                          46.000          46.400
 109382748.548 7  85233281.57946                  20814829.117
  20814834.082                          43.800          36.300
 120268609.824 5  93715872.65845  89811044.119 7  22886363.828
  22886373.051    22886371.445          35.500          34.400          45.400
 127450066.386 5  99311768.30942                  24252943.594
  24252948.418                          33.800          17.400
 117928083.739 6  91892057.53444                  22440974.148
  22440979.203                          39.500          26.300
 123551030.944 7                  92262155.371 8  23510977.102
                  23510982.156          46.800                          50.400
 129691211.397 6                  96847360.916 7  24679416.008
                  24679421.219          38.900                          42.200
 134067352.209 6                 100115253.750 7  25512168.078
                  25512173.852          41.000                          45.000
 123504003.148 7                  92227032.034 7  23502031.258
                  23502036.809          44.900                          47.800
 121485360.279 7                  90719614.666 8  23117893.695
                  23117899.898          46.800                          51.000
 20  7  6  0  0 54.0000000  0 19G08G27R11R24G30G09R23R13G07R12G11G01
                                G21G16E27E14E13E30E15
 107053966.479 7  83418723.52948  79942938.624 8  20371696.750
  20371704.473    20371703.457          45.300          50.900          52.800
 113360058.296 7  88332551.61647  84652024.229 8  21571703.359
  21571711.227    21571710.703          42.000          44.100          49.100
 123011143.094 5  95675335.074 5                  23019857.391    23019857.770
  23019864.242                          34.400          35.600
 121296014.918 6  94341365.932 6                  22682964.922    22682964.570
  22682969.387                          37.300          36.900
 125597876.137 5  97868494.55544  93790636.099 7  23900474.555
  23900482.563    23900483.086          32.400          26.600          42.800
 129061808.923 5 100567646.90844  96377332.560 6  24559647.063
  24559655.766    24559656.684          31.800          24.600          41.700
 105569687.988 7  82109793.793 6                  19735137.820    19735136.949
  19735144.691                          45.800          40.000
 107809372.061 5  83851761.548 6                  20189236.234    20189234.207
  20189239.441                          33.200          40.300
 114049630.865 6  88869807.71547                  21702907.477
  21702913.250                          41.700          43.200
 104670168.655 7  81410178.755 7                  19594480.227    19594479.152
  19594483.770                          46.000          46.500
 109380701.490 7  85231686.47546                  20814439.688
  20814444.703                          43.900          36.300
 120264824.940 5  93712923.39945  89808217.731 7  22885643.055
  22885652.730    22885651.016          35.800          34.300          45.100
 127452929.230 5  99313999.10642                  24253487.773
  24253493.320                          33.400          17.800
 117930219.022 6  91893721.39744                  22441380.539
  22441385.516                          39.200          24.700
 123550107.132 7                  92261465.515 8  23510801.438
                  23510806.301          46.800                          50.600
 129685433.276 6                  96843046.106 7  24678316.367
                  24678321.789          39.100                          42.600
 134064633.859 6                 100113223.808 7  25511650.625
                  25511656.539          41.000                          45.100
 123505414.792 7                  92228086.176 7  23502299.758
                  23502305.375          44.800                          47.900
 121484937.675 7                  90719299.085 8  23117813.188
                  23117819.457          47.000                          51.000
 20  7  6  0  0 55.0000000  0 19G08G27R11R24G30G09R23R13G07R12G11G01
                                G21G16E27E14E13E30E15
 107054548.749 7  83419177.23948  79943373.439 8  20371807.195
  20371814.988    20371814.277          45.800          50.900          52.900
 113362413.052 6  88334386.48747  84653782.647 8  21572151.672
  21572159.453    21572158.566          41.600          44.200          49.000
 123014759.627 5  95678147.954 5                  23020533.406    23020534.684
  23020541.066                          34.400          35.900
 121292159.215 6  94338367.037 5                  22682244.398    22682244.051
  22682248.352                          37.500          35.800
 125594736.158 5  97866047.82144  93788291.306 7  23899876.188
  23899884.875    23899885.594          32.200          26.200          42.900
 129064245.366 5 100569545.44044  96379151.949 6  24560109.328
  24560119.469    24560120.137          32.200          24.200          41.600
 105567696.545 7  82108244.896 6                  19734765.914    19734764.586
  19734772.438                          45.800          39.900
 107806792.982 5  83849755.590 6                  20188753.063    20188751.031
  20188756.516                          33.000          40.000
 114047716.467 6  88868315.98147                  21702542.930
  21702548.883                          41.400          43.200
 104671355.424 7  81411101.796 7                  19594701.922    19594701.359
  19594705.934                          46.200          45.100
 109378654.881 7  85230091.71546                  20814050.031
  20814055.086                          43.600          36.200
 120261040.181 5  93709974.24145  89805391.464 7  22884922.242
  22884932.492    22884930.859          35.300          34.200          45.200
 127455792.281 5  99316230.02143                  24254032.742
  24254038.059                          33.700          18.300
 117932354.483 6  91895385.38644                  22441786.469
  22441791.965                          38.900          25.500
 123549183.515 7                  92260775.794 8  23510625.531
                  23510630.410          46.600                          50.300
 129679655.121 6                  96838731.239 7  24677217.016
                  24677222.223          38.600                          42.400
 134061915.726 6                 100111194.008 7  25511133.555
                  25511139.348          41.000                          44.900
 123506826.625 7                  92229140.477 7  23502568.563
                  23502574.059          44.800                          47.800
 121484515.498 7                  90718983.820 8  23117732.734
                  23117739.051          47.200                          50.500
 20  7  6  0  0 56.0000000  0 19G08G27R11R24G30G09R23R13G07R12G11G01
                                G21G16E27E14E13E30E15
 107055131.431 7  83419631.28148  79943808.556 8  20371918.164
  20371925.875    20371925.188          45.800          51.000          53.000
 113364768.041 6  88336221.54647  84655541.254 8  21572599.734
  21572607.594    21572606.922          41.600          44.200          49.000
 123018376.515 5  95680961.087 6                  23021210.625    23021211.504
  23021217.902                          34.100          36.400
 121288303.902 6  94335368.459 6                  22681522.211    22681523.133
  22681527.414                          37.600          36.000
 125591596.480 5  97863601.33144  93785946.760 7  23899278.586
  23899287.211    23899288.188          32.500          26.100          42.700
 129066681.977 5 100571444.08544  96380971.492 6  24560573.273
  24560583.094    24560583.781          31.900          25.300          41.300
 105565705.855 7  82106696.581 6                  19734393.156    19734392.422
  19734400.250                          45.400          39.500
 107804214.298 5  83847749.975 6                  20188269.570    20188268.578
  20188273.539                          33.400          40.100
 114045802.646 6  88866824.69147                  21702179.219
  21702184.813                          41.700          43.400
 104672542.918 7  81412025.399 7                  19594924.094    19594923.570
  19594928.215                          46.200          46.000
 109376608.835 7  85228497.39246                  20813660.594
  20813665.914                          43.900          36.700
 120257255.766 5  93707025.34645  89802565.404 7  22884202.742
  22884212.332    22884210.762          35.900          35.000          45.600
 127458655.652 5  99318461.23543                  24254576.961
  24254583.027                          33.700          18.300
 117934490.174 6  91897049.55844                  22442193.453
  22442198.238                          39.400          26.500
 123548260.139 7                  92260086.273 8  23510449.797
                  23510454.844          46.400                          50.600
 129673876.950 6                  96834416.372 7  24676117.281
                  24676122.762          39.000                          42.300
 134059197.857 6                 100109164.445 7  25510616.359
                  25510622.090          40.900                          44.900
 123508238.781 7                  92230195.007 7  23502837.148
                  23502842.824          44.300                          47.700
 121484093.831 7                  90718668.942 8  23117652.438
                  23117658.852          46.800                          50.500
 20  7  6  0  0 57.0000000  0 19G08G27R11R24G30G09R23R13G07R12G11G01
                                G21G16E27E14E13E30E15
 107055714.420 7  83420085.55548  79944243.903 8  20372029.195
  20372036.895    20372036.063          45.500          51.100          52.900
 113367123.180 6  88338056.71647  84657299.974 8  21573048.195
  21573055.707    21573055.219          41.600          44.600          49.000
 123021993.656 5  95683774.400 5                  23021887.914    23021889.074
  23021894.809                          33.900          35.800
 121284448.824 6  94332370.066 5                  22680801.766    22680802.270
  22680806.426                          37.300          35.600
 125588457.076 5  97861155.02544  93783602.408 7  23898680.313
  23898689.633    23898690.629          32.800          26.200          42.500
 129069118.641 5 100573342.78944  96382791.063 6  24561036.867
  24561046.641    24561047.531          31.800          25.000          41.300
 105563715.825 7  82105148.766 6                  19734021.078    19734020.289
  19734028.230                          45.400          39.900
 107801636.093 5  83845744.679 6                  20187787.922    20187785.738
  20187790.727                          33.200          40.300
 114043889.338 6  88865333.80247                  21701815.711
  21701820.648                          41.400          43.800
 104673731.037 7  81412949.492 7                  19595146.883    19595146.066
  19595150.734                          46.100          46.300
 109374563.229 7  85226903.41745                  20813271.570
  20813276.668                          44.100          35.800
 120253471.457 5  93704076.52745  89799739.477 7  22883482.172
  22883492.184    22883490.445          35.800          34.800          45.500
 127461519.251 5  99320692.63243                  24255122.141
  24255128.008                          33.600          18.300
 117936626.037 6  91898713.87844                  22442599.586
  22442604.652                          39.300          26.300
 123547336.944 7                  92259396.868 8  23510274.320
                  23510279.129          46.500                          50.300
 129668098.726 6                  96830101.441 7  24675017.773
                  24675023.219          38.600                          42.600
 134056480.150 6                 100107135.004 7  25510098.750
                  25510104.914          41.200                          44.300
 123509651.113 7                  92231249.679 7  23503106.000
                  23503111.547          44.500                          47.900
 121483672.556 7                  90718354.351 8  23117572.328
                  23117578.641          46.800                          50.700
 20  7  6  0  0 58.0000000  0 19G08G27R11R24G30G09R23R13G07R12G11G01
                                G21G16E27E14E13E30E15
 107056297.803 7  83420540.14048  79944679.549 8  20372140.219
  20372147.805    20372147.121          45.700          51.100          52.700
 113369478.569 6  88339892.08547  84659058.855 8  21573496.109
  21573503.922    21573503.262          41.900          44.500          49.400
 123025611.147 5  95686588.022 6                  23022564.727    23022566.141
  23022571.613                          34.000          36.000
 121280594.092 6  94329371.957 6                  22680081.031    22680081.285
  22680085.633                          37.200          36.200
 125585317.969 5  97858708.96844  93781258.262 7  23898084.008
  23898092.273    23898093.285          32.500          28.200          42.600
 129071555.475 5 100575241.61844  96384610.794 6  24561502.297
  24561510.379    24561511.164          32.200          24.700          41.400
 105561726.511 7  82103601.525 6                  19733649.031    19733648.559
  19733656.313                          45.500          39.900
 107799058.288 5  83843739.724 6                  20187304.656    20187302.891
  20187308.098                          33.100          40.500
 114041976.544 6  88863843.30947                  21701451.492
  21701456.773                          41.400          43.500
 104674919.867 7  81413874.131 7                  19595369.414    19595368.773
  19595373.301                          45.800          46.700
 109372518.113 7  85225309.81545                  20812882.242
  20812887.590                          44.100          35.800
 120249687.399 6  93701127.91445  89796913.731 7  22882762.617
  22882772.070    22882770.418          36.400          34.900          45.400
 127464383.140 5  99322924.26042                  24255667.109
  24255673.074                          33.500          17.800
 117938762.138 6  91900378.36044                  22443005.781
  22443011.070                          39.200          25.700
 123546413.985 7                  92258707.641 8  23510098.680
                  23510103.484          46.500                          50.400
 129662320.401 6                  96825786.492 7  24673918.398
                  24673923.613          38.900                          42.300
 134053762.722 6                 100105105.738 7  25509581.977
                  25509587.766          41.000                          44.200
 123511063.724 7                  92232304.556 8  23503374.891
                  23503380.371          44.300                          48.000
 121483251.752 7                  90718040.122 8  23117492.367
                  23117498.598          46.700                          50.700
 20  7  6  0  0 59.0000000  0 19G08G27R11R24G30G09R23R13G07R12G11G01
                                G21G16E27E14E13E30E15
 107056881.576 7  83420995.02948  79945115.481 8  20372251.656
  20372258.922    20372258.172          45.300          51.000          52.800
 113371834.163 7  88341727.61047  84660817.898 8  21573944.398
  21573952.352    21573951.520          42.100          44.400          49.500
 123029229.005 5  95689401.900 6                  23023243.133    23023243.355
  23023248.527                          34.400          36.100
 121276739.735 6  94326374.123 6                  22679360.070    22679360.703
  22679364.848                          37.100          36.200
 125582179.121 5  97856263.11444  93778914.324 7  23897487.516
  23897494.770    23897496.180          31.900          27.400          42.600
 129073992.492 5 100577140.60444  96386430.616 6  24561964.977
  24561973.957    24561975.059          32.500          24.100          41.700
 105559737.891 7  82102054.833 6                  19733277.844    19733276.895
  19733284.688                          45.500          40.100
 107796480.965 5  83841735.126 6                  20186821.398    20186820.145
  20186825.414                          32.900          40.200
 114040064.296 6  88862353.24447                  21701088.188
  21701092.797                          41.700          43.600
 104676109.338 7  81414799.294 7                  19595591.422    19595591.328
  19595595.848                          45.500          46.400
 109370473.499 7  85223716.61445                  20812492.766
  20812498.410                          44.400          35.800
 120245903.584 5  93698179.48945  89794088.150 7  22882043.227
  22882052.113    22882050.383          35.100          35.200          45.700
 127467247.222 5  99325155.99742                  24256211.914
  24256217.926                          33.300          17.800
 117940898.427 6  91902043.00044                  22443412.555
  22443417.633                          39.400          25.800
 123545491.214 7                  92258018.579 8  23509922.992
                  23509927.969          46.700                          50.500
 129656542.095 6                  96821471.511 7  24672819.031
                  24672824.000          38.500                          42.700
 134051045.509 6                 100103076.671 7  25509064.625
                  25509070.828          41.200                          44.400
 123512476.601 7                  92233359.612 8  23503643.727
                  23503649.238          44.700                          48.000
 121482831.431 7                  90717726.241 8  23117412.250
                  23117418.625          47.000                          50.800
 20  7  6  0  1  0.0000000  0 19G08G27R11R24G30G09R23R13G07R12G11G01
                                G21G16E27E14E13E30E15
 107057465.711 7  83421450.19948  79945551.703 8  20372362.453
  20372370.066    20372369.332          45.300          51.000          52.700
 113374189.934 7  88343563.27747  84662577.089 8  21574392.633
  21574400.430    21574399.809          42.100          44.400          49.700
 123032847.142 5  95692216.006 6                  23023919.898    23023920.176
  23023925.441                          34.100          36.300
 121272885.749 6  94323376.557 6                  22678640.406    22678639.707
  22678644.164                          37.300          36.000
 125579040.549 5  97853817.46744  93776570.593 7  23896889.508
  23896897.398    23896898.727          31.800          27.300          42.600
 129076429.588 5 100579039.61844  96388250.540 6  24562428.828
  24562437.789    24562438.805          32.000          24.100          41.900
 105557749.978 7  82100508.676 6                  19732905.922    19732905.254
  19732913.176                          45.600          40.000
 107793904.088 5  83839730.848 6                  20186338.000    20186337.254
  20186342.895                          32.800          40.400
 114038152.585 6  88860863.60747                  21700723.492
  21700728.980                          41.700          43.600
 104677299.521 7  81415724.964 7                  19595814.750    19595813.898
  19595818.723                          45.700          46.800
 109368429.426 7  85222123.82745                  20812103.859
  20812109.441                          44.300          35.900
 120242119.990 5  93695231.22945  89791262.742 7  22881322.617
  22881332.027    22881330.430          35.700          35.100          45.400
 127470111.613 5  99327387.98043                  24256757.453
  24256762.871                          33.500          18.300
 117943034.917 6  91903707.80744                  22443819.664
  22443824.047                          38.400          25.700
 123544568.697 7                  92257329.678 8  23509747.305
                  23509752.336          46.700                          50.500
 129650763.731 6                  96817156.504 7  24671718.844
                  24671724.504          38.700                          42.400
 134048328.582 6                 100101047.765 7  25508547.734
                  25508553.633          41.300                          44.800
 123513889.713 7                  92234414.858 8  23503912.547
                  23503918.137          44.600                          48.100
 121482411.566 7                  90717412.706 8  23117332.656
                  23117338.633          46.500                          50.900
 20  7  6  0  1  1.0000000  0 19G08G27R11R24G30G09R23R13G07R12G11G01
                                G21G16E27E14E13E30E15
 107058050.223 7  83421905.66048  79945988.179 8  20372473.648
  20372481.426    20372480.637          45.400          51.100          52.600
 113376545.918 7  88345399.10647  84664336.416 8  21574841.156
  21574848.750    21574848.180          42.300          44.600          49.400
 123036465.589 5  95695030.321 6                  23024595.727    23024597.680
  23024602.535                          34.700          36.200
 121269032.008 6  94320379.215 5                  22677919.023    22677919.316
  22677923.445                          37.700          35.800
 125575902.279 5  97851372.07944  93774227.085 7  23896292.563
  23896300.289    23896301.547          32.200          28.500          42.400
 129078866.860 5 100580938.78144  96390070.556 6  24562892.969
  24562901.590    24562902.523          33.000          26.400          41.800
 105555762.756 7  82098963.056 6                  19732534.508    19732533.895
  19732541.539                          46.100          39.900
 107791327.579 5  83837726.926 6                  20185856.695    20185854.809
  20185860.340                          32.800          40.200
 114036241.397 7  88859374.37047                  21700360.227
  21700365.410                          42.100          43.400
 104678490.322 7  81416651.143 7                  19596037.680    19596036.984
  19596041.613                          45.700          47.000
 109366385.813 7  85220531.40645                  20811715.578
  20811720.555                          44.200          35.900
 120238336.589 5  93692283.13645  89788437.486 7  22880602.578
  22880612.012    22880610.422          35.800          34.300          44.900
 127472976.226 5  99329620.14242                  24257303.320
  24257307.957                          33.700          17.800
 117945171.580 6  91905372.73444                  22444225.867
  22444230.754                          38.600          26.000
 123543646.365 7                  92256640.917 8  23509571.828
                  23509576.883          46.800                          50.300
 129644985.288 6                  96812841.453 6  24670619.195
                  24670625.047          38.800                          41.900
 134045611.827 6                 100099019.023 7  25508030.891
                  25508036.629          41.600                          44.900
 123515303.061 7                  92235470.293 8  23504181.445
                  23504187.121          45.100                          48.200
 121481992.133 7                  90717099.487 8  23117252.672
                  23117258.984          46.600                          50.900
 20  7  6  0  1  2.0000000  0 19G08G27R11R24G30G09R23R13G07R12G11G01
                                G21G16E27E14E13E30E15
 107058635.114 7  83422361.42048  79946424.946 8  20372584.555
  20372592.738    20372591.828          45.400          51.100          52.700
 113378902.124 7  88347235.11647  84666095.928 8  21575289.695
  21575297.238    21575296.688          42.500          44.400          49.300
 123040084.287 5  95697844.886 6                  23025274.781    23025275.156
  23025279.559                          34.900          36.500
 121265178.596 6  94317382.119 6                  22677198.289    22677198.789
  22677202.883                          37.300          36.200
 125572764.349 5  97848926.92844  93771883.775 7  23895695.781
  23895703.215    23895704.422          31.800          28.300          42.700
 129081304.240 5 100582838.05544  96391890.669 7  24563357.063
  24563365.414    24563366.430          33.000          25.600          42.100
 105553776.277 7  82097418.025 6                  19732163.648    19732162.449
  19732170.168                          46.200          40.400
 107788751.541 5  83835723.357 6                  20185373.992    20185372.848
  20185378.020                          32.200          40.600
 114034330.745 6  88857885.55047                  21699996.398
  21700001.711                          41.500          43.400
 104679681.791 7  81417577.850 7                  19596260.250    19596259.996
  19596264.629                          45.500          47.000
 109364342.719 7  85218939.38246                  20811326.375
  20811331.512                          43.900          36.300
 120234553.476 5  93689335.24945  89785612.420 7  22879882.328
  22879892.266    22879890.504          35.700          35.000          45.200
 127475841.111 5  99331852.53642                  24257848.594
  24257853.172                          33.900          17.400
 117947308.499 6  91907037.86744                  22444632.242
  22444637.410                          39.300          25.200
 123542724.253 7                  92255952.332 8  23509396.359
                  23509401.426          46.800                          50.600
 129639206.854 6                  96808526.354 6  24669519.922
                  24669525.426          39.100                          41.900
 134042895.337 6                 100096990.481 7  25507513.922
                  25507519.770          41.500                          45.000
 123516716.679 7                  92236525.902 7  23504450.648
                  23504456.066          44.900                          47.900
 121481573.181 7                  90716786.633 8  23117172.906
                  23117179.133          46.300                          50.900
 20  7  6  0  1  3.0000000  0 19G08G27R11R24G30G09R23R13G07R12G11G01
                                G21G16E27E14E13E30E15
 107059220.365 7  83422817.46148  79946861.992 8  20372696.414
  20372704.090    20372703.156          45.400          51.100          52.500
 113381258.525 7  88349071.26947  84667855.577 8  21575738.016
  21575745.617    21575745.000          42.000          44.500          48.900
 123043703.351 5  95700659.702 6                  23025952.875    23025952.426
  23025956.754                          34.800          36.200
 121261325.494 6  94314385.268 6                  22676477.430    22676478.418
  22676482.391                          38.100          36.100
 125569626.570 5  97846481.90244  93769540.677 7  23895097.070
  23895105.879    23895107.211          32.000          26.600          42.600
 129083741.791 5 100584737.44444  96393710.924 7  24563820.930
  24563829.234    24563830.254          32.900          25.300          42.500
 105551790.508 7  82095873.536 6                  19731791.789    19731791.254
  19731798.852                          46.400          40.200
 107786175.976 5  83833720.139 6                  20184891.656    20184890.398
  20184895.621                          32.000          40.400
 114032420.623 6  88856397.14247                  21699632.641
  21699638.230                          41.700          43.500
 104680873.934 7  81418505.068 7                  19596483.414    19596483.164
  19596487.863                          45.400          47.200
 109362300.106 7  85217347.73346                  20810937.914
  20810942.910                          43.700          36.600
 120230770.541 5  93686387.51045  89782787.505 7  22879163.406
  22879172.414    22879170.676          35.900          35.300          45.300
 127478706.311 5  99334085.16442                  24258393.758
  24258398.430                          33.200          16.900
 117949445.599 6  91908703.15644                  22445038.953
  22445044.191                          39.000          26.200
 123541802.359 7                  92255263.907 8  23509221.156
                  23509225.965          47.200                          50.300
 129633428.348 6                  96804211.260 7  24668420.086
                  24668425.602          38.700                          42.100
 134040179.066 6                 100094962.108 7  25506997.008
                  25507002.879          41.500                          44.900
 123518130.536 7                  92237581.710 7  23504719.758
                  23504725.063          45.000                          47.700
 121481154.673 7                  90716474.114 8  23117093.336
                  23117099.520          46.400                          51.000
 20  7  6  0  1  4.0000000  0 19G08G27R11R24G30G09R23R13G07R12G11G01
                                G21G16E27E14E13E30E15
 107059805.997 7  83423273.79748  79947299.298 8  20372807.602
  20372815.559    20372814.734          45.200          51.100          52.500
 113383615.130 6  88350907.58147  84669615.375 8  21576186.297
  21576193.996    21576193.387          41.800          44.400          49.100
 123047322.699 5  95703474.748 6                  23026629.734    23026629.574
  23026634.152                          35.000          36.400
 121257472.770 6  94311388.687 5                  22675757.063    22675757.699
  22675761.875                          37.900          35.800
 125566489.176 5  97844037.16844  93767197.791 7  23894500.523
  23894508.828    23894510.078          32.800          27.300          42.500
 129086179.453 5 100586636.91344  96395531.267 7  24564285.188
  24564293.082    24564294.301          32.600          27.100          42.300
 105549805.470 7  82094329.617 6                  19731421.625    19731420.355
  19731427.840                          46.300          40.300
 107783600.797 5  83831717.213 6                  20184409.141    20184408.637
  20184413.449                          31.800          40.400
 114030510.994 6  88854909.11547                  21699269.625
  21699274.832                          41.800          43.300
 104682066.762 7  81419432.827 7                  19596707.352    19596706.609
  19596711.203                          45.700          47.300
 109360257.962 7  85215756.45746                  20810549.172
  20810554.363                          43.500          36.400
 120226987.828 5  93683439.93545  89779962.740 7  22878443.383
  22878452.617    22878450.859          35.900          35.000          45.100
 127481571.726 5  99336317.92942                  24258939.094
  24258943.828                          33.500          17.800
 117951582.913 6  91910368.58044                  22445445.641
  22445450.836                          38.700          26.000
 123540880.673 7                  92254575.634 8  23509045.594
                  23509050.652          47.600                          50.400
 129627649.780 6                  96799896.094 7  24667320.445
                  24667326.332          38.900                          42.700
 134037463.008 6                 100092933.899 7  25506480.109
                  25506485.867          41.800                          44.700
 123519544.637 7                  92238637.697 7  23504988.953
                  23504994.219          45.000                          47.500
 121480736.618 7                  90716161.925 8  23117013.547
                  23117019.977          46.200                          51.500
 20  7  6  0  1  5.0000000  0 19G08G27R11R24G30G09R23R13G07R12G11G01
                                G21G16E27E14E13E30E15
 107060391.993 7  83423730.41948  79947736.889 8  20372919.406
  20372926.977    20372926.176          45.300          51.000          52.500
 113385971.917 6  88352744.03347  84671375.302 8  21576634.289
  21576642.465    21576641.840          41.800          44.300          49.200
 123050942.395 5  95706290.093 6                  23027305.875    23027307.004
  23027311.430                          35.100          36.500
 121253620.300 6  94308392.356 5                  22675037.453    22675037.133
  22675041.430                          37.800          35.800
 125563351.997 5  97841592.61944  93764855.105 7  23893904.328
  23893911.883    23893913.281          32.800          27.700          42.800
 129088617.274 5 100588536.49844  96397351.710 6  24564748.930
  24564757.035    24564758.309          32.600          26.200          41.800
 105547821.146 7  82092786.247 6                  19731050.359    19731049.363
  19731056.965                          45.900          40.200
 107781026.051 5  83829714.630 6                  20183927.484    20183926.160
  20183931.098                          32.200          40.600
 114028601.921 6  88853421.53447                  21698906.211
  21698911.559                          41.600          43.500
 104683260.274 7  81420361.106 7                  19596930.422    19596930.141
  19596934.598                          45.800          47.100
 109358216.338 7  85214165.57745                  20810161.016
  20810165.875                          43.600          35.900
 120223205.366 6  93680492.56445  89777138.161 7  22877723.672
  22877732.848    22877731.199          36.200          34.900          45.300
 127484437.407 5  99338550.93242                  24259483.078
  24259489.180                          33.300          17.800
 117953720.428 6  91912034.17044                  22445852.031
  22445857.723                          38.600          26.400
 123539959.189 7                  92253887.510 8  23508870.195
                  23508875.262          47.400                          50.700
 129621871.187 6                  96795580.916 7  24666221.125
                  24666226.512          38.900                          42.600
 134034747.231 6                 100090905.857 7  25505963.313
                  25505969.184          41.800                          44.600
 123520958.983 7                  92239693.862 7  23505257.938
                  23505263.387          44.500                          47.700
 121480319.003 7                  90715850.082 8  23116934.141
                  23116940.430          46.100                          51.300
 20  7  6  0  1  6.0000000  0 19G08G27R11R24G30G09R23R13G07R12G11G01
                                G21G16E27E14E13E30E15
 107060978.354 7  83424187.31848  79948174.773 8  20373030.813
  20373038.652    20373037.781          45.300          51.000          52.500
 113388328.931 6  88354580.67047  84673135.411 8  21577083.469
  21577090.984    21577090.324          41.600          44.500          49.200
 123054562.431 5  95709105.629 6                  23027983.125    23027984.418
  23027988.789                          35.000          36.400
 121249768.237 6  94305396.277 6                  22674316.391    22674316.930
  22674321.133                          37.900          36.000
 125560215.194 5  97839148.36744  93762512.644 7  23893306.742
  23893315.027    23893316.230          32.200          27.700          42.500
 129091055.236 5 100590436.21944  96399172.243 7  24565210.969
  24565221.121    24565222.238          32.900          25.600          42.100
 105545837.536 7  82091243.442 6                  19730679.438    19730678.324
  19730686.195                          46.100          40.500
 107778451.779 5  83827712.413 6                  20183446.086    20183443.785
  20183449.129                          32.500          41.000
 114026693.387 6  88851934.35347                  21698542.648
  21698548.406                          41.500          43.300
 104684454.435 7  81421289.897 7                  19597154.211    19597153.621
  19597158.129                          45.800          47.100
 109356175.199 7  85212575.07846                  20809772.742
  20809777.641                          43.900          36.100
 120219423.081 6  93677545.32645  89774313.738 7  22877004.086
  22877013.277    22877011.344          36.600          35.200          45.100
 127487303.299 5  99340784.09942                  24260027.672
  24260034.504                          33.700          17.400
 117955858.124 6  91913699.89944                  22446258.844
  22446264.625                          38.300          26.400
 123539037.927 7                  92253199.551 8  23508695.047
                  23508699.887          47.500                          50.900
 129616092.557 6                  96791265.696 7  24665121.313
                  24665127.051          38.700                          42.500
 134032031.672 6                 100088877.996 7  25505446.586
                  25505452.309          41.300                          44.700
 123522373.579 7                  92240750.219 8  23505527.195
                  23505532.574          44.600                          48.100
 121479901.860 7                  90715538.572 8  23116854.758
                  23116861.023          45.800                          51.400
 20  7  6  0  1  7.0000000  0 19G08G27R11R24G30G09R23R13G07R12G11G01
                                G21G16E27E14E13E30E15
 107061565.074 7  83424644.50348  79948612.891 8  20373142.898
  20373150.281    20373149.316          45.100          51.000          52.500
 113390686.100 6  88356417.42547  84674895.641 8  21577531.945
  21577539.715    21577539.074          41.800          44.500          49.200
 123058182.665 5  95711921.380 6                  23028661.148    23028662.258
  23028666.293                          35.400          36.700
 121245916.451 6  94302400.473 6                  22673596.414    22673596.703
  22673600.680                          38.300          36.000
 125557078.552 5  97836704.21644  93760170.379 7  23892710.344
  23892718.094    23892719.375          32.000          28.000          42.600
 129093493.265 5 100592335.97844  96400992.870 6  24565675.609
  24565685.090    24565686.129          32.500          25.800          41.800
 105543854.614 7  82089701.171 6                  19730308.914    19730307.750
  19730315.508                          45.700          40.200
 107775877.874 5  83825710.495 6                  20182964.430    20182961.461
  20182967.047                          32.800          41.100
 114024785.344 6  88850447.56947                  21698179.992
  21698185.320                          41.400          43.200
 104685649.240 7  81422219.186 7                  19597378.039    19597377.211
  19597381.813                          46.000          47.000
 109354134.523 7  85210984.94046                  20809384.367
  20809389.285                          43.700          36.300
 120215641.008 5  93674598.25845  89771489.475 7  22876284.555
  22876293.418    22876291.613          35.900          35.000          45.100
 127490169.493 5  99343017.53142                  24260573.664
  24260579.930                          33.700          16.300
 117957996.018 6  91915365.80744                  22446665.766
  22446671.406                          38.400          26.000
 123538116.855 7                  92252511.739 8  23508519.586
                  23508524.598          47.500                          50.800
 129610313.854 6                  96786950.434 7  24664021.828
                  24664027.313          38.600                          42.600
 134029316.312 6                 100086850.304 7  25504929.945
                  25504935.645          41.400                          44.700
 123523788.423 7                  92241806.747 8  23505796.203
                  23505801.742          44.900                          48.000
 121479485.163 7                  90715227.402 8  23116775.547
                  23116781.770          45.800                          51.500
 20  7  6  0  1  8.0000000  0 19G08G27R11R24G30G09R23R13G07R12G11G01
                                G21G16E27E14E13E30E15
 107062152.193 7  83425101.99848  79949051.331 8  20373254.398
  20373262.008    20373260.969          44.900          51.100          52.400
 113393043.522 6  88358254.37747  84676656.066 8  21577980.430
  21577988.199    21577987.504          41.900          44.500          49.000
 123061803.285 5  95714737.414 6                  23029339.789    23029339.699
  23029343.980                          35.400          37.000
 121242065.073 6  94299404.921 6                  22672877.305    22672876.363
  22672880.453                          38.000          36.000
 125553942.255 5  97834260.35344  93757828.344 7  23892113.453
  23892121.418    23892122.574          31.900          27.200          42.500
 129095931.529 5 100594235.92444  96402813.658 7  24566141.250
  24566148.918    24566150.293          32.200          25.900          42.100
 105541872.472 7  82088159.499 6                  19729938.563    19729937.406
  19729944.926                          46.000          40.500
 107773304.498 5  83823708.950 6                  20182480.680    20182479.797
  20182485.137                          32.000          40.900
 114022877.889 6  88848961.24847                  21697817.000
  21697822.387                          41.400          43.600
 104686844.770 7  81423149.049 7                  19597600.984    19597601.012
  19597605.645                          45.900          47.100
 109352094.411 7  85209395.25246                  20808996.336
  20809000.906                          43.600          36.400
 120211859.246 6  93671651.44045  89768665.419 7  22875564.570
  22875573.703    22875572.305          36.300          35.100          44.800
 127493035.965 5  99345251.09842                  24261119.953
  24261125.121                          33.600          17.800
 117960134.165 6  91917031.88844                  22447073.227
  22447078.219                          38.600          26.200
 123537196.044 7                  92251824.130 8  23508344.336
                  23508349.328          47.700                          50.600
 129604535.160 6                  96782635.172 7  24662922.008
                  24662927.695          38.600                          42.900
 134026601.244 6                 100084822.799 7  25504413.047
                  25504419.176          41.500                          44.900
 123525203.545 7                  92242863.505 7  23506065.414
                  23506071.078          44.900                          47.900
 121479068.959 7                  90714916.604 8  23116696.367
                  23116702.633          46.100                          51.500
 20  7  6  0  1  9.0000000  0 19G08G27R11R24G30G09R23R13G07R12G11G01
                                G21G16E27E14E13E30E15
 107062739.600 7  83425559.72448  79949489.983 8  20373366.016
  20373373.699    20373372.910          44.900          51.100          52.400
 113395401.082 6  88360091.44447  84678416.579 8  21578429.219
  21578436.918    21578436.246          41.800          44.500          49.100
 123065424.194 5  95717553.652 6                  23030017.953    23030017.086
  23030021.547                          35.300          36.800
 121238213.890 6  94296409.560 6                  22672157.172    22672156.199
  22672160.313                          38.300          36.200
 125550806.145 5  97831816.64144  93755486.477 7  23891516.891
  23891524.613    23891525.852          32.400          27.000          42.700
 129098369.814 5 100596135.87244  96404634.444 6  24566605.188
  24566612.848    24566614.301          32.800          25.200          41.800
 105539890.921 7  82086618.296 6                  19729567.320    19729566.992
  19729574.582                          46.000          39.900
 107770731.408 5  83821707.694 6                  20181999.578    20181998.352
  20182003.277                          31.700          40.400
 114020970.854 6  88847475.24447                  21697454.148
  21697459.547                          41.100          43.600
 104688040.861 7  81424079.338 7                  19597825.422    19597825.082
  19597829.480                          45.700          47.000
 109350054.704 7  85207805.86546                  20808607.516
  20808612.813                          43.800          37.000
 120208077.584 6  93668704.69045  89765841.438 7  22874845.063
  22874854.066    22874852.570          36.800          35.200          45.000
 127495902.586 5  99347484.82042                  24261665.461
  24261670.594                          33.800          17.400
 117962272.415 6  91918698.05044                  22447479.484
  22447485.223                          38.700          26.200
 123536275.359 7                  92251136.603 8  23508169.102
                  23508174.207          47.600                          50.800
 129598756.317 6                  96778319.806 7  24661822.563
                  24661828.254          38.700                          42.600
 134023886.314 6                 100082795.436 7  25503896.477
                  25503902.266          41.200                          44.600
 123526618.844 7                  92243920.362 8  23506334.891
                  23506340.480          45.000                          48.100
 121478653.125 7                  90714606.069 8  23116617.234
                  23116623.531          46.300                          51.300
 20  7  6  0  1 10.0000000  0 19G08G27R11R24G30G09R23R13G07R12G11G01
                                G21G16E27E14E13E30E15
 107063327.416 7  83426017.76148  79949928.939 8  20373478.086
  20373485.633    20373484.793          45.000          51.100          52.900
 113397758.878 7  88361928.67447  84680177.259 8  21578877.727
  21578885.457    21578884.883          42.100          44.500          48.900
 123069045.416 5  95720370.173 6                  23030693.547    23030694.930
  23030699.219                          35.100          36.800
 121234363.075 6  94293414.484 6                  22671436.930    22671436.238
  22671440.223                          38.300          36.200
 125547670.436 5  97829373.23744  93753144.820 7  23890919.922
  23890927.859    23890928.961          32.400          27.100          43.000
 129100808.351 5 100598036.02844  96406455.402 6  24567068.586
  24567076.750    24567078.488          33.000          25.400          41.400
 105537910.161 7  82085077.689 6                  19729198.281    19729196.777
  19729204.387                          45.900          40.500
 107768158.839 5  83819706.834 6                  20181517.305    20181516.051
  20181521.527                          32.100          40.400
 114019064.427 6  88845989.71447                  21697091.102
  21697096.664                          41.100          43.600
 104689237.675 7  81425010.193 7                  19598049.609    19598048.910
  19598053.637                          46.200          47.000
 109348015.520 7  85206216.90046                  20808219.836
  20808224.813                          43.400          36.400
 120204296.191 6  93665758.14645  89763017.687 7  22874125.641
  22874134.473    22874133.074          36.400          34.900          45.000
 127498769.530 5  99349718.83043                  24262210.664
  24262216.113                          33.300          18.300
 117964410.927 6  91920364.43844                  22447886.430
  22447892.188                          38.800          26.200
 123535354.937 7                  92250449.277 8  23507993.977
                  23507999.035          47.300                          50.900
 129592977.497 6                  96774004.460 7  24660722.805
                  24660728.559          38.700                          42.800
 134021171.667 6                 100080768.262 7  25503379.867
                  25503385.832          41.200                          44.400
 123528034.417 7                  92244977.459 7  23506604.289
                  23506609.738          44.900                          47.800
 121478237.797 7                  90714295.925 8  23116538.195
                  23116544.438          46.400                          51.200
 20  7  6  0  1 11.0000000  0 19G08G27R11R24G30G09R23R13G07R12G11G01
                                G21G16E27E14E13E30E15
 107063915.615 7  83426476.10248  79950368.164 8  20373589.875
  20373597.617    20373596.563          44.600          51.000          52.900
 113400116.905 6  88363766.10247  84681938.127 8  21579326.383
  21579334.293    21579333.641          41.700          44.400          48.900
 123072666.933 5  95723186.905 6                  23031372.391    23031372.980
  23031377.055                          35.900          36.700
 121230512.623 6  94290419.672 6                  22670716.234    22670716.012
  22670720.227                          37.600          36.500
 125544534.920 5  97826929.97044  93750803.413 7  23890323.563
  23890331.082    23890332.410          32.200          27.500          43.000
 129103246.962 5 100599936.26444  96408276.452 6  24567532.688
  24567540.816    24567542.477          33.500          26.000          41.400
 105535930.112 7  82083537.667 6                  19728826.906    19728826.488
  19728834.371                          45.700          40.700
 107765586.765 5  83817706.289 6                  20181035.375    20181034.609
  20181039.918                          32.600          40.400
 114017158.524 6  88844504.59847                  21696728.570
  21696733.898                          41.100          43.400
 104690435.175 7  81425941.588 7                  19598273.992    19598273.277
  19598277.770                          45.600          47.000
 109345976.868 7  85204628.33346                  20807831.867
  20807836.855                          43.700          36.600
 120200515.089 6  93662811.83845  89760194.095 7  22873405.750
  22873414.941    22873413.586          36.200          35.000          45.300
 127501636.773 5  99351953.03943                  24262756.750
  24262761.688                          33.100          18.600
 117966549.643 6  91922030.95644                  22448293.695
  22448299.148                          38.800          26.000
 123534434.752 7                  92249762.115 8  23507818.813
                  23507824.098          47.400                          50.900
 129587198.628 6                  96769689.068 7  24659623.273
                  24659628.734          38.600                          42.700
 134018457.290 6                 100078741.281 7  25502863.281
                  25502869.301          41.600                          44.400
 123529450.269 7                  92246034.740 8  23506873.703
                  23506879.117          44.700                          48.000
 121477822.925 7                  90713986.119 8  23116459.289
                  23116465.559          46.200                          51.100
 20  7  6  0  1 12.0000000  0 19G08G27R11R24G30G09R23R13G07R12G11G01
                                G21G16E27E14E13E30E15
 107064504.135 7  83426934.67848  79950807.658 8  20373701.539
  20373709.535    20373708.621          44.700          51.000          52.700
 113402475.092 7  88365603.65947  84683699.106 8  21579775.289
  21579783.027    21579782.430          42.200          44.300          48.900
 123076288.727 5  95726003.873 6                  23032050.844    23032050.477
  23032054.797                          35.300          37.300
 121226662.431 6  94287425.111 6                  22669996.516    22669996.133
  22670000.195                          37.600          36.700
 125541399.695 5  97824486.94744  93748462.179 7  23889727.297
  23889734.301    23889735.617          32.300          27.500          42.800
 129105685.696 5 100601836.57644  96410097.591 6  24567995.633
  24568004.879    24568006.715          33.000          26.100          41.400
 105533950.748 7  82081998.156 6                  19728457.188    19728456.547
  19728464.266                          45.700          40.500
 107763015.027 5  83815706.074 6                  20180554.977    20180552.453
  20180558.199                          32.600          40.300
 114015253.135 6  88843019.88247                  21696366.305
  21696371.293                          41.300          43.400
 104691633.319 7  81426873.475 7                  19598498.008    19598497.551
  19598501.992                          45.800          47.000
 109343938.663 7  85203040.12346                  20807444.078
  20807449.137                          43.600          36.300
 120196734.103 5  93659865.60845  89757370.671 7  22872686.133
  22872695.363    22872694.074          35.900          34.800          45.700
 127504504.239 5  99354187.40443                  24263302.398
  24263307.461                          33.100          18.600
 117968688.533 6  91923697.62244                  22448700.945
  22448706.184                          38.900          25.100
 123533514.729 7                  92249075.101 8  23507643.680
                  23507648.945          47.100                          50.900
 129581419.713 6                  96765373.634 7  24658523.609
                  24658528.996          38.900                          42.800
 134015743.083 6                 100076714.465 7  25502346.883
                  25502352.828          41.200                          44.500
 123530866.331 7                  92247092.192 8  23507142.914
                  23507148.594          44.700                          48.000
 121477408.491 7                  90713676.648 8  23116380.484
                  23116386.762          46.300                          51.200
 20  7  6  0  1 13.0000000  0 19G08G27R11R24G30G09R23R13G07R12G11G01
                                G21G16E27E14E13E30E15
 107065093.058 7  83427393.58748  79951247.431 8  20373814.031
  20373821.691    20373820.727          44.700          51.100          52.500
 113404833.511 7  88367441.38747  84685460.262 8  21580223.891
  21580231.801    21580231.129          42.600          44.600          49.000
 123079910.943 5  95728821.125 6                  23032728.250    23032728.582
  23032732.664                          35.300          37.200
 121222812.655 6  94284430.838 6                  22669276.125    22669275.984
  22669280.176                          37.600          36.500
 125538264.857 5  97822044.20444  93746121.190 7  23889131.461
  23889137.629    23889139.184          32.500          27.400          43.000
 129108124.605 5 100603737.00844  96411918.843 6  24568460.859
  24568469.063    24568470.836          33.000          25.400          41.500
 105531972.109 7  82080459.206 6                  19728087.063    19728086.383
  19728094.477                          46.000          41.000
 107760443.773 5  83813706.173 6                  20180072.938    20180070.668
  20180076.633                          33.000          40.200
 114013348.290 6  88841535.59047                  21696003.664
  21696008.777                          41.100          43.300
 104692832.160 7  81427805.908 7                  19598721.984    19598721.992
  19598726.367                          45.800          47.300
 109341900.964 7  85201452.30646                  20807056.320
  20807061.379                          43.700          36.300
 120192953.401 6  93656919.60445  89754547.409 7  22871966.781
  22871975.801    22871974.816          36.000          35.200          45.600
 127507371.941 5  99356421.97042                  24263849.109
  24263853.184                          33.300          17.400
 117970827.666 6  91925364.47844                  22449108.086
  22449113.152                          38.800          25.700
 123532594.957 7                  92248388.256 8  23507468.852
                  23507473.836          47.000                          51.000
 129575640.766 6                  96761058.204 7  24657423.719
                  24657429.500          38.600                          42.700
 134013029.157 6                 100074687.812 7  25501830.391
                  25501836.418          41.300                          44.300
 123532282.673 7                  92248149.847 7  23507412.508
                  23507418.086          44.900                          47.900
 121476994.538 7                  90713367.531 8  23116301.680
                  23116307.945          46.200                          51.100
 20  7  6  0  1 14.0000000  0 19G08G27R11R24G30G09R23R13G07R12G11G01
                                G21G16E27E14E13E30E15
 107065682.347 7  83427852.77548  79951687.477 8  20373925.891
  20373933.715    20373932.832          44.900          50.900          52.600
 113407192.096 7  88369279.24347  84687221.556 8  21580672.859
  21580680.613    21580680.059          42.300          44.500          48.900
 123083533.450 5  95731638.639 6                  23033406.055    23033406.609
  23033410.504                          35.500          37.800
 121218963.169 6  94281436.793 6                  22668554.805    22668555.957
  22668560.484                          37.600          36.900
 125535130.198 5  97819601.62144  93743780.385 7  23888534.430
  23888541.051    23888542.770          31.500          27.300          43.300
 129110563.643 5 100605637.56344  96413740.204 6  24568925.484
  24568933.301    24568935.160          33.300          25.200          41.700
 105529994.147 7  82078920.813 6                  19727717.914    19727716.785
  19727724.730                          46.300          40.400
 107757872.881 5  83811706.641 6                  20179591.555    20179589.656
  20179595.082                          32.800          40.000
 114011443.949 6  88840051.67947                  21695641.367
  21695646.383                          41.400          43.500
 104694031.656 7  81428738.844 7                  19598946.734    19598946.504
  19598950.938                          46.200          46.900
 109339863.789 7  85199864.89346                  20806668.273
  20806673.672                          44.100          36.300
 120189172.900 5  93653973.75945  89751724.306 7  22871247.438
  22871256.438    22871255.566          35.700          34.900          45.300
 127510239.922 5  99358656.76442                  24264393.969
  24264399.121                          33.700          17.800
 117972966.994 6  91927031.49744                  22449514.648
  22449520.371                          38.700          26.100
 123531675.398 7                  92247701.565 8  23507293.852
                  23507298.844          47.100                          51.000
 129569861.723 6                  96756742.694 7  24656323.648
                  24656329.859          39.300                          42.600
 134010315.475 6                 100072661.350 7  25501314.219
                  25501319.824          41.200                          44.400
 123533699.247 7                  92249207.684 8  23507682.031
                  23507687.781          44.900                          48.100
 121476581.020 7                  90713058.738 8  23116222.961
                  23116229.219          46.300                          50.900
 20  7  6  0  1 15.0000000  0 19G08G27R11R24G30G09R23R13G07R12G11G01
                                G21G16E27E14E13E30E15
 107066271.935 7  83428312.19048  79952127.766 8  20374038.031
  20374045.941    20374045.004          44.100          50.800          52.400
 113409550.854 7  88371117.24047  84688982.966 8  21581122.109
  21581129.430    21581128.762          42.300          44.200          48.800
 123087156.141 5  95734456.264 6                  23034084.008    23034084.152
  23034088.469                          35.200          37.800
 121215113.962 6  94278442.958 6                  22667834.859    22667836.141
  22667840.730                          37.600          36.800
 125531995.760 5  97817159.19544  93741439.751 7  23887936.922
  23887944.676    23887946.359          31.800          26.500          43.000
 129113002.798 5 100607538.19944  96415561.594 6  24569388.953
  24569397.492    24569399.277          33.200          25.000          41.800
 105528016.857 7  82077382.909 6                  19727347.836    19727347.250
  19727355.004                          46.300          40.100
 107755302.447 5  83809707.380 6                  20179109.055    20179108.063
  20179113.691                          32.800          39.700
 114009540.091 6  88838568.15747                  21695278.953
  21695284.176                          41.300          43.200
 104695231.755 7  81429672.254 7                  19599171.930    19599171.289
  19599175.605                          46.200          46.500
 109337827.047 7  85198277.82645                  20806280.914
  20806286.176                          43.800          35.700
 120185392.574 6  93651028.05145  89748901.335 7  22870527.930
  22870537.176    22870536.316          36.000          35.100          45.800
 127513108.067 5  99360891.72942                  24264939.313
  24264944.883                          34.300          17.400
 117975106.458 6  91928698.60844                  22449921.945
  22449927.418                          38.800          25.600
 123530755.986 7                  92247014.993 8  23507118.914
                  23507123.855          47.200                          50.900
 129564082.651 6                  96752427.139 7  24655224.461
                  24655230.102          38.600                          42.600
 134007601.937 6                 100070635.022 7  25500797.820
                  25500803.457          41.300                          44.300
 123535116.022 7                  92250265.663 8  23507951.789
                  23507957.344          44.500                          48.200
 121476167.923 7                  90712750.242 8  23116144.328
                  23116150.559          46.600                          50.600
 20  7  6  0  1 16.0000000  0 19G08G27R11R24G30G09R23R13G07R12G11G01
                                G21G16E27E14E13E30E15
 107066861.906 7  83428771.90948  79952568.330 8  20374150.445
  20374158.082    20374157.258          44.300          51.000          52.600
 113411909.838 7  88372955.40547  84690744.547 8  21581570.352
  21581578.355    21581577.645          42.100          44.300          49.000
 123090779.189 5  95737274.176 6                  23034760.930    23034762.262
  23034766.598                          35.200          37.700
 121211265.081 6  94275449.406 6                  22667115.773    22667116.355
  22667120.891                          37.700          36.500
 125528861.706 5  97814717.07244  93739099.352 7  23887340.523
  23887348.234    23887349.828          31.500          26.800          42.800
 129115442.049 5 100609438.91644  96417383.145 6  24569853.086
  24569861.684    24569863.641          33.300          26.300          41.600
 105526040.301 7  82075845.584 6                  19726978.531    19726977.535
  19726985.523                          46.000          40.500
 107752732.440 5  83807708.513 6                  20178627.664    20178626.816
  20178632.328                          33.100          40.000
 114007636.813 6  88837085.07847                  21694916.469
  21694921.914                          41.600          43.400
 104696432.547 7  81430606.181 7                  19599397.055    19599396.203
  19599400.438                          46.200          46.700
 109335790.814 7  85196691.14646                  20805893.859
  20805898.602                          43.800          36.000
 120181612.491 6  93648082.53045  89746078.551 7  22869808.852
  22869817.828    22869817.105          36.600          35.000          46.100
 127515976.546 5  99363126.86842                  24265485.430
  24265490.723                          33.800          17.800
 117977246.177 6  91930365.92544                  22450329.188
  22450334.719                          38.900          26.300
 123529836.809 7                  92246328.596 8  23506943.914
                  23506948.973          46.800                          50.900
 129558303.533 6                  96748111.568 7  24654124.828
                  24654130.078          38.800                          42.700
 134004888.668 6                 100068608.875 7  25500281.328
                  25500287.117          41.400                          44.500
 123536533.059 7                  92251323.840 8  23508221.375
                  23508227.012          44.900                          48.600
 121475755.307 7                  90712442.109 8  23116065.906
                  23116072.070          46.400                          51.100
 20  7  6  0  1 17.0000000  0 19G08G27R11R24G30G09R23R13G07R12G11G01
                                G21G16E27E14E13E30E15
 107067452.241 7  83429231.90348  79953009.153 8  20374262.766
  20374270.621    20374269.699          44.400          50.900          52.500
 113414269.030 7  88374793.73247  84692506.253 8  21582019.914
  21582027.391    21582026.543          42.000          44.500          49.000
 123094402.561 5  95740092.333 6                  23035438.891    23035440.430
  23035444.762                          35.400          37.400
 121207416.539 6  94272456.083 6                  22666397.625    22666396.699
  22666401.266                          37.300          36.600
 125525727.833 5  97812275.10244  93736759.178 7  23886743.977
  23886751.992    23886753.523          31.200          27.500          42.800
 129117881.395 5 100611339.70044  96419204.761 6  24570318.047
  24570325.699    24570327.676          33.200          25.800          41.600
 105524064.412 7  82074308.796 6                  19726609.055    19726608.242
  19726616.199                          45.900          40.200
 107750162.838 5  83805709.905 6                  20178146.203    20178145.938
  20178151.148                          32.700          39.800
 114005734.020 6  88835602.38347                  21694554.461
  21694559.992                          41.600          43.400
 104697633.932 7  81431540.609 7                  19599621.219    19599620.906
  19599625.258                          46.100          46.900
 109333755.074 7  85195104.86046                  20805505.789
  20805511.199                          43.700          36.300
 120177832.628 6  93645137.17845  89743255.928 7  22869089.211
  22869098.434    22869097.805          36.800          35.000          45.800
 127518845.235 5  99365362.22342                  24266030.797
  24266036.742                          33.800          17.800
 117979386.088 6  91932033.39244                  22450736.250
  22450741.891                          38.700          25.600
 123528917.836 7                  92245642.352 8  23506768.992
                  23506774.086          47.000                          50.800
 129552524.324 6                  96743795.928 7  24653024.781
                  24653030.320          38.300                          42.800
 134002175.616 6                 100066582.879 7  25499765.383
                  25499770.914          41.400                          44.300
 123537950.356 7                  92252382.194 8  23508491.281
                  23508496.563          44.900                          48.600
 121475343.107 7                  90712134.309 8  23115987.336
                  23115993.605          46.500                          51.200
 20  7  6  0  1 18.0000000  0 19G08G27R11R24G30G09R23R13G07R12G11G01
                                G21G16E27E14E13E30E15
 107068042.919 7  83429692.17548  79953450.245 8  20374374.992
  20374383.031    20374382.047          44.400          51.000          52.600
 113416628.385 7  88376632.19847  84694268.131 8  21582468.656
  21582476.238    21582475.656          42.100          44.500          49.100
 123098026.268 5  95742910.789 6                  23036116.922    23036118.176
  23036123.000                          35.200          37.400
 121203568.354 6  94269463.046 6                  22665676.586    22665676.891
  22665681.656                          37.300          36.700
 125522594.321 5  97809833.40644  93734419.169 7  23886147.984
  23886155.738    23886157.316          31.500          27.900          42.900
 129120320.965 5 100613240.65644  96421026.497 6  24570781.563
  24570789.895    24570791.996          33.100          25.300          41.700
 105522089.256 7  82072772.568 6                  19726240.000    19726238.961
  19726246.977                          45.900          40.200
 107747593.635 5  83803711.667 6                  20177664.406    20177664.621
  20177670.074                          32.400          40.400
 114003831.787 7  88834120.12347                  21694192.023
  21694197.914                          42.100          43.400
 104698836.038 7  81432475.582 7                  19599846.336    19599846.199
  19599850.293                          46.200          47.300
 109331719.814 7  85193518.94146                  20805118.445
  20805123.855                          44.000          36.700
 120174052.986 6  93642192.00845  89740433.467 7  22868370.711
  22868379.133    22868378.625          36.300          35.500          45.800
 127521714.183 5  99367597.78942                  24266576.594
  24266582.563                          34.000          17.400
 117981526.196 6  91933701.00044                  22451143.805
  22451149.059                          38.700          26.000
 123527999.091 7                  92244956.261 8  23506594.148
                  23506599.434          47.100                          50.800
 129546745.125 6                  96739480.281 7  24651925.047
                  24651930.523          39.000                          43.200
 133999462.797 6                 100064557.086 7  25499249.039
                  25499254.648          40.700                          44.300
 123539367.871 7                  92253440.745 8  23508760.664
                  23508766.410          45.000                          48.500
 121474931.387 7                  90711826.849 8  23115908.844
                  23115915.227          46.800                          51.000
 20  7  6  0  1 19.0000000  0 19G08G27R11R24G30G09R23R13G07R12G11G01
                                G21G16E27E14E13E30E15
 107068633.976 7  83430152.73648  79953891.626 8  20374487.773
  20374495.336    20374494.465          44.500          51.000          52.900
 113418987.985 6  88378470.84547  84696030.164 8  21582917.586
  21582925.336    21582924.684          41.800          44.300          49.400
 123101650.220 5  95745729.460 6                  23036795.930    23036796.656
  23036801.141                          34.900          37.200
 121199720.517 6  94266470.266 6                  22664957.133    22664956.918
  22664962.176                          36.900          36.500
 125519461.068 5  97807391.89744  93732079.398 7  23885551.203
  23885559.367    23885560.809          31.200          27.700          42.900
 129122760.657 5 100615141.71544  96422848.335 6  24571247.203
  24571254.191    24571256.359          33.400          26.000          41.700
 105520114.829 7  82071236.897 6                  19725870.688    19725869.668
  19725877.867                          46.000          40.600
 107745024.973 5  83801713.805 6                  20177183.188    20177183.617
  20177189.008                          32.100          40.200
 114001930.066 7  88832638.27147                  21693830.672
  21693836.133                          42.200          43.500
 104700038.858 7  81433411.112 7                  19600071.391    19600071.180
  19600075.449                          46.300          47.000
 109329685.078 7  85191933.43046                  20804731.609
  20804736.492                          44.100          36.300
 120170273.581 6  93639247.02245  89737611.210 7  22867650.906
  22867659.832    22867659.508          36.400          35.300          45.900
 127524583.416 5  99369833.55842                  24267123.008
  24267128.570                          33.900          17.800
 117983666.546 6  91935368.80644                  22451551.094
  22451556.395                          39.000          25.600
 123527080.557 7                  92244270.359 8  23506419.422
                  23506424.453          46.900                          50.700
 129540965.870 6                  96735164.621 7  24650824.984
                  24650830.996          38.700                          43.100
 133996750.247 6                 100062531.484 7  25498733.148
                  25498738.469          41.000                          44.400
 123540785.672 7                  92254499.488 8  23509030.602
                  23509036.191          44.900                          48.400
 121474520.119 7                  90711519.748 8  23115830.539
                  23115837.059          46.500                          51.200
 20  7  6  0  1 20.0000000  0 19G08G27R11R24G30G09R23R13G07R12G11G01
                                G21G16E27E14E13E30E15
 107069225.400 7  83430613.58848  79954333.278 8  20374599.969
  20374607.941    20374607.082          44.800          50.900          52.800
 113421347.774 6  88380309.63947  84697792.348 8  21583367.031
  21583374.367    21583373.805          41.300          44.600          49.400
 123105274.496 5  95748548.324 6                  23037474.805    23037474.887
  23037479.313                          34.700          37.000
 121195872.962 6  94263477.731 6                  22664237.422    22664237.645
  22664242.676                          37.500          36.700
 125516328.088 5  97804950.61944  93729739.848 7  23884955.641
  23884963.156    23884964.859          31.300          28.300          42.500
 129125200.499 5 100617042.90544  96424670.259 6  24571710.922
  24571718.570    24571720.723          33.100          25.400          41.500
 105518141.119 7  82069701.772 6                  19725502.328    19725500.977
  19725508.973                          46.100          40.200
 107742456.655 5  83799716.267 6                  20176704.109    20176702.621
  20176708.059                          32.700          40.100
 114000028.898 7  88831156.83147                  21693469.016
  21693474.207                          42.000          43.600
 104701242.344 7  81434347.145 7                  19600296.555    19600296.535
  19600300.926                          46.300          47.000
 109327650.835 7  85190348.30846                  20804344.406
  20804349.621                          44.300          36.400
 120166494.406 6  93636302.20245  89734789.092 7  22866930.703
  22866940.551    22866940.238          36.600          34.700          45.800
 127527452.869 5  99372069.45042                  24267669.195
  24267674.621                          34.000          17.400
 117985807.062 6  91937036.73144                  22451958.344
  22451963.844                          39.100          25.500
 123526162.234 7                  92243584.596 8  23506244.648
                  23506249.633          47.300                          50.900
 129535186.560 6                  96730848.902 7  24649725.742
                  24649731.363          39.300                          43.000
 133994037.892 6                 100060506.033 7  25498216.734
                  25498222.359          41.000                          44.400
 123542203.697 7                  92255558.410 8  23509300.430
                  23509306.051          44.800                          48.300
 121474109.315 7                  90711212.973 8  23115752.406
                  23115758.805          46.200                          50.900
 20  7  6  0  1 21.0000000  0 19G08G27R11R24G30G09R23R13G07R12G11G01
                                G21G16E27E14E13E30E15
 107069817.224 7  83431074.75148  79954775.210 8  20374712.570
  20374720.512    20374719.605          44.600          50.900          52.700
 113423707.756 6  88382148.58547  84699554.685 8  21583815.594
  21583823.355    21583822.770          41.300          44.300          49.700
 123108899.065 5  95751367.426 6                  23038153.719    23038153.148
  23038157.652                          34.900          37.100
 121192025.706 6  94260485.412 6                  22663518.023    22663517.973
  22663523.281                          37.100          36.400
 125513195.412 5  97802509.58044  93727400.510 7  23884358.461
  23884367.008    23884368.660          31.200          26.900          42.300
 129127640.415 5 100618944.12444  96426492.311 6  24572174.461
  24572182.973    24572185.180          32.900          26.100          41.500
 105516168.115 7  82068167.233 6                  19725133.914    19725132.156
  19725140.039                          46.000          40.300
 107739888.821 5  83797719.038 6                  20176224.359    20176221.738
  20176227.109                          32.500          39.900
 113998128.239 6  88829675.79747                  21693107.258
  21693112.457                          41.600          43.500
 104702446.490 7  81435283.711 7                  19600522.430    19600521.973
  19600526.238                          46.300          46.700
 109325617.097 7  85188763.57246                  20803957.484
  20803962.617                          44.100          36.100
 120162715.486 6  93633357.59645  89731967.140 7  22866212.297
  22866221.598    22866221.277          36.500          34.700          45.800
 127530322.605 5  99374305.61942                  24268214.945
  24268220.793                          33.600          17.800
 117987947.807 6  91938704.84744                  22452366.211
  22452371.047                          39.000          24.700
 123525244.136 7                  92242899.001 8  23506070.016
                  23506074.984          46.800                          50.800
 129529407.223 6                  96726533.160 7  24648626.023
                  24648631.672          38.700                          43.500
 133991325.821 6                 100058480.777 7  25497700.609
                  25497706.203          40.600                          44.300
 123543621.987 7                  92256617.517 8  23509570.625
                  23509575.961          44.700                          48.300
 121473698.979 7                  90710906.538 8  23115674.484
                  23115680.770          46.100                          51.000
 20  7  6  0  1 22.0000000  0 19G08G27R11R24G30G09R23R13G07R12G11G01
                                G21G16E27E14E13E30E15
 107070409.364 7  83431536.16048  79955217.401 8  20374825.344
  20374833.270    20374832.324          45.000          51.000          52.000
 113426067.953 6  88383987.69447  84701317.149 8  21584265.039
  21584272.578    21584271.902          41.900          44.500          48.800
 123112523.984 5  95754186.793 6                  23038831.898    23038831.605
  23038836.066                          35.000          37.400
 121188178.761 6  94257493.394 6                  22662797.516    22662798.852
  22662803.898                          37.500          36.100
 125510062.967 5  97800068.71044  93725061.333 7  23883762.852
  23883771.070    23883772.668          31.000          27.600          42.000
 129130080.481 5 100620845.45644  96428314.442 6  24572638.625
  24572647.387    24572649.629          33.500          25.100          41.300
 105514195.812 7  82066633.208 6                  19724765.008    19724763.414
  19724771.328                          45.800          40.500
 107737321.454 5  83795722.137 6                  20175743.258    20175741.020
  20175746.344                          33.000          40.100
 113996228.103 6  88828195.17247                  21692745.938
  21692751.066                          41.400          43.400
 104703651.281 7  81436220.774 7                  19600748.680    19600747.148
  19600751.734                          46.000          46.800
 109323583.815 7  85187179.19946                  20803570.430
  20803575.570                          44.100          36.200
 120158936.712 6  93630413.09445  89729145.353 7  22865493.422
  22865502.672    22865502.242          36.400          34.300          45.300
 127533192.616 5  99376541.98242                  24268761.180
  24268766.969                          33.400          17.800
 117990088.720 6  91940373.10044                  22452773.125
  22452778.359                          39.000          25.500
 123524326.232 7                  92242213.562 8  23505895.406
                  23505900.344          46.600                          50.100
 129523627.835 6                  96722217.374 7  24647526.422
                  24647531.605          38.900                          42.600
 133988613.921 6                 100056455.651 7  25497184.664
                  25497190.176          41.100                          43.800
 123545040.509 7                  92257676.808 7  23509840.328
                  23509846.047          44.800                          47.700
 121473289.058 7                  90710600.448 8  23115596.281
                  23115602.727          46.700                          50.000
 20  7  6  0  1 23.0000000  0 19G08G27R11R24G30G09R23R13G07R12G11G01
                                G21G16E27E14E13E30E15
 107071001.919 7  83431997.89248  79955659.892 8  20374938.531
  20374945.957    20374944.941          45.100          50.800          50.800
 113428428.335 6  88385826.95547  84703079.788 7  21584713.773
  21584721.602    21584721.266          41.700          44.400          47.200
 123116149.206 5  95757006.394 6                  23039510.344    23039510.266
  23039514.484                          35.300          37.500
 121184332.244 6  94254501.611 6                  22662078.750    22662079.730
  22662084.621                          36.900          36.800
 125506930.789 5  97797628.06444  93722722.429 6  23883166.953
  23883174.957    23883176.563          31.300          28.200          41.100
 129132520.743 5 100622746.96544  96430136.692 6  24573103.367
  24573111.770    24573114.133          33.100          27.000          40.100
 105512224.208 7  82065099.745 6                  19724395.898    19724394.910
  19724402.746                          45.700          40.300
 107734754.468 5  83793725.648 6                  20175263.836    20175260.074
  20175265.672                          32.400          40.000
 113994328.511 6  88826714.97547                  21692384.289
  21692389.504                          41.100          43.300
 104704856.731 7  81437158.341 7                  19600973.055    19600973.043
  19600977.523                          45.900          46.700
 109321551.075 7  85185595.24745                  20803183.609
  20803188.820                          44.200          35.900
 120155158.228 6  93627468.82245  89726323.738 7  22864773.922
  22864783.566    22864783.309          36.500          34.100          43.800
 127536062.865 5  99378778.55642                  24269306.570
  24269313.133                          33.300          17.400
 117992229.845 6  91942041.50544                  22453180.711
  22453185.988                          38.600          27.200
 123523408.550 7                  92241528.286 8  23505720.664
                  23505725.566          46.400                          48.000
 129517848.417 6                  96717901.567 6  24646426.313
                  24646431.895          39.200                          41.300
 133985902.300 6                 100054430.734 7  25496669.078
                  25496674.102          41.000                          42.200
 123546459.300 7                  92258736.295 7  23510110.445
                  23510115.887          44.600                          46.000
 121472879.629 7                  90710294.703 8  23115518.555
                  23115524.867          46.600                          48.300
 20  7  6  0  1 24.0000000  0 19G08G27R11R24G30G09R23R13G07R12G11G01
                                G21G16E27E14E13E30E15
 107071594.834 7  83432459.90248  79956102.650 8  20375051.070
  20375058.813    20375057.902          44.800          50.800          50.700
 113430788.916 7  88387666.37047  84704842.555 7  21585163.188
  21585170.887    21585170.430          42.000          44.300          47.200
 123119774.697 5  95759826.208 6                  23040187.859    23040188.512
  23040193.082                          35.300          37.300
 121180486.022 6  94251510.115 6                  22661361.578    22661360.359
  22661365.340                          37.100          36.400
 125503798.914 5  97795187.64544  93720383.690 6  23882571.070
  23882578.938    23882580.551          31.800          28.200          40.600
 129134961.076 5 100624648.52244  96431959.003 6  24573568.422
  24573576.133    24573578.293          32.500          25.100          39.700
 105510253.307 7  82063566.820 6                  19724027.375    19724026.402
  19724034.309                          45.800          40.000
 107732187.915 5  83791729.445 6                  20174782.164    20174779.508
  20174785.086                          32.800          39.900
 113992429.445 6  88825235.18547                  21692022.945
  21692028.258                          40.900          43.300
 104706062.839 7  81438096.424 7                  19601199.703    19601198.730
  19601203.262                          45.900          46.700
 109319518.800 7  85184011.65545                  20802796.313
  20802801.938                          44.300          35.900
 120151379.908 6  93624524.67245  89723502.279 7  22864054.656
  22864064.543    22864064.262          36.300          35.000          43.700
 127538933.331 5  99381015.27842                  24269853.266
  24269859.313                          33.700          17.800
 117994371.167 6  91943710.05244                  22453587.523
  22453593.254                          38.900          25.200
 123522491.078 7                  92240843.149 7  23505546.102
                  23505551.039          46.700                          47.800
 129512068.919 6                  96713585.750 6  24645326.805
                  24645332.121          39.300                          41.400
 133983190.885 6                 100052405.980 7  25496153.117
                  25496158.266          40.600                          42.400
 123547878.313 7                  92259795.937 7  23510380.484
                  23510386.020          44.400                          45.000
 121472470.624 7                  90709989.274 8  23115440.688
                  23115446.914          46.700                          48.400
 20  7  6  0  1 25.0000000  0 19G08G27R11R24G30G09R23R13G07R12G11G01
                                G21G16E27E14E13E30E15
 107072188.099 7  83432922.18448  79956545.676 8  20375163.836
  20375171.723    20375170.820          44.700          50.400          50.500
 113433149.687 6  88389505.92647  84706605.466 7  21585612.523
  21585620.348    21585619.465          41.800          44.000          47.300
 123123400.528 5  95762646.290 6                  23040866.648    23040866.543
  23040871.641                          35.200          37.400
 121176640.085 6  94248518.851 6                  22660640.453    22660640.715
  22660646.090                          37.300          36.000
 125500667.349 5  97792747.46244  93718045.166 6  23881975.195
  23881983.004    23881984.926          30.800          27.900          40.800
 129137401.556 5 100626550.18044  96433781.448 6  24574032.711
  24574040.371    24574042.836          33.300          26.200          39.600
 105508283.101 7  82062034.442 6                  19723659.336    19723657.930
  19723666.000                          45.800          40.000
 107729621.815 5  83789733.539 6                  20174301.859    20174298.977
  20174304.480                          32.500          39.500
 113990530.891 6  88823755.78347                  21691661.242
  21691666.863                          40.700          42.800
 104707269.642 7  81439035.054 7                  19601425.203    19601424.727
  19601429.148                          45.500          45.900
 109317487.002 7  85182428.43246                  20802410.188
  20802415.367                          44.300          36.400
 120147601.815 6  93621580.70745  89720680.991 7  22863336.695
  22863345.629    22863345.215          36.300          34.200          43.900
 127541804.057 5  99383252.16343                  24270401.273
  24270405.480                          33.300          18.300
 117996512.685 6  91945378.77344                  22453995.313
  22454000.930                          38.700          26.500
 123521573.798 7                  92240158.173 8  23505371.656
                  23505376.414          46.800                          48.000
 129506289.382 6                  96709269.849 6  24644226.984
                  24644232.422          38.900                          41.000
 133980479.699 6                 100050381.402 7  25495637.016
                  25495642.238          41.200                          42.600
 123549297.567 7                  92260855.778 7  23510650.414
                  23510656.047          44.800                          45.100
 121472062.085 7                  90709684.187 8  23115362.930
                  23115369.188          46.600                          48.500
 20  7  6  0  1 26.0000000  0 19G08G27R11R24G30G09R23R13G07R12G11G01
                                G21G16E27E14E13E30E15
 107072781.723 7  83433384.75448  79956988.970 8  20375276.836
  20375284.574    20375283.777          45.000          50.900          51.500
 113435510.672 7  88391345.65547  84708368.533 8  21586061.688
  21586069.434    21586068.820          42.000          44.500          48.100
 123127026.679 5  95765466.633 6                  23041545.734    23041545.266
  23041550.371                          35.300          37.200
 121172794.472 6  94245527.800 6                  22659922.086    22659921.223
  22659926.992                          37.200          37.200
 125497536.064 5  97790307.49644  93715706.896 6  23881378.492
  23881387.152    23881388.930          31.500          27.700          41.600
 129139842.233 5 100628452.01944  96435603.983 6  24574496.797
  24574504.914    24574507.066          32.400          26.500          40.900
 105506313.642 7  82060502.646 6                  19723290.922    19723289.969
  19723297.801                          46.000          40.600
 107727056.098 5  83787738.038 6                  20173820.797    20173818.488
  20173823.973                          33.500          40.200
 113988632.861 6  88822276.80647                  21691300.172
  21691305.621                          40.800          43.400
 104708477.142 7  81439974.213 7                  19601650.766    19601650.680
  19601655.156                          45.600          46.500
 109315455.720 7  85180845.62445                  20802023.758
  20802028.809                          44.500          35.700
 120143823.970 6  93618636.93145  89717859.865 7  22862617.773
  22862626.617    22862626.457          36.300          34.900          44.800
 127544675.062 5  99385489.35642                  24270947.031
  24270951.855                          33.500          17.800
 117998654.419 6  91947047.66144                  22454403.375
  22454408.523                          38.900          26.900
 123520656.752 7                  92239473.355 8  23505197.070
                  23505202.066          46.500                          48.600
 129500509.802 6                  96704953.923 7  24643127.102
                  24643132.355          38.700                          42.100
 133977768.764 6                 100048357.001 7  25495121.141
                  25495126.203          41.200                          43.800
 123550717.096 7                  92261915.802 7  23510920.633
                  23510926.309          44.700                          46.200
 121471653.996 7                  90709379.458 8  23115285.063
                  23115291.598          46.600                          49.100
 20  7  6  0  1 27.0000000  0 19G08G27R11R24G30G09R23R13G07R12G11G01
                                G21G16E27E14E13E30E15
 107073375.710 7  83433847.59748  79957432.535 8  20375390.016
  20375397.719    20375396.820          45.000          50.800          51.400
 113437871.873 6  88393185.55047  84710131.752 7  21586511.422
  21586518.695    21586518.172          41.700          44.300          47.900
 123130653.136 5  95768287.203 6                  23042225.438    23042223.914
  23042229.063                          35.000          37.500
 121168949.244 6  94242537.040 6                  22659201.805    22659202.426
  22659207.867                          36.800          36.500
 125494405.099 5  97787867.78644  93713368.790 6  23880783.539
  23880791.313    23880793.109          31.600          28.000          41.600
 129142282.943 5 100630353.85944  96437426.622 6  24574961.227
  24574969.453    24574971.520          32.900          26.400          40.600
 105504344.907 7  82058971.398 6                  19722922.852    19722921.738
  19722929.773                          45.900          40.200
 107724490.863 5  83785742.867 6                  20173340.414    20173338.199
  20173343.637                          33.100          40.400
 113986735.371 6  88820798.24847                  21690938.852
  21690944.504                          41.100          43.300
 104709685.278 7  81440913.883 7                  19601876.789    19601876.824
  19601881.473                          45.600          46.800
 109313424.941 7  85179263.19345                  20801637.453
  20801642.266                          44.300          35.800
 120140046.331 6  93615693.31445  89715038.929 7  22861899.563
  22861907.906    22861907.578          36.500          34.700          44.500
 127547546.353 5  99387726.71743                  24271492.961
  24271498.234                          33.800          18.600
 118000796.378 6  91948716.71944                  22454810.953
  22454815.988                          39.300          26.900
 123519739.916 7                  92238788.704 8  23505022.578
                  23505027.543          46.400                          48.300
 129494730.197 6                  96700637.986 6  24642026.984
                  24642032.434          38.700                          41.700
 133975058.045 6                 100046332.771 7  25494605.422
                  25494610.551          40.900                          43.200
 123552136.847 7                  92262976.019 7  23511190.469
                  23511196.441          44.700                          45.500
 121471246.369 7                  90709075.053 8  23115207.781
                  23115214.020          46.800                          49.000
 20  7  6  0  1 28.0000000  0 19G08G27R11R24G30G09R23R13G07R12G11G01
                                G21G16E27E14E13E30E15
 107073970.042 7  83434310.71448  79957876.348 8  20375502.875
  20375510.855    20375509.945          44.600          50.300          51.500
 113440233.239 6  88395025.57847  84711895.119 8  21586960.078
  21586968.184    21586967.438          41.300          43.800          48.100
 123134279.902 5  95771108.008 6                  23042903.570    23042902.832
  23042907.770                          35.000          37.100
 121165104.252 6  94239546.529 5                  22658482.344    22658483.164
  22658488.883                          36.100          35.800
 125491274.299 5  97785428.20844  93711030.902 6  23880186.695
  23880195.625    23880197.461          31.600          26.000          41.900
 129144723.856 5 100632255.86344  96439249.359 6  24575425.664
  24575433.980    24575436.293          32.600          25.900          40.800
 105502376.847 7  82057440.691 6                  19722555.063    19722553.910
  19722561.887                          45.500          40.500
 107721926.055 5  83783747.975 6                  20172860.266    20172858.219
  20172863.352                          32.400          40.200
 113984838.406 6  88819320.09447                  21690578.508
  21690583.613                          40.600          42.900
 104710894.060 7  81441854.048 7                  19602103.172    19602103.074
  19602107.719                          45.000          46.700
 109311394.640 7  85177681.14745                  20801250.930
  20801255.789                          44.300          35.400
 120136268.972 6  93612749.91445  89712218.140 7  22861180.539
  22861189.117    22861188.699          36.200          34.300          44.600
 127550417.905 5  99389964.28043                  24272039.195
  24272044.777                          33.700          18.300
 118002938.490 6  91950385.89544                  22455218.703
  22455223.867                          38.600          26.700
 123518823.284 7                  92238104.204 8  23504848.211
                  23504853.047          45.600                          48.600
 129488950.519 6                  96696321.983 6  24640927.063
                  24640932.719          38.600                          41.900
 133972347.569 6                 100044308.692 7  25494089.602
                  25494094.828          40.200                          43.600
 123553556.846 7                  92264036.408 7  23511461.063
                  23511466.621          43.900                          45.600
 121470839.183 7                  90708770.988 8  23115130.234
                  23115136.570          46.700                          49.000
 20  7  6  0  1 29.0000000  0 19G08G27R11R24G30G09R23R13G07R12G11G01
                                G21G16E27E14E13E30E15
 107074564.718 7  83434774.09748  79958320.424 8  20375616.063
  20375623.984    20375623.027          45.200          50.700          52.100
 113442594.774 6  88396865.73747  84713658.604 8  21587409.773
  21587417.520    21587416.828          41.800          44.500          48.500
 123137906.865 5  95773929.017 6                  23043581.109    23043581.492
  23043586.637                          35.100          36.900
 121161259.641 6  94236556.275 6                  22657764.656    22657764.250
  22657769.801                          36.800          36.500
 125488143.811 5  97782988.85844  93708693.191 7  23879591.547
  23879599.957    23879601.609          31.500          27.000          42.200
 129147164.847 5 100634157.92744  96441072.158 6  24575890.352
  24575898.563    24575900.551          32.800          27.100          41.100
 105500409.496 7  82055910.521 6                  19722187.563    19722186.320
  19722194.063                          46.100          40.500
 107719361.647 5  83781753.447 6                  20172380.938    20172378.203
  20172383.109                          33.400          40.200
 113982941.939 6  88817842.31547                  21690217.172
  21690222.828                          40.900          43.400
 104712103.459 7  81442794.693 7                  19602329.680    19602329.508
  19602334.188                          45.300          46.800
 109309364.798 7  85176099.44845                  20800864.500
  20800869.480                          44.500          35.900
 120132491.712 6  93609806.60445  89709397.468 7  22860461.875
  22860470.402    22860469.949          36.400          35.000          45.100
 127553289.644 5  99392202.00642                  24272586.117
  24272591.215                          33.900          17.800
 118005080.764 6  91952055.19944                  22455625.828
  22455631.512                          38.400          26.900
 123517906.814 7                  92237419.838 8  23504673.734
                  23504678.672          46.500                          48.900
 129483170.773 6                  96692005.957 7  24639827.438
                  24639832.738          39.300                          42.300
 133969637.284 6                 100042284.785 7  25493573.930
                  25493579.078          41.100                          44.200
 123554977.058 7                  92265096.955 7  23511731.313
                  23511736.906          44.200                          46.000
 121470432.402 7                  90708467.232 8  23115052.891
                  23115059.039          47.300                          49.700
 20  7  6  0  1 30.0000000  0 19G08G27R11R24G30G09R23R13G07R12G11G01
                                G21G16E27E14E13E30E15
 107075159.814 7  83435237.81148  79958764.814 8  20375729.516
  20375737.262    20375736.223          45.300          50.700          52.100
 113444956.578 6  88398706.10347  84715422.285 8  21587859.383
  21587867.063    21587866.301          41.800          44.300          48.900
 123141534.234 5  95776750.279 6                  23044260.594    23044260.102
  23044265.355                          35.000          37.700
 121157415.409 6  94233566.278 6                  22657046.703    22657045.320
  22657050.805                          36.300          36.800
 125485013.705 5  97780549.80744  93706355.721 7  23878996.383
  23879004.336    23879006.133          31.900          26.200          42.600
 129149605.930 5 100636060.07444  96442895.088 6  24576354.750
  24576362.996    24576365.004          32.900          26.400          41.300
 105498442.893 7  82054380.937 6                  19721820.141    19721818.266
  19721826.457                          45.900          40.700
 107716797.752 5  83779759.272 6                  20171899.820    20171897.496
  20171902.852                          32.700          40.200
 113981046.053 6  88816365.00447                  21689856.336
  21689861.957                          41.100          43.300
 104713313.582 7  81443735.891 7                  19602556.656    19602555.961
  19602560.652                          44.900          47.000
 109307335.506 7  85174518.18045                  20800478.383
  20800483.234                          44.200          35.800
 120128714.800 6  93606863.55145  89706577.036 7  22859742.922
  22859751.664    22859751.391          36.700          34.800          45.200
 127556161.669 5  99394439.92043                  24273132.047
  24273137.898                          33.700          18.300
 118007223.315 6  91953724.72544                  22456033.211
  22456039.262                          38.600          25.600
 123516990.635 7                  92236735.674 8  23504499.391
                  23504504.320          46.400                          49.500
 129477391.023 6                  96687689.905 7  24638727.422
                  24638733.020          39.200                          42.800
 133966927.279 6                 100040261.096 7  25493057.969
                  25493063.406          41.100                          44.300
 123556397.580 7                  92266157.728 7  23512001.563
                  23512007.324          44.500                          46.300
 121470026.164 7                  90708163.863 8  23114975.367
                  23114981.707          47.100                          49.800
 20  7  6  0  1 31.0000000  0 19G08G27R11R24G30G09R23R13G07R12G11G01
                                G21G16E27E14E13E30E15
 107075755.260 7  83435701.79348  79959209.461 8  20375843.023
  20375850.496    20375849.551          45.300          50.700          52.300
 113447318.521 7  88400546.58047  84717186.085 8  21588308.758
  21588316.387    21588315.770          42.000          44.300          49.300
 123145161.899 5  95779571.800 6                  23044938.344    23044939.078
  23044944.191                          35.100          37.500
 121153571.390 6  94230576.540 6                  22656326.125    22656326.199
  22656331.941                          36.400          36.400
 125481883.742 5  97778110.87644  93704018.459 7  23878400.852
  23878408.719    23878410.430          31.800          27.400          42.500
 129152047.267 5 100637962.40744  96444718.123 6  24576819.617
  24576827.703    24576829.805          32.400          26.700          41.600
 105496476.969 7  82052851.891 6                  19721452.297    19721450.926
  19721459.031                          45.700          40.900
 107714234.232 5  83777765.458 6                  20171419.367    20171417.383
  20171422.902                          32.800          40.500
 113979150.691 6  88814888.09947                  21689495.727
  21689501.230                          41.100          43.200
 104714524.369 7  81444677.622 7                  19602783.047    19602782.809
  19602787.371                          44.700          46.900
 109305306.686 7  85172937.28346                  20800092.625
  20800097.195                          44.000          36.200
 120124938.079 6  93603920.65545  89703756.753 7  22859024.000
  22859032.852    22859032.246          36.500          35.300          45.400
 127559033.942 5  99396678.07043                  24273677.719
  24273684.391                          33.000          18.300
 118009366.032 6  91955394.36944                  22456441.016
  22456447.121                          38.400          26.500
 123516074.644 7                  92236051.657 8  23504325.148
                  23504330.051          47.000                          49.800
 129471611.239 6                  96683373.813 7  24637627.844
                  24637633.227          38.800                          43.000
 133964217.519 6                 100038237.553 7  25492542.336
                  25492547.750          41.300                          44.300
 123557818.333 7                  92267218.666 7  23512272.000
                  23512277.609          44.400                          46.900
 121469620.329 7                  90707860.811 8  23114898.266
                  23114904.648          46.800                          50.100
 20  7  6  0  1 32.0000000  0 19G08G27R11R24G30G09R23R13G07R12G11G01
                                G21G16E27E14E13E30E15
 107076351.062 7  83436166.05648  79959654.389 8  20375955.906
  20375963.887    20375963.078          45.100          50.800          52.500
 113449680.696 7  88402387.23147  84718950.047 8  21588758.359
  21588765.871    21588765.336          42.200          44.600          49.400
 123148789.888 5  95782393.584 6                  23045617.773    23045618.469
  23045623.141                          35.400          37.200
 121149727.732 6  94227587.009 6                  22655607.602    22655607.641
  22655613.285                          36.500          36.900
 125478754.160 5  97775672.25844  93701681.395 7  23877805.242
  23877813.164    23877814.957          31.600          27.300          42.700
 129154488.639 5 100639864.77844  96446541.254 6  24577283.195
  24577292.199    24577294.480          32.500          26.100          41.600
 105494511.763 7  82051323.401 6                  19721084.797    19721083.570
  19721091.539                          46.300          40.700
 107711671.166 5  83775771.957 6                  20170939.844    20170937.621
  20170942.898                          33.100          40.300
 113977255.816 6  88813411.57547                  21689135.281
  21689140.719                          41.500          43.300
 104715735.815 7  81445619.849 7                  19603009.695    19603009.344
  19603014.113                          45.100          46.900
 109303278.342 7  85171356.75546                  20799706.063
  20799711.258                          44.100          36.000
 120121161.542 6  93600977.89945  89700936.628 7  22858306.023
  22858314.395    22858313.746          36.500          34.800          45.600
 127561906.475 5  99398916.41442                  24274224.227
  24274230.961                          33.300          17.400
 118011508.966 6  91957064.19144                  22456848.703
  22456854.840                          38.500          26.200
 123515158.838 7                  92235367.777 8  23504150.750
                  23504155.797          47.000                          50.500
 129465831.371 6                  96679057.704 7  24636528.234
                  24636533.301          39.400                          42.800
 133961507.948 6                 100036214.188 7  25492026.680
                  25492032.156          41.600                          44.300
 123559239.317 7                  92268279.792 7  23512542.336
                  23512548.043          44.600                          47.200
 121469214.951 7                  90707558.087 8  23114821.141
                  23114827.480          47.200                          50.300
 20  7  6  0  1 33.0000000  0 19G08G27R11R24G30G09R23R13G07R12G11G01
                                G21G16E27E14E13E30E15
 107076947.246 7  83436630.61448  79960099.582 8  20376069.570
  20376077.340    20376076.449          45.300          50.800          52.500
 113452043.062 6  88404228.03147  84720714.148 8  21589208.094
  21589215.457    21589214.793          41.700          44.400          49.500
 123152418.184 5  95785215.571 6                  23046296.133    23046297.086
  23046301.980                          35.800          36.800
 121145884.436 6  94224597.775 5                  22654889.406    22654888.863
  22654894.465                          36.800          35.700
 125475624.800 5  97773233.78744  93699344.560 7  23877209.500
  23877217.637    23877219.449          31.800          27.500          42.400
 129156930.158 5 100641767.26344  96448364.475 6  24577748.898
  24577756.902    24577758.758          33.600          28.400          41.400
 105492547.245 7  82049795.446 6                  19720717.578    19720716.309
  19720724.227                          46.000          40.400
 107709108.501 5  83773778.784 6                  20170460.727    20170457.730
  20170463.055                          32.900          40.500
 113975361.483 6  88811935.47047                  21688774.891
  21688780.316                          41.300          43.500
 104716947.922 7  81446562.596 7                  19603236.859    19603236.355
  19603241.023                          45.300          47.300
 109301250.512 7  85169776.63646                  20799320.344
  20799325.438                          43.900          36.200
 120117385.211 6  93598035.30645  89698116.669 7  22857586.984
  22857595.844    22857595.121          37.200          34.900          45.800
 127564779.236 5  99401154.90542                  24274771.258
  24274777.500                          33.400          17.800
 118013652.070 6  91958734.13444                  22457257.211
  22457262.637                          39.000          25.500
 123514243.263 7                  92234684.065 8  23503976.797
                  23503981.555          47.100                          50.800
 129460051.474 6                  96674741.566 7  24635428.203
                  24635433.523          38.600                          42.900
 133958798.628 6                 100034190.969 7  25491511.000
                  25491516.707          41.200                          44.800
 123560660.522 7                  92269341.097 7  23512812.805
                  23512818.406          44.600                          47.500
 121468810.028 7                  90707255.717 8  23114744.156
                  23114750.422          46.800                          50.500
 20  7  6  0  1 34.0000000  0 19G08G27R11R24G30G09R23R13G07R12G11G01
                                G21G16E27E14E13E30E15
 107077543.773 7  83437095.43448  79960545.044 8  20376182.922
  20376190.922    20376189.984          45.200          50.700          52.800
 113454405.615 6  88406068.98147  84722478.401 8  21589657.742
  21589664.969    21589664.520          41.700          44.600          49.100
 123156046.770 5  95788037.791 6                  23046976.188    23046976.172
  23046980.961                          35.900          36.600
 121142041.470 6  94221608.821 6                  22654170.570    22654169.934
  22654175.855                          36.300          36.200
 125472495.760 5  97770795.58544  93697007.930 7  23876615.047
  23876622.250    23876623.738          32.200          28.400          42.600
 129159371.809 5 100643669.84944  96450187.798 6  24578213.000
  24578221.719    24578223.340          32.600          28.200          41.700
 105490583.444 7  82048268.043 6                  19720349.625    19720349.344
  19720357.160                          45.900          40.600
 107706546.333 5  83771785.986 6                  20169980.023    20169977.836
  20169983.234                          32.700          40.400
 113973467.669 6  88810459.77147                  21688414.727
  21688419.816                          41.600          43.300
 104718160.673 7  81447505.851 7                  19603463.906    19603463.387
  19603467.961                          45.400          47.200
 109299223.169 7  85168196.88346                  20798934.758
  20798939.746                          43.800          36.100
 120113609.159 6  93595092.92945  89695296.864 7  22856868.367
  22856877.309    22856876.504          36.400          35.400          45.700
 127567652.285 5  99403393.68243                  24275319.430
  24275324.137                          33.700          18.600
 118015795.390 6  91960404.25944                  22457665.023
  22457670.398                          39.000          25.900
 123513327.885 7                  92234000.511 8  23503802.195
                  23503807.336          46.700                          50.900
 129454271.530 6                  96670425.359 7  24634328.633
                  24634333.488          38.700                          43.200
 133956089.526 6                 100032167.949 7  25490995.484
                  25491001.137          41.200                          44.700
 123562082.015 7                  92270402.590 7  23513083.203
                  23513088.984          44.900                          47.800
 121468405.558 7                  90706953.674 8  23114666.977
                  23114673.379          46.400                          50.900
 20  7  6  0  1 35.0000000  0 19G08G27R11R24G30G09R23R13G07R12G11G01
                                G21G16E27E14E13E30E15
 107078140.672 7  83437560.55648  79960990.784 8  20376296.719
  20376304.461    20376303.543          45.500          50.400          52.900
 113456768.390 6  88407910.10547  84724242.804 8  21590106.844
  21590114.754    21590114.051          41.800          44.100          49.400
 123159675.634 5  95790860.268 6                  23047655.563    23047655.332
  23047659.961                          35.800          36.200
 121138198.906 6  94218620.131 5                  22653452.164    22653451.227
  22653457.277                          36.100          35.700
 125469366.977 5  97768357.56944  93694671.519 7  23876019.359
  23876026.813    23876028.609          32.300          27.700          42.800
 129161813.625 5 100645572.55644  96452011.215 6  24578677.750
  24578686.426    24578688.133          33.400          27.300          41.400
 105488620.378 7  82046741.210 6                  19719983.063    19719981.926
  19719990.191                          45.700          39.300
 107703984.605 5  83769793.516 6                  20169498.641    20169498.273
  20169503.484                          32.900          39.300
 113971574.422 6  88808984.51447                  21688054.273
  21688059.547                          41.200          42.800
 104719374.104 7  81448449.633 7                  19603690.625    19603690.637
  19603695.211                          45.800          45.400
 109297196.329 7  85166617.53545                  20798548.961
  20798554.031                          44.000          35.300
 120109833.331 6  93592150.71945  89692477.255 7  22856150.359
  22856158.914    22856157.902          37.100          34.600          46.000
 127570525.530 5  99405632.56642                  24275865.328
  24275871.129                          33.000          17.400
 118017938.916 6  91962074.54244                  22458072.484
  22458078.262                          38.600          25.100
 123512412.745 7                  92233317.120 8  23503628.281
                  23503633.270          46.800                          51.000
 129448491.569 6                  96666109.126 7  24633228.641
                  24633233.637          38.700                          43.100
 133953380.688 6                 100030145.124 7  25490479.930
                  25490485.680          41.100                          44.800
 123563503.748 7                  92271464.275 7  23513353.914
                  23513359.547          44.900                          47.700
 121468001.543 7                  90706651.978 8  23114590.391
                  23114596.508          46.800                          50.900
 20  7  6  0  1 36.0000000  0 19G08G27R11R24G30G09R23R13G07R12G11G01
                                G21G16E27E14E13E30E15
 107078737.933 7  83438025.95348  79961436.794 8  20376410.141
  20376418.043    20376417.227          45.700          50.700          52.700
 113459131.370 6  88409751.39247  84726007.363 8  21590556.813
  21590564.309    21590563.559          41.800          44.300          49.300
 123163304.893 5  95793683.000 6                  23048334.438    23048334.813
  23048339.141                          35.700          36.200
 121134356.536 6  94215631.630 6                  22652733.180    22652732.898
  22652738.781                          36.300          36.900
 125466238.496 5  97765919.80844  93692335.331 7  23875424.188
  23875431.488    23875433.270          31.900          27.800          42.800
 129164255.559 5 100647475.36444  96453834.749 6  24579142.164
  24579151.121    24579152.977          32.900          27.300          40.700
 105486658.018 7  82045214.936 6                  19719616.148    19719615.273
  19719623.336                          45.800          40.100
 107701423.314 5  83767801.412 6                  20169017.867    20169018.289
  20169023.895                          32.600          39.900
 113969681.697 6  88807509.66447                  21687693.297
  21687699.516                          41.500          43.100
 104720588.233 7  81449393.948 7                  19603918.625    19603918.012
  19603922.480                          45.800          46.100
 109295169.964 7  85165038.55146                  20798163.359
  20798168.352                          43.900          36.300
 120106057.726 6  93589208.68545  89689657.793 7  22855430.664
  22855440.270    22855439.484          37.300          34.700          45.800
 127573399.113 5  99407871.71642                  24276412.273
  24276417.984                          33.400          17.800
 118020082.645 6  91963744.97544                  22458480.844
  22458486.168                          39.000          25.100
 123511497.821 7                  92232633.896 8  23503454.188
                  23503459.031          46.900                          50.900
 129442711.549 6                  96661792.903 7  24632128.820
                  24632133.699          38.800                          43.500
 133950672.073 6                 100028122.453 7  25489964.477
                  25489970.328          40.900                          45.100
 123564925.722 7                  92272526.139 8  23513624.273
                  23513630.168          44.800                          48.000
 121467597.994 7                  90706350.631 8  23114513.258
                  23114519.750          46.700                          50.800
 20  7  6  0  1 37.0000000  0 19G08G27R11R24G30G09R23R13G07R12G11G01
                                G21G16E27E14E13E30E15
 107079335.564 7  83438491.63648  79961883.067 8  20376524.133
  20376531.855    20376531.016          45.900          50.800          52.500
 113461494.544 7  88411592.82447  84727772.070 8  21591006.648
  21591014.023    21591013.469          42.200          44.300          49.200
 123166934.413 5  95796505.971 5                  23049014.305    23049014.188
  23049018.355                          35.800          35.600
 121130514.490 6  94212643.408 6                  22652013.945    22652014.270
  22652020.191                          36.600          36.700
 125463110.259 5  97763482.20544  93689999.324 7  23874829.766
  23874836.133    23874838.090          31.600          28.500          42.800
 129166697.651 5 100649378.29644  96455658.389 6  24579607.016
  24579615.867    24579617.605          33.600          27.600          41.300
 105484696.386 7  82043689.230 6                  19719249.914    19719248.543
  19719256.605                          45.600          40.500
 107698862.445 5  83765809.605 6                  20168539.477    20168538.781
  20168544.219                          32.200          39.800
 113967789.501 6  88806035.22347                  21687333.484
  21687339.266                          41.700          43.200
 104721803.027 7  81450338.773 7                  19604146.172    19604145.422
  19604149.855                          45.700          46.200
 109293144.127 7  85163459.98046                  20797778.031
  20797782.914                          43.900          36.100
 120102282.331 6  93586266.82545  89686838.515 7  22854712.609
  22854722.035    22854720.926          37.600          35.300          45.400
 127576272.932 5  99410111.04842                  24276959.125
  24276964.906                          33.700          16.900
 118022226.577 6  91965415.56644                  22458888.945
  22458894.078                          39.400          26.200
 123510583.105 7                  92231950.839 8  23503279.961
                  23503285.008          46.900                          51.100
 129436931.502 6                  96657476.624 7  24631028.906
                  24631034.012          39.000                          43.200
 133947963.699 6                 100026099.977 7  25489449.031
                  25489454.918          40.400                          45.100
 123566347.965 7                  92273588.201 8  23513895.016
                  23513900.770          44.500                          48.400
 121467194.901 7                  90706049.612 8  23114436.617
                  23114443.090          46.700                          50.900
 20  7  6  0  1 38.0000000  0 19G08G27R11R24G30G09R23R13G07R12G11G01
                                G21G16E27E14E13E30E15
 107079933.549 7  83438957.60548  79962329.619 8  20376637.719
  20376645.570    20376644.660          46.300          50.800          52.500
 113463857.895 7  88413434.39247  84729536.916 8  21591455.953
  21591463.828    21591463.141          42.100          44.300          49.300
 123170564.258 6  95799329.171 6                  23049692.711    23049693.520
  23049697.617                          36.000          36.100
 121126672.813 6  94209655.413 6                  22651296.344    22651295.801
  22651301.785                          37.100          36.500
 125459982.379 5  97761044.90544  93687663.529 7  23874233.156
  23874240.777    23874242.668          31.800          27.900          43.100
 129169139.845 5 100651281.30044  96457482.086 6  24580071.758
  24580080.551    24580082.230          33.000          28.700          41.400
 105482735.419 7  82042164.034 6                  19718883.469    19718881.969
  19718890.063                          45.500          39.900
 107696301.952 5  83763818.165 6                  20168059.711    20168059.438
  20168064.855                          32.400          40.000
 113965897.804 6  88804561.17047                  21686973.500
  21686979.414                          41.800          43.400
 104723018.445 7  81451284.122 7                  19604374.344    19604372.754
  19604377.418                          45.600          46.500
 109291118.746 7  85161881.75546                  20797393.008
  20797397.410                          43.900          36.000
 120098507.133 6  93583325.11445  89684019.372 7  22853994.977
  22854003.656    22854002.637          37.300          35.500          45.600
 127579146.926 5  99412350.53442                  24277506.070
  24277511.805                          34.100          17.800
 118024370.694 6  91967086.31844                  22459296.773
  22459302.242                          39.600          26.800
 123509668.567 7                  92231267.904 8  23503105.953
                  23503111.004          47.000                          51.000
 129431151.357 6                  96653160.299 7  24629928.922
                  24629934.102          38.800                          43.000
 133945255.536 6                 100024077.637 7  25488933.711
                  25488939.641          40.700                          44.800
 123567770.424 7                  92274650.412 8  23514165.766
                  23514171.582          44.500                          48.000
 121466792.239 7                  90705748.924 8  23114360.016
                  23114366.391          46.800                          51.000
 20  7  6  0  1 39.0000000  0 19G08G27R11R24G30G09R23R13G07R12G11G01
                                G21G16E27E14E13E30E15
 107080531.894 7  83439423.83848  79962776.434 8  20376751.844
  20376759.426    20376758.641          46.100          50.800          52.500
 113466221.416 7  88415276.09847  84731301.881 8  21591906.297
  21591913.523    21591912.863          42.000          44.400          49.400
 123174194.315 6  95802152.560 6                  23050371.906    23050372.746
  23050376.938                          36.000          36.700
 121122831.472 6  94206667.717 6                  22650577.773    22650577.496
  22650583.398                          36.900          36.600
 125456854.684 5  97758607.73244  93685327.955 7  23873638.383
  23873645.637    23873647.602          31.500          27.700          43.100
 129171582.172 5 100653184.40044  96459305.891 6  24580537.406
  24580545.445    24580546.965          32.800          27.900          40.600
 105480775.179 7  82040639.401 6                  19718516.969    19718515.621
  19718523.410                          45.800          39.900
 107693741.970 5  83761827.037 6                  20167581.180    20167580.008
  20167585.445                          32.500          39.800
 113964006.654 6  88803087.54747                  21686613.898
  21686619.441                          41.200          43.500
 104724234.559 7  81452229.974 7                  19604600.836    19604600.367
  19604605.086                          45.500          46.600
 109289093.875 7  85160303.93646                  20797006.992
  20797011.910                          43.700          36.100
 120094732.176 6  93580383.58745  89681200.415 7  22853276.281
  22853285.375    22853284.238          36.900          35.500          45.600
 127582021.237 5  99414590.24642                  24278053.945
  24278058.738                          34.100          17.400
 118026515.028 6  91968757.21544                  22459705.195
  22459710.219                          39.400          26.600
 123508754.267 7                  92230585.140 8  23502931.930
                  23502937.031          47.000                          51.200
 129425371.222 6                  96648843.949 7  24628829.000
                  24628834.082          39.400                          43.100
 133942547.594 6                 100022055.480 7  25488418.563
                  25488424.438          40.900                          45.000
 123569193.111 7                  92275712.828 8  23514436.648
                  23514442.250          44.700                          48.100
 121466390.039 7                  90705448.579 8  23114283.406
                  23114289.832          47.200                          51.300
 20  7  6  0  1 40.0000000  0 19G08G27R11R24G30G09R23R13G07R12G11G01
                                G21G16E27E14E13E30E15
 107081130.642 7  83439890.40348  79963223.543 8  20376865.461
  20376873.336    20376872.523          46.300          50.700          52.500
 113468585.229 7  88417118.03347  84733067.049 8  21592356.133
  21592363.258    21592362.691          42.300          44.500          49.300
 123177824.752 6  95804976.204 6                  23051053.055    23051052.277
  23051056.332                          36.300          36.100
 121118990.504 6  94203680.296 6                  22649859.664    22649859.137
  22649865.137                          36.700          36.800
 125453727.363 5  97756170.86644  93682992.596 7  23873043.422
  23873050.641    23873052.324          31.600          28.300          42.900
 129174024.659 5 100655087.62544  96461129.826 6  24581002.203
  24581010.293    24581011.785          32.900          28.200          40.800
 105478815.680 7  82039115.340 6                  19718150.469    19718149.402
  19718157.277                          45.700          39.900
 107691182.457 5  83759836.313 6                  20167102.633    20167100.730
  20167106.031                          32.500          39.800
 113962116.059 6  88801614.36047                  21686253.602
  21686259.672                          41.500          43.200
 104725451.345 7  81453176.370 7                  19604829.273    19604828.156
  19604832.953                          45.300          46.800
 109287069.528 7  85158726.52446                  20796622.250
  20796626.730                          43.800          36.000
 120090957.484 6  93577442.27545  89678381.664 7  22852558.430
  22852567.195    22852566.008          37.300          35.500          45.600
 127584895.828 5  99416830.18042                  24278600.695
  24278605.527                          34.200          17.400
 118028659.547 6  91970428.27744                  22460113.258
  22460118.348                          39.600          25.600
 123507840.218 7                  92229902.570 8  23502758.273
                  23502763.121          47.000                          50.900
 129419591.049 6                  96644527.604 7  24627728.984
                  24627734.285          38.900                          43.100
 133939839.934 6                 100020033.519 7  25487903.102
                  25487909.125          41.100                          44.700
 123570616.104 7                  92276775.447 8  23514707.148
                  23514713.063          45.100                          48.000
 121465988.334 7                  90705148.587 8  23114206.977
                  23114213.555          47.500                          51.600
 20  7  6  0  1 41.0000000  0 19G08G27R11R24G30G09R23R13G07R12G11G01
                                G21G16E27E14E13E30E15
 107081729.716 7  83440357.21748  79963670.917 8  20376979.477
  20376987.410    20376986.543          46.400          50.800          52.500
 113470949.157 7  88418960.05847  84734832.327 8  21592806.188
  21592813.191    21592812.633          42.300          44.600          49.600
 123181455.439 6  95807800.082 6                  23051733.297    23051731.547
  23051735.715                          36.300          36.400
 121115149.797 6  94200693.065 6                  22649141.773    22649141.195
  22649146.859                          36.700          36.500
 125450600.260 5  97753734.15144  93680657.445 7  23872449.266
  23872455.738    23872457.141          31.900          28.300          43.000
 129176467.268 5 100656990.96744  96462953.833 6  24581467.148
  24581475.238    24581476.309          33.500          28.600          41.100
 105476856.861 7  82037591.814 6                  19717784.398    19717783.258
  19717791.027                          45.500          40.400
 107688623.320 5  83757845.852 6                  20166624.023    20166621.320
  20166626.734                          32.600          40.000
 113960225.943 6  88800141.53947                  21685894.734
  21685900.129                          41.200          43.600
 104726668.747 7  81454123.241 7                  19605057.125    19605056.133
  19605060.727                          45.900          46.500
 109285045.623 7  85157149.45645                  20796236.625
  20796241.750                          43.800          35.800
 120087182.974 6  93574501.09645  89675563.031 7  22851839.844
  22851848.957    22851847.469          37.600          35.600          45.400
 127587770.595 5  99419070.25842                  24279147.023
  24279152.648                          33.900          17.800
 118030804.265 6  91972099.47844                  22460521.266
  22460526.512                          40.000          26.200
 123506926.308 7                  92229220.119 8  23502584.133
                  23502589.129          46.600                          50.600
 129413810.793 6                  96640211.177 7  24626628.844
                  24626634.332          39.500                          43.100
 133937132.466 6                 100018011.725 7  25487388.203
                  25487394.113          41.000                          44.700
 123572039.289 7                  92277838.227 7  23514978.031
                  23514983.883          45.000                          47.700
 121465587.010 7                  90704848.916 8  23114130.656
                  23114137.125          47.000                          51.800
 20  7  6  0  1 42.0000000  0 19G08G27R11R24G30G09R23R13G07R12G11G01
                                G21G16E27E14E13E30E15
 107082329.199 7  83440824.34348  79964118.573 8  20377093.641
  20377101.527    20377100.613          46.400          50.700          52.800
 113473313.331 7  88420802.27047  84736597.781 8  21593255.422
  21593263.012    21593262.473          42.200          44.300          49.400
 123185086.504 6  95810624.238 6                  23052412.664    23052411.086
  23052415.234                          36.000          36.200
 121111309.426 6  94197706.121 6                  22648423.125    22648422.824
  22648428.691                          36.600          36.500
 125447473.454 5  97751297.68944  93678322.489 7  23871854.023
  23871860.898    23871862.066          32.600          27.500          42.600
 129178909.958 5 100658894.35444  96464777.949 6  24581931.844
  24581940.313    24581941.340          33.000          27.600          41.600
 105474898.759 7  82036068.842 6                  19717418.063    19717417.383
  19717424.949                          45.600          40.200
 107686064.643 5  83755855.778 6                  20166144.328    20166142.113
  20166147.527                          31.400          40.300
 113958336.408 6  88798669.17447                  21685535.484
  21685540.480                          41.300          43.600
 104727886.857 7  81455070.649 7                  19605284.922    19605284.090
  19605288.789                          45.900          46.500
 109283022.257 7  85155572.79945                  20795851.492
  20795856.590                          44.000          35.700
 120083408.715 6  93571560.11345  89672744.567 7  22851121.063
  22851130.738    22851129.441          37.700          35.700          45.600
 127590645.638 5  99421310.55643                  24279694.930
  24279699.734                          34.300          18.300
 118032949.198 6  91973770.85544                  22460929.727
  22460934.828                          39.700          25.600
 123506012.648 7                  92228537.832 8  23502410.133
                  23502415.285          46.600                          50.600
 129408030.489 6                  96635894.712 7  24625528.719
                  24625534.273          39.400                          43.200
 133934425.233 6                 100015990.095 7  25486872.844
                  25486878.797          41.400                          44.800
 123573462.746 7                  92278901.194 7  23515249.047
                  23515254.754          44.700                          47.800
 121465186.183 7                  90704549.592 8  23114054.250
                  23114060.805          46.900                          51.600
 20  7  6  0  1 43.0000000  0 19G08G27R11R24G30G09R23R13G07R12G11G01
                                G21G16E27E14E13E30E15
 107082928.992 7  83441291.71748  79964566.470 8  20377208.008
  20377215.605    20377214.785          46.700          50.800          52.600
 113475677.637 7  88422644.58847  84738363.335 8  21593705.508
  21593712.824    21593712.344          42.300          44.400          49.500
 123188717.816 6  95813448.627 6                  23053091.320    23053090.652
  23053094.957                          36.400          36.200
 121107469.356 6  94194719.398 6                  22647705.453    22647704.379
  22647710.668                          36.300          36.600
 125444346.942 5  97748861.44644  93675987.731 7  23871257.102
  23871265.875    23871267.242          31.900          28.300          42.600
 129181352.805 5 100660797.86544  96466602.131 6  24582396.203
  24582405.219    24582406.363          33.500          27.700          41.400
 105472941.328 7  82034546.405 6                  19717052.797    19717051.145
  19717059.074                          45.400          40.300
 107683506.347 5  83753865.975 6                  20165664.539    20165663.070
  20165668.543                          32.000          40.500
 113956447.318 6  88797197.15247                  21685175.734
  21685181.004                          41.300          43.600
 104729105.609 7  81456018.572 7                  19605512.516    19605512.410
  19605516.984                          45.700          46.600
 109280999.332 7  85153996.49945                  20795466.602
  20795471.734                          44.100          35.800
 120079634.628 6  93568619.26945  89669926.272 7  22850403.219
  22850412.703    22850411.059          37.500          35.300          45.800
 127593520.942 5  99423551.04143                  24280242.086
  24280246.902                          34.000          18.600
 118035094.273 6  91975442.34344                  22461337.813
  22461342.898                          39.600          25.600
 123505099.174 7                  92227855.693 8  23502236.547
                  23502241.441          46.500                          50.600
 129402250.155 6                  96631578.212 7  24624429.063
                  24624434.414          39.300                          43.000
 133931718.233 6                 100013968.610 7  25486357.492
                  25486363.883          41.400                          44.700
 123574886.438 7                  92279964.314 7  23515519.859
                  23515525.590          44.600                          47.900
 121464785.770 7                  90704250.580 8  23113978.172
                  23113984.609          46.700                          51.500
 20  7  6  0  1 44.0000000  0 19G08G27R11R24G30G09R23R13G07R12G11G01
                                G21G16E27E14E13E30E15
 107083529.214 7  83441759.42048  79965014.693 8  20377321.852
  20377329.977    20377329.004          46.700          50.700          52.500
 113478042.218 7  88424487.11747  84740129.098 8  21594155.625
  21594162.945    21594162.344          42.400          44.300          49.400
 123192349.532 6  95816273.270 6                  23053770.555    23053769.715
  23053774.566                          36.200          36.500
 121103629.723 6  94191733.039 6                  22646987.398    22646986.699
  22646992.676                          36.500          37.300
 125441220.734 5  97746425.42844  93673653.241 7  23870662.602
  23870671.063    23870672.277          31.600          28.000          42.500
 129183795.849 5 100662701.54144  96468426.467 6  24582861.023
  24582870.355    24582870.926          33.400          28.600          41.600
 105470984.673 7  82033024.553 6                  19716686.656    19716685.492
  19716693.207                          45.500          40.100
 107680948.560 5  83751876.625 6                  20165185.016    20165184.270
  20165189.602                          32.700          40.000
 113954558.842 6  88795725.62247                  21684816.383
  21684821.609                          41.600          43.300
 104730325.108 7  81456967.073 7                  19605741.141    19605740.570
  19605745.246                          45.700          46.500
 109278976.987 7  85152420.64946                  20795082.023
  20795086.801                          44.400          36.000
 120075860.834 6  93565678.64245  89667108.171 7  22849685.422
  22849694.598    22849693.074          37.700          34.800          45.600
 127596396.525 5  99425791.77043                  24280789.664
  24280794.039                          34.100          18.300
 118037239.648 6  91977114.05844                  22461746.039
  22461751.094                          39.200          25.800
 123504185.972 7                  92227173.753 8  23502062.797
                  23502067.660          46.800                          50.600
 129396469.827 6                  96627261.726 7  24623329.094
                  24623334.328          39.600                          42.400
 133929011.484 6                 100011947.364 7  25485842.680
                  25485848.750          41.100                          45.200
 123576310.394 7                  92281027.693 8  23515790.992
                  23515796.520          44.700                          48.000
 121464385.876 7                  90703951.957 8  23113902.258
                  23113908.590          46.600                          51.800
 20  7  6  0  1 45.0000000  0 19G08G27R11R24G30G09R23R13G07R12G11G01
                                G21G16E27E14E13E30E15
 107084129.754 7  83442227.37548  79965463.143 8  20377436.531
  20377444.160    20377443.273          46.400          50.300          52.600
 113480406.954 7  88426329.76247  84741894.971 8  21594605.320
  21594612.938    21594612.277          42.100          43.900          49.500
 123195981.418 6  95819098.084 5                  23054450.664    23054449.594
  23054454.176                          36.300          35.600
 121099790.366 6  94188746.866 6                  22646269.438    22646268.559
  22646274.707                          36.500          36.500
 125438094.741 5  97743989.59644  93671318.905 7  23870068.445
  23870076.289    23870077.445          31.600          28.300          42.700
 129186238.940 5 100664605.24544  96470250.847 6  24583325.797
  24583335.082    24583336.023          32.900          27.300          41.600
 105469028.630 7  82031503.199 6                  19716321.117    19716320.039
  19716327.582                          45.700          39.800
 107678391.135 5  83749887.523 6                  20164706.297    20164705.148
  20164710.613                          32.400          39.400
 113952670.861 6  88794254.46547                  21684457.000
  21684462.371                          41.600          43.000
 104731545.194 7  81457916.026 7                  19605970.055    19605968.781
  19605973.684                          45.600          45.700
 109276955.070 7  85150845.12645                  20794697.109
  20794702.070                          44.000          35.500
 120072087.220 6  93562738.16645  89664290.218 7  22848966.727
  22848976.805    22848974.957          37.100          35.000          45.600
 127599272.299 5  99428032.62843                  24281336.867
  24281341.188                          33.800          18.300
 118039385.166 6  91978785.89744                  22462153.945
  22462159.426                          39.000          24.800
 123503272.933 7                  92226491.926 8  23501888.797
                  23501893.980          46.600                          50.300
 129390689.378 6                  96622945.171 7  24622228.961
                  24622234.328          39.400                          42.800
 133926304.944 6                 100009926.232 7  25485327.547
                  25485333.750          40.900                          45.300
 123577734.586 7                  92282091.186 7  23516061.734
                  23516067.523          44.600                          47.600
 121463986.383 7                  90703653.637 8  23113826.281
                  23113832.465          46.600                          51.500
 20  7  6  0  1 46.0000000  0 19G08G27R11R24G30G09R23R13G07R12G11G01
                                G21G16E27E14E13E30E15
 107084730.668 7  83442695.61548  79965911.885 8  20377550.750
  20377558.445    20377557.574          46.200          50.700          52.400
 113482771.913 6  88428172.58947  84743660.997 8  21595055.500
  21595063.004    21595062.398          41.800          44.500          49.500
 123199613.664 6  95821923.156 5                  23055130.086    23055129.676
  23055133.742                          36.600          35.800
 121095951.289 6  94185760.917 6                  22645550.164    22645550.680
  22645556.703                          36.800          37.100
 125434969.121 5  97741554.04744  93668984.788 7  23869473.852
  23869481.621    23869482.484          31.300          29.000          42.700
 129188682.156 5 100666509.04144  96472075.361 6  24583790.578
  24583800.098    24583800.777          32.500          29.000          41.800
 105467073.358 7  82029982.428 6                  19715954.695    19715954.531
  19715961.957                          45.800          40.300
 107675834.201 5  83747898.751 6                  20164227.781    20164225.973
  20164231.715                          32.800          40.200
 113950783.400 6  88792783.71447                  21684097.977
  21684103.277                          41.700          43.400
 104732765.955 7  81458865.509 7                  19606198.164    19606197.566
  19606202.270                          45.600          45.800
 109274933.663 7  85149270.00046                  20794312.906
  20794317.328                          44.100          36.300
 120068313.867 6  93559797.88345  89661472.447 7  22848248.641
  22848258.473    22848256.926          37.700          35.700          45.900
 127602148.389 5  99430273.70742                  24281883.852
  24281888.496                          34.200          17.800
 118041530.915 6  91980457.91644                  22462562.609
  22462567.734                          39.200          26.400
 123502360.113 7                  92225810.280 8  23501715.219
                  23501720.289          46.800                          50.300
 129384908.928 6                  96618628.604 7  24621129.086
                  24621134.367          39.500                          42.600
 133923598.665 6                 100007905.311 7  25484812.180
                  25484818.797          41.500                          45.200
 123579159.026 7                  92283154.894 7  23516332.758
                  23516338.711          44.800                          47.700
 121463587.358 7                  90703355.657 8  23113750.141
                  23113756.508          46.300                          51.500
 20  7  6  0  1 47.0000000  0 19G08G27R11R24G30G09R23R13G07R12G11G01
                                G21G16E27E14E13E30E15
 107085331.903 7  83443164.11048  79966360.852 8  20377665.109
  20377672.781    20377672.102          46.300          50.700          52.400
 113485137.028 7  88430015.53647  84745427.152 8  21595505.703
  21595513.043    21595512.441          42.500          44.300          49.500
 123203246.166 6  95824748.476 6                  23055808.680    23055809.352
  23055813.438                          36.600          36.700
 121092112.526 6  94182775.224 6                  22644832.070    22644833.152
  22644838.906                          36.800          36.900
 125431843.684 5  97739118.64144  93666650.907 7  23868879.219
  23868886.742    23868887.930          31.600          29.800          42.500
 129191125.501 5 100668412.94444  96473899.926 6  24584255.477
  24584264.922    24584265.656          32.500          28.400          41.100
 105465118.771 7  82028462.187 6                  19715589.680    19715589.211
  19715596.609                          45.800          40.200
 107673277.679 5  83745910.342 6                  20163749.398    20163747.145
  20163753.031                          32.600          39.800
 113948896.437 6  88791313.34947                  21683739.063
  21683744.137                          41.800          43.600
 104733987.337 7  81459815.471 7                  19606426.445    19606426.008
  19606430.895                          45.300          46.300
 109272912.703 7  85147695.23146                  20793928.469
  20793932.879                          44.600          36.800
 120064540.666 6  93556857.73545  89658654.808 7  22847531.008
  22847540.484    22847538.930          37.900          35.600          45.900
 127605024.685 5  99432514.98542                  24282431.258
  24282435.797                          33.900          17.400
 118043676.769 6  91982129.99944                  22462970.914
  22462976.086                          38.900          26.200
 123501447.472 7                  92225128.780 8  23501541.445
                  23501546.543          46.900                          50.600
 129379128.383 6                  96614311.967 7  24620029.141
                  24620034.504          39.400                          42.600
 133920892.582 6                 100005884.530 7  25484297.859
                  25484303.785          40.900                          45.300
 123580583.689 7                  92284218.752 7  23516603.867
                  23516609.734          44.900                          47.400
 121463188.747 7                  90703058.001 8  23113674.391
                  23113680.652          46.300                          51.700
