     2.11           OBSERVATION DATA    M (MIXED)           RINEX VERSION / TYPE
teqc  2016Nov7      KASI/KOREA          20200706 00:32:36UTCPGM / RUN BY / DATE
Linux 2.4.20-8|Pentium IV|gcc|Linux|486/DX+                 COMMENT
  0.0000      (antenna height)                              COMMENT
 +36.39942714 (latitude)                                    COMMENT
+127.37448264 (longitude)                                   COMMENT
0116.859      (elevation)                                   COMMENT
BIT 2 OF LLI FLAGS DATA COLLECTED UNDER A/S CONDITION       COMMENT
23902M002 (COGO code)                                       COMMENT
DAEJ                                                        MARKER NAME
23902M002                                                   MARKER NUMBER
KASI GPS            KASI/KOREA                              OBSERVER / AGENCY
5412K48145          TRIMBLE NETR9       5.44                REC # / TYPE / VERS
4923363230          TRM59800.00     SCIS                    ANT # / TYPE
 -3120042.4604  4084615.4910  3764027.5537                  APPROX POSITION XYZ
        0.0000        0.0000        0.0000                  ANTENNA: DELTA H/E/N
     1     1                                                WAVELENGTH FACT L1/2
    10    L1    L2    L5    C1    P1    P2    C5    S1    S2# / TYPES OF OBSERV
          S5                                                # / TYPES OF OBSERV
    18                                                      LEAP SECONDS
 SNR is mapped to RINEX snr flag value [0-9]                COMMENT
  L1 & L2: min(max(int(snr_dBHz/6), 0), 9)                  COMMENT
  2020     7     6     0    15    0.0000000     GPS         TIME OF FIRST OBS
                                                            END OF HEADER
 20  7  6  0 15  0.0000000  0 18G08G27R24G30G09R23R13G07R12G11G01G21
                                G16E27E14E13E30E15
 107672147.319 7  83900422.75148  80404567.030 8  20489332.539
  20489340.207    20489339.504          45.800          50.500          52.600
 115417507.501 6  89935758.23045  86188430.477 8  21963224.086
  21963231.258    21963230.926          40.900          31.500          49.100
 118159134.661 6  91901570.582 6                  22096351.664    22096351.543
  22096357.242                          38.900          38.100
 123050415.969 5  95883461.28245  91888312.645 7  23415708.523
  23415716.824    23415715.883          34.000          31.300          43.200
 131160555.030 5 102203031.26844  97944575.363 6  24959028.578
  24959036.242    24959037.824          31.300          24.300          39.500
 104141182.919 7  80998734.674 6                  19468093.711    19468092.484
  19468100.430                          46.200          40.900
 105794434.581 5  82284588.093 6                  19811900.781    19811900.160
  19811906.113                          33.200          41.000
 112625920.089 7  87760422.59747                  21431984.867
  21431990.309                          42.900          44.600
 105912428.754 7  82376380.464 7                  19827034.008    19827033.016
  19827038.156                          45.500          45.600
 107829707.287 7  84023119.78646                  20519295.133
  20519299.879                          43.200          37.200
 117152656.611 6  91287857.47446  87484196.250 7  22293417.039
  22293427.055    22293425.148          38.900          39.100          47.000
 129958261.964 5 101266205.55342                  24730237.852
  24730243.301                          31.600          15.600
 119808462.895 6  93357287.49243                  22798798.742
  22798804.047                          37.800          22.200
 122848299.800 7                  91737388.556 8  23377251.672
                  23377256.801          46.400                          51.000
 124788893.421 6                  93186539.451 7  23746535.258
                  23746541.285          40.000                          43.700
 131852421.650 7                  98461247.563 7  25090680.234
                  25090686.230          42.700                          47.200
 124788658.779 7                  93186352.086 7  23746493.711
                  23746499.379          44.100                          47.100
 121288866.723 7                  90572882.471 8  23080502.016
                  23080508.297          46.500                          51.000
 20  7  6  0 15  1.0000000  0 18G08G27R24G30G09R23R13G07R12G11G01G21
                                G16E27E14E13E30E15
 107673020.439 7  83901103.09748  80405219.034 8  20489498.500
  20489506.293    20489505.539          45.800          50.500          52.700
 115420009.213 6  89937707.62345  86190298.638 8  21963700.078
  21963707.262    21963706.992          40.800          32.300          49.100
 118155585.523 6  91898810.144 6                  22095688.188    22095687.781
  22095693.457                          38.800          38.500
 123047545.319 5  95881224.41345  91886168.996 7  23415162.359
  23415170.449    23415169.824          33.700          31.600          43.200
 131163066.986 5 102204988.65443  97946451.163 6  24959504.742
  24959514.277    24959515.801          30.500          23.500          39.200
 104139800.663 7  80997659.582 6                  19467835.070    19467834.137
  19467842.059                          46.200          41.200
 105792266.031 5  82282901.392 6                  19811495.344    19811494.129
  19811500.023                          33.200          40.900
 112624478.196 7  87759299.03847                  21431710.852
  21431715.910                          42.900          44.700
 105914178.944 7  82377741.713 7                  19827361.211    19827360.695
  19827365.750                          45.600          46.200
 107828092.504 7  84021861.52746                  20518988.195
  20518992.605                          43.500          37.300
 117149097.541 6  91285084.17946  87481538.532 7  22292740.391
  22292749.590    22292747.996          39.000          39.100          47.100
 129961312.19015 101268582.44852                  24730819.289
  24730823.406                          31.900          13.900
 119810767.560 6  93359083.35643                  22799237.891
  22799242.535                          37.800          23.200
 122847569.619 7                  91736843.292 8  23377112.664
                  23377117.793          46.600                          50.500
 124783106.705 6                  93182218.196 7  23745434.352
                  23745440.406          40.000                          43.400
 131849915.659 7                  98459376.209 7  25090203.438
                  25090209.508          42.600                          47.000
 124790281.536 7                  93187563.878 7  23746802.242
                  23746808.152          44.400                          46.700
 121288824.051 7                  90572850.598 8  23080493.813
                  23080500.109          46.300                          50.900
 20  7  6  0 15  2.0000000  0 18G08G27R24G30G09R23R13G07R12G11G01G21
                                G16E27E14E13E30E15
 107673893.880 7  83901783.70748  80405871.271 8  20489665.023
  20489672.625    20489671.898          45.600          50.600          53.000
 115422511.072 6  89939657.12545  86192166.921 8  21964175.656
  21964183.355    21964182.965          40.800          31.700          49.000
 118152036.767 6  91896049.993 6                  22095024.023    22095024.422
  22095029.742                          38.800          38.700
 123044675.066 5  95878987.84545  91884025.609 7  23414615.859
  23414624.344    23414623.723          34.200          31.600          43.400
 131165578.970 5 102206946.03043  97948326.996 6  24959982.188
  24959992.395    24959994.094          30.300          23.900          39.200
 104138419.114 7  80996585.054 6                  19467576.570    19467575.629
  19467583.805                          46.300          41.100
 105790098.045 5  82281215.153 6                  19811090.289    19811088.090
  19811094.035                          32.900          41.000
 112623036.890 7  87758175.94347                  21431436.430
  21431441.711                          43.300          44.700
 105915929.777 7  82379103.493 7                  19827689.281    19827688.438
  19827693.496                          45.700          46.000
 107826478.247 7  84020603.66046                  20518680.734
  20518685.414                          43.800          36.900
 117145538.805 6  91282311.14146  87478881.028 7  22292062.695
  22292072.574    22292070.719          39.000          39.000          47.200
 129964361.656 5 101270958.56242                  24731399.188
  24731403.863                          32.400          14.800
 119813072.476 6  93360879.38743                  22799676.047
  22799681.199                          38.200          23.600
 122846839.691 7                  91736298.212 8  23376973.758
                  23376978.914          46.400                          50.800
 124777320.004 6                  93177896.955 7  23744333.453
                  23744339.223          40.200                          43.900
 131847409.924 7                  98457505.030 7  25089726.648
                  25089732.523          42.200                          46.700
 124791904.551 7                  93188775.864 7  23747111.148
                  23747117.133          44.400                          46.800
 121288781.816 7                  90572819.062 8  23080485.836
                  23080492.121          46.700                          50.700
 20  7  6  0 15  3.0000000  0 18G08G27R24G30G09R23R13G07R12G11G01G21
                                G16E27E14E13E30E15
 107674767.641 7  83902464.55648  80406523.771 8  20489831.242
  20489838.930    20489838.039          45.800          50.500          53.000
 115425013.090 6  89941606.74945  86194035.304 8  21964651.734
  21964659.504    21964659.023          41.000          31.800          48.500
 118148488.420 6  91893290.180 6                  22094359.898    22094361.055
  22094366.305                          38.800          38.200
 123041805.118 5  95876751.52645  91881882.491 7  23414069.648
  23414078.227    23414077.559          34.400          31.700          43.400
 131168091.019 5 102208903.46844  97950202.868 6  24960460.656
  24960470.430    24960472.039          30.700          24.100          39.100
 104137038.320 7  80995511.095 6                  19467319.328    19467317.793
  19467325.793                          46.300          40.800
 105787930.589 5  82279529.387 6                  19810683.641    19810682.492
  19810688.027                          32.800          41.400
 112621596.184 7  87757053.31847                  21431162.094
  21431167.340                          43.200          44.700
 105917681.294 7  82380465.761 7                  19828017.688    19828016.230
  19828021.297                          46.000          46.000
 107824864.536 7  84019346.21946                  20518373.023
  20518378.281                          43.900          37.000
 117141980.373 6  91279538.34946  87476223.776 7  22291386.047
  22291395.539    22291393.742          39.300          39.300          47.500
 129967412.31015 101273335.86152                  24731979.859
  24731984.387                          32.300          15.600
 119815377.607 6  93362675.59043                  22800114.289
  22800119.832                          37.900          22.900
 122846110.020 7                  91735753.329 8  23376834.891
                  23376840.066          46.700                          50.900
 124771533.368 6                  93173575.752 7  23743232.125
                  23743237.988          40.100                          44.000
 131844904.448 7                  98455634.076 7  25089249.844
                  25089255.855          42.100                          46.700
 124793527.803 7                  93189988.047 7  23747420.156
                  23747426.051          44.600                          47.200
 121288740.027 7                  90572787.867 8  23080477.789
                  23080484.082          46.600                          51.000
 20  7  6  0 15  4.0000000  0 18G08G27R24G30G09R23R13G07R12G11G01G21
                                G16E27E14E13E30E15
 107675641.774 7  83903145.69448  80407176.513 8  20489997.289
  20490005.266    20490004.367          45.600          50.500          52.700
 115427515.303 6  89943556.52245  86195903.838 8  21965127.828
  21965135.637    21965135.246          40.200          31.100          48.700
 118144940.513 6  91890530.713 6                  22093697.445    22093697.906
  22093702.723                          38.600          38.500
 123038935.614 5  95874515.55545  91879739.693 7  23413523.680
  23413532.086    23413531.395          34.600          31.500          43.400
 131170603.122 5 102210860.93644  97952078.796 6  24960938.797
  24960948.465    24960950.031          30.300          25.000          39.200
 104135658.268 7  80994437.730 6                  19467060.492    19467059.805
  19467067.668                          46.100          41.000
 105785763.763 5  82277844.063 6                  19810278.555    19810276.820
  19810282.375                          33.400          41.100
 112620156.107 7  87755931.17647                  21430888.305
  21430893.305                          43.000          44.600
 105919433.503 7  82381828.594 7                  19828345.438    19828344.488
  19828349.309                          46.000          46.200
 107823251.381 7  84018089.21546                  20518066.398
  20518071.422                          44.100          37.300
 117138422.307 6  91276765.83546  87473566.777 7  22290708.484
  22290718.215    22290716.563          38.800          39.200          47.600
 129970462.646 5 101275712.78142                  24732560.203
  24732564.918                          31.000          15.600
 119817682.961 6  93364471.97143                  22800553.336
  22800558.551                          37.800          23.200
 122845380.643 7                  91735208.662 8  23376696.117
                  23376701.297          46.800                          50.600
 124765746.792 6                  93169254.598 7  23742131.016
                  23742136.902          39.700                          43.900
 131842399.319 7                  98453763.345 7  25088772.961
                  25088779.020          42.200                          46.100
 124795151.351 7                  93191200.436 7  23747728.961
                  23747734.957          44.700                          47.100
 121288698.717 7                  90572757.015 8  23080469.922
                  23080476.316          46.500                          51.000
 20  7  6  0 15  5.0000000  0 18G08G27R24G30G09R23R13G07R12G11G01G21
                                G16E27E14E13E30E15
 107676516.136 7  83903827.01948  80407829.460 8  20490163.836
  20490171.629    20490170.773          45.800          50.500          52.700
 115430017.628 6  89945506.37945  86197772.430 8  21965604.000
  21965611.766    21965611.453          39.700          32.100          48.500
 118141392.976 6  91887771.528 6                  22093032.813    22093034.277
  22093039.379                          38.800          38.900
 123036066.432 5  95872279.83245  91877597.092 7  23412977.656
  23412985.969    23412985.395          34.000          32.000          43.500
 131173115.234 5 102212818.42743  97953954.722 6  24961416.008
  24961426.512    24961427.953          30.800          23.200          39.300
 104134278.880 7  80993364.862 6                  19466803.289    19466802.047
  19466809.766                          46.100          41.300
 105783597.382 5  82276159.083 6                  19809873.313    19809870.875
  19809876.602                          33.200          41.200
 112618716.547 7  87754809.44447                  21430614.156
  21430619.453                          42.600          44.600
 105921186.321 7  82383191.901 7                  19828672.930    19828672.617
  19828677.402                          45.900          46.100
 107821638.709 7  84016832.59246                  20517759.891
  20517764.711                          44.400          37.500
 117134864.517 6  91273993.53746  87470909.978 7  22290031.773
  22290041.156    22290039.582          38.700          39.300          47.500
 129973513.236 5 101278089.78442                  24733139.844
  24733145.301                          31.900          14.800
 119819988.453 6  93366268.45443                  22800991.391
  22800997.348                          37.700          22.900
 122844651.442 7                  91734664.134 8  23376557.414
                  23376562.488          46.900                          50.800
 124759960.168 6                  93164933.433 7  23741029.992
                  23741035.770          40.000                          44.000
 131839894.366 6                  98451892.783 7  25088296.313
                  25088302.352          41.800                          46.100
 124796775.104 7                  93192412.986 7  23748037.930
                  23748043.945          44.600                          47.600
 121288657.796 7                  90572726.473 8  23080462.305
                  23080468.465          46.700                          51.000
 20  7  6  0 15  6.0000000  0 18G08G27R24G30G09R23R13G07R12G11G01G21
                                G16E27E14E13E30E15
 107677390.810 7  83904508.58948  80408482.621 8  20490330.445
  20490338.023    20490337.203          45.700          50.500          52.500
 115432520.067 6  89947456.32845  86199641.135 8  21966080.484
  21966087.844    21966087.684          39.900          31.700          48.300
 118137845.843 6  91885012.607 6                  22092370.500    22092370.801
  22092376.043                          39.200          38.500
 123033197.547 5  95870044.32845  91875454.759 7  23412430.867
  23412439.922    23412439.605          34.800          31.500          43.900
 131175627.411 5 102214775.96743  97955830.678 6  24961894.977
  24961904.574    24961906.145          30.800          22.600          39.000
 104132900.194 7  80992292.561 6                  19466545.195    19466544.281
  19466552.063                          46.000          41.200
 105781431.544 5  82274474.547 6                  19809467.930    19809465.535
  19809471.023                          33.400          41.500
 112617277.574 7  87753688.16647                  21430340.852
  21430345.711                          42.900          44.800
 105922939.784 7  82384555.706 7                  19829001.773    19829000.859
  19829005.691                          45.600          46.300
 107820026.536 7  84015576.34846                  20517452.773
  20517457.996                          44.300          36.900
 117131306.981 6  91271221.42946  87468253.405 7  22289354.563
  22289364.129    22289362.645          38.700          38.800          47.100
 129976563.83915 101280466.81752                  24733720.258
  24733725.941                          31.300          14.800
 119822294.157 6  93368065.10743                  22801429.977
  22801436.207                          37.800          22.500
 122843922.489 7                  91734119.773 8  23376418.586
                  23376423.832          46.700                          50.800
 124754173.569 6                  93160612.283 7  23739929.094
                  23739934.719          39.900                          44.100
 131837389.692 7                  98450022.402 7  25087819.539
                  25087825.699          42.000                          46.600
 124798399.098 7                  93193625.696 7  23748346.828
                  23748352.953          43.800                          47.200
 121288617.322 7                  90572696.227 8  23080454.445
                  23080460.703          46.500                          51.000
 20  7  6  0 15  7.0000000  0 18G08G27R24G30G09R23R13G07R12G11G01G21
                                G16E27E14E13E30E15
 107678265.850 7  83905190.43248  80409136.061 8  20490496.703
  20490504.543    20490503.770          45.200          50.500          52.600
 115435022.649 6  89949406.39345  86201509.969 8  21966556.773
  21966564.199    21966563.895          40.100          31.800          48.300
 118134299.065 6  91882254.049 6                  22091707.305    22091707.289
  22091712.668                          39.200          39.000
 123030329.055 5  95867809.14345  91873312.723 7  23411885.180
  23411894.047    23411893.789          34.300          31.400          43.600
 131178139.599 5 102216733.50743  97957706.679 6  24962373.766
  24962382.715    24962384.031          30.300          23.300          39.100
 104131522.295 7  80991220.855 6                  19466287.891    19466286.809
  19466294.492                          46.300          40.800
 105779266.294 5  82272790.446 6                  19809061.195    19809059.848
  19809065.488                          32.700          40.900
 112615839.232 7  87752567.37747                  21430066.898
  21430072.008                          42.500          44.900
 105924693.947 7  82385920.048 7                  19829329.703    19829329.387
  19829334.066                          45.300          46.300
 107818414.931 7  84014320.55646                  20517145.984
  20517151.098                          44.100          36.800
 117127749.836 6  91268449.63546  87465597.088 7  22288677.336
  22288687.160    22288685.680          39.200          38.900          47.400
 129979614.242 5 101282843.68842                  24734301.320
  24734306.469                          31.000          14.800
 119824600.017 6  93369861.88043                  22801869.492
  22801874.844                          37.800          23.900
 122843193.805 7                  91733575.632 8  23376280.125
                  23376285.117          47.000                          50.800
 124748387.039 6                  93156291.167 7  23738827.641
                  23738833.508          40.400                          43.800
 131834885.321 6                  98448152.254 7  25087343.094
                  25087349.148          41.900                          46.600
 124800023.378 7                  93194838.634 7  23748656.305
                  23748662.105          43.800                          47.400
 121288577.307 7                  90572666.352 8  23080447.016
                  23080453.172          46.600                          50.900
 20  7  6  0 15  8.0000000  0 18G08G27R24G30G09R23R13G07R12G11G01G21
                                G16E27E14E13E30E15
 107679141.216 7  83905872.54548  80409789.742 8  20490663.594
  20490671.020    20490670.375          45.000          50.500          53.000
 115437525.425 6  89951356.60345  86203378.912 8  21967033.156
  21967040.508    21967040.234          39.700          31.600          48.400
 118130752.743 6  91879495.765 6                  22091044.375    22091044.055
  22091049.438                          38.900          38.900
 123027460.984 5  95865574.27745  91871170.956 7  23411339.758
  23411348.254    23411348.012          35.200          31.500          44.000
 131180651.809 5 102218691.09043  97959582.692 6  24962851.664
  24962860.789    24962861.629          31.000          22.200          39.300
 104130145.123 7  80990149.729 6                  19466030.234    19466029.211
  19466037.098                          46.700          40.600
 105777101.604 5  82271106.822 6                  19808655.633    19808654.691
  19808660.137                          33.300          40.900
 112614401.473 7  87751447.05147                  21429793.359
  21429798.438                          42.700          44.700
 105926448.795 7  82387284.928 7                  19829658.922    19829657.895
  19829662.555                          45.400          46.300
 107816803.874 7  84013065.18246                  20516839.703
  20516844.402                          44.300          36.900
 117124193.011 6  91265678.08646  87462941.018 7  22288000.703
  22288010.246    22288008.898          38.800          38.900          47.100
 129982665.309 5 101285221.08142                  24734882.008
  24734887.160                          30.800          16.300
 119826906.162 6  93371658.88243                  22802308.734
  22802313.574                          37.800          22.900
 122842465.383 7                  91733031.671 8  23376141.297
                  23376146.539          47.100                          50.800
 124742600.546 6                  93151970.094 7  23737726.805
                  23737732.301          40.200                          44.100
 131832381.217 7                  98446282.313 7  25086866.516
                  25086872.648          42.300                          46.800
 124801647.919 7                  93196051.753 7  23748965.266
                  23748971.258          43.900                          47.100
 121288537.736 7                  90572636.796 8  23080439.547
                  23080445.504          46.800                          50.900
 20  7  6  0 15  9.0000000  0 18G08G27R24G30G09R23R13G07R12G11G01G21
                                G16E27E14E13E30E15
 107680016.914 7  83906554.89748  80410443.669 8  20490830.016
  20490837.781    20490836.949          45.200          50.300          52.900
 115440028.344 6  89953306.93145  86205247.997 8  21967509.109
  21967516.770    21967516.449          39.900          31.500          48.100
 118127206.794 6  91876737.834 6                  22090381.102    22090381.188
  22090386.309                          39.000          38.300
 123024593.238 5  95863339.67645  91869029.464 7  23410794.297
  23410802.516    23410802.238          34.800          31.800          43.800
 131183164.164 5 102220648.75743  97961458.761 6  24963328.836
  24963338.828    24963340.004          30.500          21.700          39.200
 104128768.704 7  80989079.173 6                  19465773.102    19465772.090
  19465779.703                          46.500          40.600
 105774937.437 5  82269423.623 6                  19808250.180    19808249.547
  19808254.766                          33.700          41.200
 112612964.331 7  87750327.20447                  21429519.461
  21429524.938                          42.400          44.600
 105928204.322 7  82388650.336 7                  19829987.406    19829986.516
  19829991.152                          45.500          45.600
 107815193.328 7  84011810.21246                  20516533.164
  20516537.934                          44.600          37.000
 117120636.500 6  91262906.77846  87460285.188 7  22287324.102
  22287333.371    22287332.152          39.000          38.600          47.000
 129985717.16115 101287599.28352                  24735464.039
  24735467.754                          31.800          16.300
 119829212.474 6  93373456.00044                  22802747.102
  22802752.520                          37.600          25.200
 122841737.195 7                  91732487.916 8  23376002.945
                  23376007.895          46.900                          50.600
 124736814.077 6                  93147649.042 7  23736625.680
                  23736631.148          39.800                          43.800
 131829877.380 7                  98444412.578 7  25086390.211
                  25086396.184          42.300                          46.900
 124803272.706 7                  93197265.078 7  23749274.523
                  23749280.359          44.100                          47.300
 121288498.617 7                  90572607.599 8  23080431.938
                  23080438.230          46.300                          50.800
 20  7  6  0 15 10.0000000  0 18G08G27R24G30G09R23R13G07R12G11G01G21
                                G16E27E14E13E30E15
 107680892.899 7  83907237.48348  80411097.830 8  20490996.906
  20491004.336    20491003.688          45.700          50.400          52.700
 115442531.400 6  89955257.36145  86207117.148 8  21967985.266
  21967993.031    21967992.820          39.900          31.200          48.300
 118123661.268 6  91873980.169 6                  22089717.719    22089717.895
  22089723.238                          39.000          38.500
 123021725.851 5  95861105.35245  91866888.242 7  23410248.852
  23410256.852    23410256.641          35.300          31.400          43.400
 131185676.449 5 102222606.38443  97963334.857 6  24963806.820
  24963817.004    24963818.152          31.000          22.800          39.100
 104127392.991 7  80988009.184 6                  19465515.688    19465514.719
  19465522.438                          46.400          41.100
 105772773.855 5  82267740.790 6                  19807845.750    19807844.422
  19807849.605                          33.300          41.100
 112611527.743 7  87749207.77747                  21429246.047
  21429251.531                          42.200          44.700
 105929960.484 7  82390016.242 7                  19830315.797    19830315.145
  19830319.941                          45.400          46.000
 107813583.308 7  84010555.65546                  20516226.383
  20516231.480                          44.500          37.000
 117117080.291 6  91260135.70946  87457629.575 7  22286647.242
  22286656.652    22286655.480          39.100          38.400          47.200
 129988768.591 5 101289977.06842                  24736043.953
  24736048.352                          31.900          16.300
 119831518.975 6  93375253.26043                  22803186.570
  22803191.602                          37.400          22.800
 122841009.265 7                  91731944.319 8  23375864.406
                  23375869.383          46.600                          50.700
 124731027.666 6                  93143327.988 7  23735524.648
                  23735530.172          39.700                          43.800
 131827373.833 7                  98442543.032 7  25085913.945
                  25085919.965          42.300                          46.700
 124804897.753 7                  93198478.573 7  23749583.719
                  23749589.609          44.000                          47.400
 121288459.945 7                  90572578.693 8  23080424.609
                  23080430.836          46.500                          50.700
 20  7  6  0 15 11.0000000  0 18G08G27R24G30G09R23R13G07R12G11G01G21
                                G16E27E14E13E30E15
 107681769.231 7  83907920.34448  80411752.220 8  20491163.648
  20491171.199    20491170.422          45.700          50.400          52.500
 115445034.630 6  89957207.92845  86208986.429 8  21968461.742
  21968469.402    21968469.086          39.800          31.900          48.400
 118120116.124 6  91871222.856 6                  22089055.789    22089055.035
  22089060.297                          39.000          38.400
 123018858.822 5  95858871.30845  91864747.285 7  23409703.844
  23409711.223    23409710.883          35.500          31.600          43.400
 131188188.851 5 102224564.08543  97965210.983 6  24964285.047
  24964294.879    24964296.188          31.300          22.500          39.300
 104126018.009 7  80986939.738 6                  19465259.367    19465258.031
  19465265.375                          46.200          40.900
 105770610.791 5  82266058.415 6                  19807439.898    19807439.125
  19807444.617                          33.300          40.900
 112610091.778 7  87748088.84747                  21428972.891
  21428978.211                          42.500          44.700
 105931717.321 7  82391382.674 7                  19830644.859    19830644.172
  19830648.863                          45.300          46.000
 107811973.828 7  84009301.51346                  20515920.883
  20515925.215                          44.600          37.000
 117113524.397 6  91257364.89146  87454974.215 7  22285970.406
  22285980.070    22285979.000          39.100          38.800          47.200
 129991820.199 5 101292354.91842                  24736623.711
  24736629.098                          32.000          16.900
 119833825.666 6  93377050.69543                  22803625.359
  22803630.656                          37.900          23.800
 122840281.574 7                  91731400.919 8  23375726.086
                  23375730.805          46.500                          50.600
 124725241.267 6                  93139006.976 7  23734423.664
                  23734428.809          39.900                          44.100
 131824870.542 6                  98440673.694 7  25085437.586
                  25085443.508          41.900                          46.800
 124806523.022 7                  93199692.256 7  23749892.945
                  23749898.848          44.000                          47.300
 121288421.695 7                  90572550.148 8  23080417.359
                  23080423.582          46.500                          50.900
 20  7  6  0 15 12.0000000  0 18G08G27R24G30G09R23R13G07R12G11G01G21
                                G16E27E14E13E30E15
 107682645.879 7  83908603.44548  80412406.861 8  20491330.234
  20491337.945    20491337.277          45.500          50.300          52.600
 115447537.970 6  89959158.58245  86210855.810 8  21968938.242
  21968945.699    21968945.688          40.000          31.000          48.300
 118116571.374 6  91868465.814 6                  22088392.313    22088391.926
  22088397.238                          39.400          38.500
 123015992.156 5  95856637.53345  91862606.595 7  23409157.023
  23409165.699    23409165.590          35.300          31.300          43.500
 131190701.278 5 102226521.82643  97967087.125 6  24964763.688
  24964773.094    24964774.172          30.800          22.800          39.400
 104124643.730 7  80985870.870 6                  19465001.695    19465001.176
  19465008.484                          46.400          41.100
 105768448.270 5  82264376.468 6                  19807035.352    19807033.637
  19807039.645                          32.900          41.000
 112608656.368 7  87746970.34647                  21428699.719
  21428705.266                          42.000          44.600
 105933474.811 7  82392749.606 7                  19830973.320    19830973.406
  19830977.781                          45.600          46.000
 107810364.864 7  84008047.77746                  20515614.453
  20515619.188                          44.700          37.000
 117109968.833 6  91254594.33246  87452319.097 7  22285294.188
  22285303.484    22285302.293          38.700          39.400          47.200
 129994872.016 5 101294732.96742                  24737205.758
  24737209.871                          32.000          15.600
 119836132.571 6  93378848.28944                  22804063.797
  22804069.699                          38.000          24.900
 122839554.133 7                  91730857.701 8  23375587.297
                  23375592.418          46.700                          50.700
 124719454.875 6                  93134685.980 7  23733322.711
                  23733327.887          39.600                          44.000
 131822367.524 6                  98438804.545 7  25084961.344
                  25084967.246          41.800                          46.900
 124808148.561 7                  93200906.133 7  23750202.188
                  23750208.156          44.100                          47.300
 121288383.886 7                  90572521.913 8  23080410.133
                  23080416.258          46.300                          51.000
 20  7  6  0 15 13.0000000  0 18G08G27R24G30G09R23R13G07R12G11G01G21
                                G16E27E14E13E30E15
 107683522.828 7  83909286.78248  80413061.736 8  20491497.234
  20491504.883    20491504.152          45.300          50.400          52.800
 115450041.429 6  89961109.32545  86212725.294 8  21969415.016
  21969422.250    21969421.902          39.800          32.100          48.300
 118113027.024 6  91865709.078 6                  22087729.445    22087729.207
  22087734.406                          39.400          38.400
 123013125.825 5  95854404.02745  91860466.157 7  23408611.680
  23408620.406    23408620.102          34.800          31.400          43.500
 131193213.729 5 102228479.58343  97968963.319 6  24965241.555
  24965251.238    24965252.344          31.300          23.200          39.200
 104123270.167 7  80984802.526 6                  19464745.125    19464744.371
  19464751.727                          46.400          41.100
 105766286.294 5  82262694.894 6                  19806630.430    19806629.027
  19806634.848                          33.400          41.400
 112607221.541 6  87745852.30247                  21428426.602
  21428432.043                          41.900          44.700
 105935232.913 7  82394117.035 7                  19831302.195    19831302.383
  19831306.926                          45.500          45.900
 107808756.404 7  84006794.43346                  20515307.727
  20515313.070                          44.300          37.100
 117106413.530 6  91251823.96846  87449664.178 7  22284617.242
  22284626.883    22284625.867          39.200          39.400          47.300
 129997923.485 5 101297110.60042                  24737785.422
  24737790.629                          32.200          15.600
 119838439.669 6  93380646.03244                  22804502.781
  22804508.746                          38.200          25.000
 122838826.922 7                  91730314.644 8  23375448.875
                  23375454.078          46.700                          50.600
 124713668.485 6                  93130365.007 7  23732221.516
                  23732226.754          39.700                          43.800
 131819864.733 7                  98436935.593 7  25084484.984
                  25084490.930          42.100                          46.800
 124809774.333 7                  93202120.174 7  23750511.789
                  23750517.516          43.900                          47.300
 121288346.495 7                  90572494.001 8  23080403.000
                  23080409.203          46.200                          51.300
 20  7  6  0 15 14.0000000  0 18G08G27R24G30G09R23R13G07R12G11G01G21
                                G16E27E14E13E30E15
 107684400.136 7  83909970.40148  80413716.861 8  20491663.969
  20491671.910    20491671.031          45.500          50.500          53.000
 115452545.090 6  89963060.22445  86214594.892 8  21969890.914
  21969898.641    21969898.328          39.700          30.600          48.300
 118109483.084 6  91862952.706 6                  22087067.531    22087066.418
  22087071.613                          39.400          38.700
 123010259.900 5  95852170.83245  91858326.004 7  23408066.773
  23408075.176    23408074.695          34.500          31.900          43.400
 131195726.233 5 102230437.38143  97970839.542 6  24965720.391
  24965729.336    24965730.430          32.000          20.900          39.200
 104121897.338 7  80983734.778 6                  19464488.672    19464487.688
  19464495.066                          46.600          41.200
 105764124.829 5  82261013.754 6                  19806225.586    19806224.258
  19806230.047                          33.800          41.900
 112605787.343 7  87744734.74147                  21428153.375
  21428159.199                          42.300          44.700
 105936991.727 7  82395484.985 7                  19831631.352    19831631.844
  19831636.242                          45.700          45.900
 107807148.506 7  84005541.51946                  20515002.141
  20515007.117                          44.100          37.400
 117102858.606 6  91249053.91046  87447009.516 7  22283940.500
  22283950.355    22283949.375          39.100          39.400          47.500
 130000975.666 5 101299488.94642                  24738367.102
  24738371.648                          31.000          15.600
 119840746.977 6  93382443.93644                  22804941.969
  22804947.820                          38.400          24.400
 122838099.987 7                  91729771.807 8  23375310.836
                  23375315.684          46.600                          50.800
 124707882.229 6                  93126044.072 7  23731120.281
                  23731125.645          40.200                          43.700
 131817362.268 7                  98435066.873 7  25084008.633
                  25084014.828          42.100                          46.600
 124811400.368 7                  93203334.439 7  23750821.211
                  23750826.887          43.700                          47.500
 121288309.588 7                  90572466.432 8  23080395.805
                  23080402.215          46.000                          51.200
 20  7  6  0 15 15.0000000  0 18G08G27R24G30G09R23R13G07R12G11G01G21
                                G16E27E14E13E30E15
 107685277.751 7  83910654.25248  80414372.213 8  20491831.039
  20491838.789    20491838.086          45.300          50.400          52.900
 115455048.861 6  89965011.22445  86216464.598 8  21970367.945
  21970375.031    21970374.941          40.100          31.000          48.400
 118105939.520 6  91860196.606 6                  22086403.836    22086404.152
  22086409.117                          38.900          38.700
 123007394.317 5  95849937.92045  91856186.113 7  23407521.758
  23407529.551    23407529.500          35.200          31.600          43.900
 131198238.758 5 102232395.19243  97972715.761 6  24966198.148
  24966207.414    24966208.645          31.200          22.800          39.300
 104120525.223 7  80982667.581 6                  19464232.367    19464231.172
  19464238.543                          46.600          41.300
 105761963.920 5  82259333.075 6                  19805820.367    19805819.914
  19805825.477                          33.500          41.900
 112604353.688 7  87743617.60747                  21427880.891
  21427886.461                          42.600          44.700
 105938751.186 7  82396853.443 7                  19831961.367    19831961.227
  19831965.695                          45.700          45.800
 107805541.106 7  84004289.00146                  20514696.492
  20514701.320                          44.300          37.300
 117099303.948 6  91246284.04046  87444355.072 7  22283264.625
  22283273.953    22283272.980          38.900          39.200          47.900
 130004027.980 5 101301867.41042                  24738947.570
  24738952.383                          30.800          16.300
 119843054.450 6  93384241.96444                  22805381.203
  22805386.863                          38.500          24.900
 122837373.276 7                  91729229.123 8  23375172.445
                  23375177.508          47.000                          50.900
 124702095.902 6                  93121723.107 7  23730019.367
                  23730024.465          40.600                          43.900
 131814860.030 7                  98433198.325 7  25083532.805
                  25083538.613          42.300                          46.500
 124813026.650 7                  93204548.835 7  23751130.805
                  23751136.465          44.100                          47.600
 121288273.084 7                  90572439.167 8  23080389.031
                  23080395.238          46.500                          51.000
 20  7  6  0 15 16.0000000  0 18G08G27R24G30G09R23R13G07R12G11G01G21
                                G16E27E14E13E30E15
 107686155.662 7  83911338.33548  80415027.804 8  20491998.273
  20492005.824    20492005.125          45.400          50.300          52.900
 115457552.775 6  89966962.31345  86218334.396 8  21970844.180
  21970851.672    21970851.320          40.100          31.800          48.300
 118102396.395 6  91857440.845 6                  22085741.688    22085741.277
  22085746.559                          38.900          38.300
 123004529.063 5  95847705.25745  91854046.482 7  23406976.219
  23406984.305    23406984.152          35.200          32.000          44.100
 131200751.350 5 102234353.02043  97974592.055 6  24966675.969
  24966685.391    24966686.586          30.800          22.600          39.200
 104119153.854 7  80981600.954 6                  19463975.680    19463974.813
  19463982.137                          46.500          41.300
 105759803.545 5  82257652.773 6                  19805416.891    19805415.438
  19805420.691                          33.100          41.400
 112602920.615 7  87742500.93547                  21427608.172
  21427613.637                          42.500          44.600
 105940511.309 7  82398222.431 7                  19832290.852    19832290.793
  19832295.332                          46.000          45.800
 107803934.210 7  84003036.87246                  20514390.320
  20514395.422                          44.500          37.400
 117095749.577 6  91243514.40846  87441700.851 7  22282587.656
  22282597.473    22282596.453          38.300          39.200          47.600
 130007080.464 5 101304245.90642                  24739527.523
  24739533.070                          31.600          15.600
 119845362.124 6  93386040.14743                  22805820.781
  22805826.004                          37.600          22.300
 122836646.798 7                  91728686.630 8  23375034.242
                  23375039.262          47.000                          50.900
 124696309.656 6                  93117402.220 7  23728917.891
                  23728923.348          40.900                          44.200
 131812358.076 7                  98431329.971 7  25083056.820
                  25083062.508          42.400                          46.300
 124814653.159 7                  93205763.458 7  23751440.016
                  23751445.848          43.900                          47.300
 121288237.030 7                  90572412.247 8  23080382.039
                  23080388.461          46.500                          50.800
 20  7  6  0 15 17.0000000  0 19G08G27R24G30G09R23R13G07R12G11R14G01
                                G21G16E27E14E13E30E15
 107687033.953 7  83912022.71948  80415683.673 8  20492165.109
  20492172.984    20492172.273          45.500          50.300          52.900
 115460056.896 6  89968913.57845  86220204.338 8  21971320.477
  21971328.133    21971327.848          40.100          32.100          48.300
 118098853.660 6  91854685.362 6                  22085078.516    22085078.668
  22085084.043                          39.400          38.400
 123001664.224 5  95845472.91845  91851907.124 7  23406430.664
  23406439.063    23406439.051          34.700          32.200          44.000
 131203263.950 5 102236310.89743  97976468.350 6  24967154.094
  24967163.645    24967164.434          30.500          22.200          39.100
 104117783.222 7  80980534.916 6                  19463719.453    19463718.703
  19463725.934                          46.400          41.000
 105757643.689 5  82255972.915 6                  19805012.617    19805011.102
  19805016.234                          33.700          41.600
 112601488.218 7  87741384.78047                  21427335.555
  21427341.172                          42.400          44.600
 105942272.089 7  82399591.934 7                  19832620.438    19832620.410
  19832624.820                          46.000          45.700
 107802327.912 7  84001785.21546                  20514085.008
  20514089.848                          44.500          37.200
                  98784285.02415                  23826440.836
  23826442.590                                          30.400
 117092195.585 6  91240745.06946  87439046.897 7  22281911.859
  22281921.281    22281920.426          38.700          39.000          47.500
 130010133.260 5 101306624.77042                  24740108.406
  24740113.984                          31.800          14.800
 119847670.063 6  93387838.53944                  22806259.328
  22806265.117                          38.100          25.300
 122835920.601 7                  91728144.343 8  23374896.133
                  23374900.969          47.000                          50.800
 124690523.432 6                  93113081.347 7  23727817.180
                  23727822.199          40.900                          44.000
 131809856.422 7                  98429461.851 7  25082580.406
                  25082586.469          42.300                          46.800
 124816279.976 7                  93206978.291 7  23751749.633
                  23751755.523          44.000                          47.500
 121288201.442 7                  90572385.678 8  23080375.336
                  23080381.625          46.400                          51.000
 20  7  6  0 15 18.0000000  0 19G08G27R24G30G09R23R13G07R12G11R14G01
                                G21G16E27E14E13E30E15
 107687912.559 7  83912707.34748  80416339.766 8  20492332.430
  20492340.246    20492339.496          45.400          50.300          53.000
 115462561.134 6  89970864.93345  86222074.395 8  21971796.984
  21971804.613    21971804.559          39.800          31.500          48.500
 118095311.292 6  91851930.206 6                  22084416.336    22084415.992
  22084421.531                          39.200          38.600
 122998799.701 5  95843240.82245  91849768.061 7  23405885.586
  23405893.789    23405894.047          35.100          31.900          43.900
 131205776.643 5 102238268.83443  97978344.707 6  24967632.750
  24967641.691    24967642.250          30.500          22.900          38.900
 104116413.320 7  80979469.436 6                  19463462.984    19463462.625
  19463469.949                          46.300          41.300
 105755484.376 5  82254293.471 6                  19804609.094    19804606.668
  19804611.887                          33.100          41.500
 112600056.350 7  87740269.02747                  21427062.992
  21427068.625                          42.400          44.600
 105944033.531 7  82400961.938 7                  19832950.336    19832950.059
  19832954.586                          45.700          45.700
 107800722.107 7  84000533.93846                  20513778.656
  20513784.215                          44.300          37.100
                  98781171.755 5                  23825690.992
  23825691.797                                          30.900
 117088641.895 6  91237975.95646  87436393.150 7  22281235.539
  22281245.008    22281244.035          38.300          38.800          47.900
 130013186.210 5 101309003.63642                  24740689.805
  24740694.953                          31.200          15.600
 119849978.183 6  93389637.07243                  22806698.742
  22806704.359                          38.100          23.500
 122835194.661 7                  91727602.235 8  23374757.867
                  23374762.883          46.800                          50.500
 124684737.267 6                  93108760.501 7  23726715.914
                  23726721.313          40.800                          44.300
 131807355.022 7                  98427593.918 7  25082104.570
                  25082110.465          42.400                          46.800
 124817907.022 7                  93208193.282 7  23752059.055
                  23752065.195          44.000                          47.600
 121288166.281 7                  90572359.422 8  23080368.445
                  23080374.879          46.600                          51.200
 20  7  6  0 15 19.0000000  0 19G08G27R24G30G09R23R13G07R12G11R14G01
                                G21G16E27E14E13E30E15
 107688791.476 7  83913392.22148  80416996.102 8  20492499.766
  20492507.480    20492506.727          45.800          50.300          52.500
 115465065.493 6  89972816.38045  86223944.536 8  21972273.477
  21972281.344    21972280.988          40.000          31.600          48.500
 118091769.373 6  91849175.363 6                  22083754.953    22083753.949
  22083759.281                          39.000          38.100
 122995935.563 5  95841009.02845  91847629.248 7  23405340.539
  23405348.848    23405348.914          35.200          31.900          44.100
 131208289.340 5 102240226.79743  97980221.071 6  24968111.703
  24968119.824    24968120.504          31.200          22.900          38.600
 104115044.150 7  80978404.537 6                  19463207.500    19463206.469
  19463214.023                          46.000          41.000
 105753325.653 5  82252614.432 6                  19804204.617    19804202.188
  19804207.641                          33.100          41.400
 112598625.082 7  87739153.75747                  21426790.383
  21426796.230                          42.200          44.700
 105945795.641 7  82402332.469 7                  19833280.516    19833279.969
  19833284.438                          45.700          45.100
 107799116.836 7  83999283.07546                  20513473.680
  20513478.711                          44.400          37.300
                  98778058.394 5                  23824938.383
  23824940.730                                          31.100
 117085088.539 6  91235207.11046  87433739.671 7  22280559.547
  22280568.801    22280567.895          38.600          39.000          47.800
 130016239.323 5 101311382.73142                  24741270.719
  24741276.012                          31.200          14.800
 119852286.479 6  93391435.74644                  22807138.398
  22807143.539                          38.100          24.500
 122834468.949 7                  91727060.309 8  23374619.813
                  23374624.805          47.100                          50.500
 124678951.114 6                  93104439.682 7  23725614.867
                  23725620.270          40.600                          43.800
 131804853.889 7                  98425726.202 7  25081628.664
                  25081634.523          42.700                          47.000
 124819534.324 7                  93209408.476 7  23752368.758
                  23752374.816          43.500                          47.200
 121288131.574 7                  90572333.504 8  23080361.984
                  23080368.289          46.200                          51.100
 20  7  6  0 15 20.0000000  0 19G08G27R24G30G09R23R13G07R12G11R14G01
                                G21G16E27E14E13E30E15
 107689670.705 7  83914077.32848  80417652.665 8  20492667.156
  20492674.773    20492674.008          45.800          50.500          52.400
 115467569.999 6  89974767.94445  86225814.789 8  21972750.250
  21972758.020    21972757.625          40.200          31.100          48.200
 118088227.835 6  91846420.840 6                  22083092.570    22083091.156
  22083097.004                          38.700          38.200
 122993071.759 5  95838777.49145  91845490.709 7  23404796.227
  23404803.891    23404803.988          34.600          32.000          44.300
 131210802.087 5 102242184.75843  97982097.464 6  24968589.516
  24968597.992    24968598.738          30.100          22.300          38.500
 104113675.719 7  80977340.197 6                  19462951.156    19462950.590
  19462958.238                          46.100          40.900
 105751167.427 5  82250935.800 6                  19803799.594    19803797.965
  19803803.305                          33.300          41.500
 112597194.405 7  87738038.93647                  21426518.195
  21426524.039                          42.300          44.700
 105947558.387 7  82403703.492 7                  19833610.344    19833609.988
  19833614.418                          45.600          45.600
 107797512.072 7  83998032.61046                  20513168.453
  20513173.305                          44.100          37.400
                  98774945.135 5                  23824188.102
  23824189.863                                          30.700
 117081535.437 6  91232438.45746  87431086.398 7  22279882.938
  22279892.809    22279891.742          38.400          38.900          47.600
 130019292.538 5 101313761.81742                  24741851.828
  24741857.020                          31.900          14.800
 119854594.996 6  93393234.57844                  22807577.492
  22807582.883                          37.900          24.700
 122833743.490 7                  91726518.575 8  23374481.766
                  23374486.746          46.800                          50.400
 124673164.983 6                  93100118.872 7  23724513.867
                  23724519.234          40.800                          44.100
 131802352.999 7                  98423858.673 7  25081152.828
                  25081158.551          42.400                          47.000
 124821161.865 7                  93210623.845 7  23752678.461
                  23752684.496          43.700                          47.400
 121288097.292 7                  90572307.899 8  23080355.484
                  23080361.766          46.400                          51.200
 20  7  6  0 15 21.0000000  0 19G08G27R24G30G09R23R13G07R12G11R14G01
                                G21G16E27E14E13E30E15
 107690550.237 7  83914762.67448  80418309.461 8  20492834.367
  20492842.184    20492841.406          45.500          50.300          52.300
 115470074.651 6  89976719.62345  86227685.151 8  21973226.758
  21973234.570    21973234.168          40.200          32.100          48.200
 118084686.661 6  91843666.583 6                  22082430.070    22082429.410
  22082434.902                          39.200          38.700
 122990208.361 5  95836546.25845  91843352.437 7  23404251.352
  23404259.012    23404259.141          35.000          32.500          44.300
 131213314.823 5 102244142.74743  97983973.894 6  24969067.367
  24969076.160    24969076.598          30.700          22.000          38.600
 104112307.990 7  80976276.405 6                  19462696.359    19462694.965
  19462702.531                          46.300          41.000
 105749009.762 5  82249257.631 6                  19803394.914    19803393.938
  19803399.324                          33.100          41.700
 112595764.307 7  87736924.57847                  21426246.320
  21426251.988                          42.900          44.700
 105949321.798 7  82405075.033 7                  19833940.313    19833940.008
  19833944.488                          45.900          46.000
 107795907.848 7  83996782.57246                  20512862.688
  20512868.188                          44.200          37.000
                  98771831.756 5                  23823436.797
  23823438.805                                          30.700
 117077982.691 6  91229670.08446  87428433.357 7  22279206.852
  22279216.609    22279215.738          38.100          38.600          47.600
 130022346.001 5 101316141.14942                  24742433.594
  24742438.090                          31.500          16.300
 119856903.663 6  93395033.53543                  22808017.000
  22808022.145                          37.800          22.800
 122833018.247 7                  91725977.001 8  23374343.688
                  23374348.820          46.800                          50.900
 124667378.879 6                  93095798.074 7  23723412.828
                  23723418.059          40.700                          44.000
 131799852.398 7                  98421991.326 7  25080676.813
                  25080682.879          42.600                          47.000
 124822789.640 7                  93211839.396 7  23752988.203
                  23752994.355          43.300                          47.200
 121288063.449 7                  90572282.622 8  23080349.086
                  23080355.313          46.500                          50.900
 20  7  6  0 15 22.0000000  0 19G08G27R24G30G09R23R13G07R12G11R14G01
                                G21G16E27E14E13E30E15
 107691430.106 7  83915448.28448  80418966.499 8  20493001.781
  20493009.539    20493008.883          45.300          50.400          52.700
 115472579.444 6  89978671.40645  86229555.605 8  21973703.625
  21973711.262    21973710.930          39.800          31.800          48.200
 118081145.896 6  91840912.660 6                  22081768.180    22081767.430
  22081772.723                          39.200          39.100
 122987345.267 5  95834315.28645  91841214.419 7  23403706.070
  23403714.379    23403714.492          35.000          31.900          44.100
 131215827.685 5 102246100.81643  97985850.316 6  24969545.641
  24969554.449    24969554.898          30.700          21.800          38.300
 104110940.996 7  80975213.175 6                  19462440.313    19462439.711
  19462447.008                          46.500          40.400
 105746852.590 5  82247579.841 6                  19802991.391    19802990.039
  19802995.328                          33.200          41.600
 112594334.800 7  87735810.67247                  21425974.086
  21425979.793                          42.400          44.600
 105951085.868 7  82406447.082 7                  19834270.508    19834270.316
  19834274.836                          45.500          46.100
 107794304.126 7  83995532.91746                  20512557.820
  20512562.867                          44.100          37.500
                  98768718.387 4                  23822687.602
  23822687.949                                          29.400
 117074430.252 6  91226901.94346  87425780.547 7  22278530.781
  22278540.430    22278539.711          37.900          38.700          47.500
 130025399.614 5 101318520.57842                  24743014.211
  24743019.113                          32.000          15.600
 119859212.522 6  93396832.65544                  22808455.836
  22808461.496                          37.400          24.700
 122832293.280 7                  91725435.616 8  23374205.695
                  23374210.789          46.800                          51.100
 124661592.798 6                  93091477.286 7  23722311.820
                  23722317.164          40.700                          44.100
 131797352.078 7                  98420124.197 7  25080201.164
                  25080206.879          42.500                          47.000
 124824417.662 7                  93213055.120 7  23753297.992
                  23753303.984          43.400                          47.000
 121288030.037 7                  90572257.670 8  23080342.828
                  23080348.953          46.700                          50.800
 20  7  6  0 15 23.0000000  0 19G08G27R24G30G09R23R13G07R12G11R14G01
                                G21G16E27E14E13E30E15
 107692310.307 7  83916134.15648  80419623.790 8  20493169.180
  20493177.199    20493176.391          45.700          50.400          52.700
 115475084.408 6  89980623.33345  86231426.194 8  21974180.773
  21974188.008    21974187.469          39.900          31.500          48.200
 118077605.603 6  91838159.094 6                  22081105.953    22081105.566
  22081110.754                          39.500          38.900
 122984482.552 5  95832084.60445  91839076.689 7  23403160.906
  23403169.477    23403169.617          35.000          31.900          44.300
 131218340.550 5 102248058.88743  97987726.837 6  24970024.016
  24970032.543    24970032.875          30.300          22.600          38.400
 104109574.734 7  80974150.525 6                  19462184.789    19462184.125
  19462191.574                          46.300          40.600
 105744696.033 5  82245902.465 6                  19802587.320    19802586.066
  19802591.477                          32.600          41.400
 112592905.907 7  87734697.24947                  21425702.922
  21425707.973                          42.700          44.700
 105952850.649 7  82407819.692 7                  19834601.125    19834600.742
  19834605.211                          45.800          46.500
 107792700.966 7  83994283.70346                  20512252.813
  20512257.848                          44.200          36.900
                  98765605.024 5                  23821938.313
  23821936.898                                          30.500
 117070878.091 6  91224134.03346  87423127.988 7  22277855.023
  22277864.645    22277863.672          37.800          38.500          47.600
 130028453.455 5 101320900.25842                  24743595.289
  24743600.168                          31.800          14.800
 119861521.616 6  93398631.94943                  22808895.203
  22808900.980                          37.700          23.300
 122831568.542 7                  91724894.418 8  23374067.680
                  23374072.906          46.300                          50.800
 124655806.760 6                  93087156.576 7  23721210.664
                  23721215.949          40.300                          43.700
 131794852.029 7                  98418257.285 7  25079725.586
                  25079731.109          42.600                          46.500
 124826045.968 7                  93214271.067 7  23753607.867
                  23753613.977          43.700                          47.200
 121287997.074 7                  90572233.067 8  23080336.375
                  23080342.750          46.500                          51.100
 20  7  6  0 15 24.0000000  0 19G08G27R24G30G09R23R13G07R12G11R14G01
                                G21G16E27E14E13E30E15
 107693190.817 7  83916820.27348  80420281.318 8  20493336.953
  20493344.613    20493343.930          45.800          50.500          52.500
 115477589.524 6  89982575.36045  86233296.889 8  21974657.500
  21974664.734    21974664.129          40.000          31.400          48.100
 118074065.654 6  91835405.826 6                  22080443.727    22080443.219
  22080448.676                          38.900          39.100
 122981620.219 5  95829854.20845  91836939.227 7  23402616.391
  23402624.652    23402625.195          34.800          31.700          44.300
 131220853.415 5 102250016.96043  97989603.328 6  24970501.945
  24970510.664    24970510.844          30.100          22.900          38.500
 104108209.196 7  80973088.454 6                  19461929.695    19461929.020
  19461936.426                          46.300          40.700
 105742539.990 5  82244225.571 6                  19802184.227    19802182.266
  19802187.730                          32.600          41.200
 112591477.572 7  87733584.25947                  21425430.625
  21425436.145                          42.600          44.900
 105954616.098 7  82409192.815 7                  19834931.828    19834930.941
  19834935.758                          45.700          46.400
 107791098.318 7  83993034.88946                  20511947.852
  20511952.895                          43.900          37.000
                  98762491.524 5                  23821187.086
  23821185.813                                          30.300
 117067326.303 6  91221366.40346  87420475.664 7  22277179.367
  22277188.828    22277187.930          38.200          38.700          47.600
 130031507.528 5 101323280.02042                  24744177.070
  24744181.379                          31.600          14.800
 119863830.914 6  93400431.39144                  22809335.313
  22809340.605                          38.100          24.000
 122830844.071 7                  91724353.423 8  23373929.906
                  23373934.934          46.000                          50.800
 124650020.781 6                  93082835.867 7  23720109.781
                  23720114.848          40.600                          43.600
 131792352.262 7                  98416390.560 7  25079249.828
                  25079255.531          42.800                          46.800
 124827674.518 7                  93215487.195 7  23753917.664
                  23753923.801          43.700                          47.300
 121287964.574 7                  90572208.790 8  23080330.328
                  23080336.445          46.800                          51.400
 20  7  6  0 15 25.0000000  0 19G08G27R24G30G09R23R13G07R12G11R14G01
                                G21G16E27E14E13E30E15
 107694071.638 7  83917506.62548  80420939.080 8  20493504.148
  20493512.270    20493511.574          45.700          50.300          52.700
 115480094.787 6  89984527.51345  86235167.687 8  21975134.039
  21975141.363    21975141.031          40.400          31.800          48.300
 118070526.106 6  91832652.840 6                  22079781.352    22079781.883
  22079786.871                          39.100          39.400
 122978758.246 5  95827624.09445  91834802.029 7  23402072.641
  23402080.070    23402080.480          35.400          31.400          43.900
 131223366.324 4 102251975.07143  97991479.900 6  24970980.633
  24970988.758    24970989.203          29.600          22.600          38.000
 104106844.378 7  80972026.939 6                  19461674.461    19461673.781
  19461681.230                          46.300          40.600
 105740384.467 5  82242549.048 6                  19801781.234    19801778.516
  19801784.043                          33.100          41.500
 112590049.865 7  87732471.76347                  21425158.945
  21425164.430                          42.300          44.600
 105956382.193 7  82410566.445 7                  19835261.781    19835261.625
  19835266.328                          46.100          46.100
 107789496.187 7  83991786.47346                  20511643.117
  20511648.043                          44.200          36.800
                  98759378.069 5                  23820435.883
  23820434.746                                          31.000
 117063774.813 6  91218599.00546  87417823.579 7  22276503.656
  22276513.012    22276512.082          38.700          38.700          47.500
 130034561.633 5 101325659.86742                  24744757.117
  24744762.852                          31.800          14.800
 119866140.395 6  93402230.99544                  22809774.664
  22809779.980                          38.200          24.300
 122830119.845 7                  91723812.600 8  23373792.172
                  23373797.098          46.100                          50.700
 124644234.816 6                  93078515.167 7  23719008.563
                  23719013.848          41.200                          43.700
 131789852.736 7                  98414524.043 7  25078774.133
                  25078779.918          42.500                          46.700
 124829303.316 7                  93216703.498 7  23754227.641
                  23754233.809          44.200                          47.200
 121287932.490 7                  90572184.829 8  23080324.164
                  23080330.449          46.600                          51.300
 20  7  6  0 15 26.0000000  0 19G08G27R24G30G09R23R13G07R12G11R14G01
                                G21G16E27E14E13E30E15
 107694952.782 7  83918193.23248  80421597.083 8  20493672.258
  20493680.004    20493679.133          45.700          50.400          52.800
 115482600.159 6  89986479.75945  86237038.592 8  21975610.906
  21975618.223    21975617.813          40.600          31.500          48.500
 118066986.991 6  91829900.177 6                  22079119.555    22079119.945
  22079124.941                          39.200          39.400
 122975896.622 5  95825394.26145  91832665.106 7  23401527.547
  23401535.469    23401536.109          35.000          31.200          43.700
 131225879.380 4 102253933.26743  97993356.447 6  24971458.188
  24971467.195    24971467.402          29.600          22.200          38.000
 104105480.296 7  80970965.980 6                  19461419.586    19461418.801
  19461426.324                          46.000          40.600
 105738229.468 5  82240872.959 6                  19801377.719    19801375.207
  19801380.465                          33.100          41.300
 112588622.728 7  87731359.70347                  21424887.273
  21424892.891                          42.400          44.700
 105958148.924 7  82411940.567 7                  19835593.586    19835592.508
  19835597.152                          46.000          46.200
 107787894.590 7  83990538.47846                  20511338.023
  20511343.316                          44.000          37.500
                  98756264.561 5                  23819686.016
  23819684.043                                          30.400
 117060223.642 6  91215831.86346  87415171.718 7  22275827.828
  22275837.379    22275836.398          38.800          38.700          47.500
 130037616.022 5 101328039.86842                  24745338.609
  24745343.898                          31.600          15.600
 119868450.073 6  93404030.75044                  22810214.625
  22810219.359                          38.100          25.000
 122829395.861 7                  91723271.966 8  23373654.227
                  23373659.352          46.200                          50.300
 124638448.888 6                  93074194.498 7  23717907.594
                  23717912.652          41.100                          43.400
 131787353.478 7                  98412657.717 7  25078298.641
                  25078304.246          42.700                          46.600
 124830932.373 7                  93217919.993 7  23754537.844
                  23754543.938          44.000                          47.400
 121287900.858 7                  90572161.212 8  23080318.289
                  23080324.305          46.300                          51.500
 20  7  6  0 15 27.0000000  0 19G08G27R24G30G09R23R13G07R12G11R14G01
                                G21G16E27E14E13E30E15
 107695834.274 7  83918880.10248  80422255.333 8  20493839.883
  20493847.684    20493846.887          46.100          50.300          52.600
 115485105.709 6  89988432.13045  86238909.626 8  21976087.641
  21976095.078    21976094.445          40.200          31.900          48.100
 118063448.266 6  91827147.852 6                  22078458.625    22078457.758
  22078463.207                          39.400          39.100
 122973035.391 5  95823164.73545  91830528.462 7  23400982.945
  23400991.070    23400991.598          35.000          31.500          43.800
 131228392.404 4 102255891.48043  97995233.054 6  24971936.500
  24971945.375    24971945.828          29.400          22.200          38.400
 104104116.954 7  80969905.596 6                  19461164.648    19461163.879
  19461171.375                          46.300          40.700
 105736075.071 5  82239197.289 6                  19800972.672    19800971.770
  19800976.871                          33.500          41.700
 112587196.192 7  87730248.11947                  21424615.906
  21424621.500                          42.600          44.900
 105959916.302 7  82413315.197 7                  19835922.953    19835923.059
  19835928.020                          46.100          46.500
 107786293.548 7  83989290.91646                  20511033.734
  20511038.625                          44.000          37.300
                  98753151.074 5                  23818935.672
  23818932.980                                          32.000
 117056672.790 6  91213064.95746  87412520.106 7  22275152.117
  22275161.633    22275160.766          38.400          38.900          47.800
 130040670.649 5 101330420.07142                  24745920.422
  24745925.137                          31.800          16.900
 119870759.968 6  93405830.64744                  22810653.898
  22810658.820                          38.300          24.700
 122828672.137 7                  91722731.520 8  23373516.711
                  23373521.570          46.500                          50.600
 124632662.993 6                  93069873.855 7  23716806.695
                  23716811.723          41.200                          43.500
 131784854.519 7                  98410791.610 7  25077823.305
                  25077828.754          42.900                          46.800
 124832561.662 7                  93219136.691 7  23754847.813
                  23754853.820          43.700                          47.400
 121287869.667 7                  90572137.918 8  23080312.320
                  23080318.496          46.400                          51.100
 20  7  6  0 15 28.0000000  0 19G08G27R24G30G09R23R13G07R12G11R14G01
                                G21G16E27E14E13E30E15
 107696716.064 7  83919567.21148  80422913.801 8  20494008.102
  20494015.441    20494014.668          45.700          50.300          52.700
 115487611.370 6  89990384.59945  86240780.756 8  21976564.094
  21976571.727    21976571.145          40.100          31.600          48.400
 118059909.956 6  91824395.816 6                  22077795.766    22077796.328
  22077801.629                          39.400          39.100
 122970174.462 5  95820935.43445  91828392.071 7  23400438.898
  23400446.770    23400447.367          35.000          31.900          43.700
 131230905.455 4 102257849.71343  97997109.701 6  24972414.977
  24972423.609    24972424.121          29.900          22.600          38.200
 104102754.313 7  80968845.772 6                  19460909.703    19460909.238
  19460916.582                          46.200          40.700
 105733921.118 5  82237522.002 6                  19800569.195    19800568.086
  19800573.578                          33.200          41.400
 112585770.236 7  87729136.98347                  21424344.367
  21424350.258                          42.700          44.900
 105961684.348 7  82414690.354 7                  19836254.508    19836254.082
  19836258.926                          45.900          46.600
 107784692.977 7  83988043.71946                  20510729.250
  20510734.043                          44.200          37.000
                  98750037.588 5                  23818182.797
  23818181.996                                          31.400
 117053122.240 6  91210298.29346  87409868.719 8  22274476.063
  22274486.055    22274485.117          38.700          38.800          48.000
 130043725.88215 101332800.85952                  24746501.680
  24746506.520                          32.200          16.300
 119873070.047 6  93407630.71244                  22811093.625
  22811098.352                          38.500          24.800
 122827948.663 7                  91722191.250 8  23373378.930
                  23373384.031          46.800                          50.900
 124626877.118 6                  93065553.245 7  23715705.641
                  23715710.500          41.500                          43.600
 131782355.820 7                  98408925.693 7  25077347.633
                  25077353.227          42.800                          46.800
 124834191.215 7                  93220353.549 7  23755157.969
                  23755163.988          43.500                          47.200
 121287838.915 7                  90572114.954 8  23080306.398
                  23080312.551          46.600                          50.800
 20  7  6  0 15 29.0000000  0 19G08G27R24G30G09R23R13G07R12G11R14G01
                                G21G16E27E14E13E30E15
 107697598.147 7  83920254.55148  80423572.501 8  20494175.516
  20494183.434    20494182.625          45.700          50.300          52.200
 115490117.209 6  89992337.19045  86242651.985 8  21977041.063
  21977048.594    21977048.168          40.200          31.400          48.300
 118056372.028 6  91821644.087 6                  22077135.164    22077134.699
  22077140.086                          39.100          38.900
 122967313.919 5  95818706.44145  91826255.950 7  23399894.688
  23399902.383    23399902.789          34.900          31.300          43.700
 131233418.549 4 102259807.95543  97998986.371 6  24972893.180
  24972901.816    24972902.348          29.100          22.800          38.200
 104101392.411 7  80967786.520 6                  19460655.188    19460654.535
  19460662.070                          46.400          40.500
 105731767.751 5  82235847.196 6                  19800166.773    19800164.773
  19800170.426                          32.900          41.500
 112584344.859 7  87728026.30447                  21424073.227
  21424078.953                          42.100          44.700
 105963453.098 7  82416066.033 7                  19836586.063    19836585.102
  19836590.063                          45.800          45.700
 107783092.981 7  83986796.96446                  20510424.852
  20510429.512                          44.500          37.300
                  98746924.026 5                  23817431.398
  23817430.945                                          31.200
 117049572.011 6  91207531.88046  87407217.566 7  22273800.500
  22273810.289    22273809.477          38.600          38.900          47.600
 130046780.74215 101335181.33152                  24747083.234
  24747088.039                          31.500          16.300
 119875380.331 6  93409430.93044                  22811532.922
  22811538.105                          38.300          25.200
 122827225.415 7                  91721651.171 8  23373241.313
                  23373246.371          46.600                          50.400
 124621091.276 6                  93061232.647 7  23714604.328
                  23714609.695          41.100                          43.900
 131779857.375 7                  98407059.979 7  25076872.156
                  25076877.789          42.600                          46.600
 124835821.017 7                  93221570.617 7  23755468.188
                  23755474.223          43.900                          47.300
 121287808.602 7                  90572092.309 8  23080300.602
                  23080306.785          46.800                          51.000
 20  7  6  0 15 30.0000000  0 19G08G27R24G30G09R23R13G07R12G11R14G01
                                G21G16E27E14E13E30E15
 107698480.562 7  83920942.14648  80424231.454 8  20494343.273
  20494351.387    20494350.500          45.500          50.300          52.400
 115492623.195 6  89994289.91045  86244523.335 8  21977517.641
  21977525.508    21977525.082          39.900          31.600          48.200
 118052834.506 6  91818892.689 6                  22076473.406    22076473.176
  22076478.609                          39.100          39.100
 122964453.733 5  95816477.73445  91824120.102 7  23399349.875
  23399357.898    23399358.648          34.900          31.800          43.800
 131235931.705 4 102261766.25243  98000863.059 6  24973371.375
  24973379.996    24973380.715          29.400          22.600          38.200
 104100031.260 7  80966727.843 6                  19460400.820    19460400.121
  19460407.699                          46.500          41.000
 105729614.933 5  82234172.781 6                  19799762.375    19799761.965
  19799767.375                          33.200          41.300
 112582920.075 7  87726916.08047                  21423802.367
  21423807.746                          42.500          44.700
 105965222.508 7  82417442.257 7                  19836916.758    19836916.523
  19836921.387                          45.500          46.100
 107781493.503 7  83985550.62646                  20510119.508
  20510125.148                          44.200          37.500
                  98743810.458 5                  23816681.563
  23816680.176                                          31.400
 117046022.132 6  91204765.73246  87404566.665 7  22273125.969
  22273134.832    22273133.996          38.100          39.200          47.600
 130049835.346 5 101337561.43542                  24747664.477
  24747669.453                          31.000          16.300
 119877690.799 6  93411231.29744                  22811972.789
  22811977.719                          38.600          25.100
 122826502.429 7                  91721111.282 8  23373103.734
                  23373108.762          46.700                          50.400
 124615305.490 6                  93056912.092 7  23713503.406
                  23713508.570          41.100                          43.600
 131777359.234 7                  98405194.489 7  25076396.883
                  25076402.531          42.400                          46.500
 124837451.075 7                  93222787.870 7  23755778.500
                  23755784.355          43.400                          47.400
 121287778.738 7                  90572070.018 8  23080295.000
                  23080301.223          46.600                          51.000
 20  7  6  0 15 31.0000000  0 19G08G27R24G30G09R23R13G07R12G11R14G01
                                G21G16E27E14E13E30E15
 107699363.276 7  83921629.97148  80424890.617 8  20494511.602
  20494519.301    20494518.496          45.800          50.500          52.500
 115495129.307 6  89996242.72245  86246394.779 8  21977994.688
  21978002.465    21978001.930          40.100          31.500          48.300
 118049297.320 6  91816141.571 6                  22075810.820    22075811.348
  22075817.027                          38.900          39.200
 122961593.944 5  95814249.32245  91821984.529 7  23398806.242
  23398813.676    23398814.484          34.800          32.100          43.900
 131238444.878 4 102263724.55443  98002739.751 6  24973848.719
  24973858.043    24973858.953          28.300          22.200          38.200
 104098670.772 7  80965669.695 6                  19460146.563    19460145.590
  19460153.320                          46.900          41.100
 105727462.676 5  82232498.767 6                  19799359.930    19799358.809
  19799364.207                          32.600          41.300
 112581495.873 7  87725806.31947                  21423530.930
  21423536.828                          42.600          44.700
 105966992.560 7  82418818.950 7                  19837247.680    19837247.594
  19837252.707                          45.600          45.900
 107779894.519 7  83984304.66246                  20509816.461
  20509820.902                          44.100          37.000
                  98740696.809 5                  23815930.039
  23815929.156                                          30.100
 117042472.495 6  91201999.77646  87401915.971 7  22272449.523
  22272459.445    22272458.461          38.600          38.800          47.700
 130052890.61415 101339942.14552                  24748245.766
  24748250.887                          31.200          14.800
 119880001.439 6  93413031.80244                  22812412.477
  22812417.449                          38.600          24.000
 122825779.657 7                  91720571.554 8  23372966.023
                  23372971.211          46.700                          50.700
 124609519.692 6                  93052591.528 7  23712402.625
                  23712407.453          40.900                          43.800
 131774861.314 7                  98403329.160 7  25075921.391
                  25075927.016          42.700                          46.200
 124839081.366 7                  93224005.286 7  23756088.594
                  23756094.543          43.300                          47.600
 121287749.288 7                  90572048.025 8  23080289.633
                  23080295.551          46.400                          50.900
 20  7  6  0 15 32.0000000  0 19G08G27R24G30G09R23R13G07R12G11R14G01
                                G21G16E27E14E13E30E15
 107700246.306 7  83922318.05348  80425550.026 8  20494679.391
  20494687.215    20494686.543          46.000          50.500          52.600
 115497635.566 6  89998195.64545  86248266.332 8  21978471.352
  21978479.273    21978478.789          40.000          31.100          48.300
 118045760.572 6  91813390.750 6                  22075149.180    22075149.590
  22075155.813                          38.900          39.100
 122958734.468 5  95812021.15945  91819849.207 7  23398261.547
  23398269.578    23398270.121          35.500          32.400          44.500
 131240958.068 4 102265682.89543  98004616.509 6  24974326.828
  24974336.102    24974337.117          28.900          22.300          38.300
 104097311.026 7  80964612.104 6                  19459892.219    19459891.461
  19459898.945                          46.500          40.900
 105725310.910 5  82230825.210 6                  19798957.875    19798955.676
  19798961.441                          33.000          41.100
 112580072.273 7  87724697.02047                  21423260.445
  21423265.875                          42.500          44.700
 105968763.233 7  82420196.154 7                  19837579.414    19837579.188
  19837584.047                          45.800          45.900
 107778296.081 7  83983059.12346                  20509511.836
  20509516.703                          44.200          36.900
                  98737583.178 5                  23815179.203
  23815178.332                                          30.700
 117038923.211 6  91199234.10146  87399265.555 7  22271773.852
  22271783.961    22271783.145          38.100          39.000          47.600
 130055946.049 5 101342323.01542                  24748827.133
  24748832.375                          30.700          15.600
 119882312.317 6  93414832.48644                  22812852.063
  22812857.250                          38.400          24.700
 122825057.165 7                  91720032.027 8  23372828.875
                  23372833.813          46.500                          51.000
 124603733.940 6                  93048271.010 7  23711301.625
                  23711306.340          40.600                          43.500
 131772363.702 7                  98401464.051 7  25075446.094
                  25075451.840          43.200                          46.200
 124840711.927 7                  93225222.915 7  23756398.930
                  23756404.824          43.300                          47.200
 121287720.288 7                  90572026.367 8  23080283.758
                  23080289.922          46.600                          50.800
 20  7  6  0 15 33.0000000  0 19G08G27R24G30G09R23R13G07R12G11R14G01
                                G21G16E27E14E13E30E15
 107701129.703 7  83923006.40948  80426209.703 8  20494847.680
  20494855.434    20494854.602          46.000          50.300          52.500
 115500141.988 6  90000148.70845  86250138.010 8  21978948.078
  21978956.254    21978955.680          39.700          31.200          48.500
 118042224.247 6  91810640.283 6                  22074488.547    22074488.586
  22074494.438                          38.500          38.600
 122955875.402 5  95809793.31145  91817714.178 7  23397718.422
  23397725.672    23397726.156          34.800          31.900          44.600
 131243471.397 4 102267641.33943  98006493.296 6  24974804.313
  24974814.242    24974815.566          28.600          22.500          38.400
 104095952.020 7  80963555.112 6                  19459638.344    19459637.570
  19459645.008                          46.600          40.600
 105723159.761 5  82229152.081 6                  19798556.195    19798552.824
  19798558.602                          32.900          41.300
 112578649.296 7  87723588.20547                  21422989.617
  21422995.145                          42.900          44.600
 105970534.609 7  82421573.872 7                  19837911.258    19837910.711
  19837915.625                          45.800          46.100
 107776698.211 7  83981814.03246                  20509207.984
  20509212.660                          43.800          37.100
                  98734469.549 5                  23814427.570
  23814427.168                                          30.900
 117035374.298 6  91196468.71746  87396615.369 7  22271098.906
  22271108.648    22271107.684          38.700          39.000          47.500
 130059001.734 5 101344704.10642                  24749408.453
  24749413.840                          31.600          14.800
 119884623.406 6  93416633.33344                  22813291.266
  22813296.887                          38.300          25.500
 122824334.945 7                  91719492.698 8  23372691.266
                  23372696.387          46.400                          51.200
 124597948.249 6                  93043950.537 7  23710200.344
                  23710205.418          40.600                          43.200
 131769866.362 7                  98399599.158 7  25074970.781
                  25074976.629          42.700                          46.200
 124842342.740 7                  93226440.734 7  23756709.164
                  23756715.230          43.500                          47.000
 121287691.755 7                  90572005.056 8  23080278.586
                  23080284.699          46.200                          50.900
 20  7  6  0 15 34.0000000  0 19G08G27R24G30G09R23R13G07R12G11R14G01
                                G21G16E27E14E13E30E15
 107702013.380 7  83923694.98748  80426869.594 8  20495015.734
  20495023.551    20495022.691          46.000          50.300          52.700
 115502648.528 6  90002101.85545  86252009.788 8  21979425.039
  21979433.133    21979432.656          39.500          31.200          48.100
 118038688.288 6  91807890.112 6                  22073828.242    22073826.863
  22073833.117                          38.400          39.100
 122953016.649 5  95807565.70945  91815579.425 7  23397174.602
  23397181.617    23397182.191          34.600          32.100          44.400
 131245984.606 4 102269599.64743  98008370.117 6  24975283.102
  24975292.762    24975293.547          28.000          22.200          38.400
 104094593.731 7  80962498.655 6                  19459385.000    19459383.598
  19459391.059                          46.300          40.500
 105721009.113 5  82227479.355 6                  19798152.313    19798150.004
  19798155.785                          32.800          41.400
 112577226.876 7  87722479.82147                  21422718.516
  21422724.359                          42.400          44.700
 105972306.615 7  82422952.107 7                  19838243.125    19838242.629
  19838247.285                          45.800          46.400
 107775100.829 7  83980569.32646                  20508903.789
  20508908.672                          44.200          37.100
                  98731355.851 5                  23813676.289
  23813676.039                                          30.200
 117031825.622 6  91193703.50846  87393965.407 7  22270423.031
  22270433.379    22270432.531          38.700          38.600          47.800
 130062057.593 5 101347085.21442                  24749989.977
  24749995.383                          31.500          15.600
 119886934.664 6  93418434.32044                  22813731.836
  22813736.723                          38.400          24.600
 122823612.924 7                  91718953.529 8  23372553.766
                  23372558.938          46.200                          51.100
 124592162.575 6                  93039630.054 7  23709099.438
                  23709104.398          40.400                          43.800
 131767369.280 7                  98397734.450 7  25074495.680
                  25074501.207          42.700                          46.200
 124843973.796 7                  93227658.719 7  23757019.734
                  23757025.531          43.700                          47.000
 121287663.643 7                  90571984.061 8  23080273.164
                  23080279.258          46.100                          50.800
 20  7  6  0 15 35.0000000  0 19G08G27R24G30G09R23R13G07R12G11R14G01
                                G21G16E27E14E13E30E15
 107702897.432 7  83924383.86548  80427529.755 8  20495183.859
  20495191.703    20495191.020          45.600          50.300          52.700
 115505155.263 6  90004055.15445  86253881.696 8  21979902.594
  21979910.289    21979909.633          40.200          30.900          48.100
 118035152.825 6  91805140.292 6                  22073167.125    22073165.738
  22073172.008                          38.300          39.100
 122950158.316 5  95805338.44445  91813444.947 7  23396629.742
  23396637.664    23396638.199          35.000          31.300          44.100
 131248498.011 4 102271558.18543  98010246.962 6  24975761.633
  24975771.207    24975772.008          28.300          21.800          38.600
 104093236.202 7  80961442.806 6                  19459130.656    19459129.996
  19459137.199                          46.500          40.700
 105718859.049 5  82225807.049 6                  19797748.117    19797747.344
  19797753.043                          33.500          41.500
 112575805.055 7  87721371.90947                  21422448.313
  21422453.777                          42.600          45.000
 105974079.347 7  82424330.891 7                  19838574.547    19838574.508
  19838579.152                          45.400          46.400
 107773503.995 7  83979325.03846                  20508599.531
  20508604.738                          44.400          36.600
                  98728242.174 5                  23812925.500
  23812924.902                                          30.300
 117028277.341 6  91190938.62046  87391315.708 7  22269748.555
  22269758.211    22269757.203          38.400          39.000          47.900
 130065113.594 5 101349466.55142                  24750573.000
  24750576.797                          31.600          16.300
 119889246.163 6  93420235.48744                  22814172.047
  22814176.887                          38.300          24.600
 122822891.203 7                  91718414.586 8  23372416.547
                  23372421.680          46.200                          50.600
 124586376.976 6                  93035309.623 7  23707998.313
                  23708003.398          40.900                          44.000
 131764872.488 7                  98395869.976 7  25074020.367
                  25074026.313          42.400                          46.500
 124845605.134 7                  93228876.924 7  23757330.016
                  23757336.027          43.900                          47.400
 121287635.988 7                  90571963.423 8  23080267.914
                  23080273.980          46.100                          51.000
 20  7  6  0 15 36.0000000  0 19G08G27R24G30G09R23R13G07R12G11R14G01
                                G21G16E27E14E13E30E15
 107703781.746 7  83925072.93448  80428190.131 8  20495352.211
  20495359.980    20495359.289          46.000          50.500          52.300
 115507662.084 6  90006008.52945  86255753.672 8  21980379.508
  21980387.188    21980386.848          40.400          31.600          48.200
 118031617.709 6  91802390.762 6                  22072505.891    22072504.809
  22072510.973                          38.400          39.700
 122947300.298 5  95803111.42345  91811310.718 7  23396086.320
  23396093.684    23396094.520          35.100          32.400          43.600
 131251011.323 4 102273516.60443  98012123.819 6  24976238.805
  24976249.402    24976250.113          28.900          22.300          37.900
 104091879.375 7  80960387.496 6                  19458877.664    19458876.086
  19458883.527                          46.500          41.000
 105716709.439 5  82224135.151 6                  19797345.969    19797344.996
  19797350.438                          33.100          41.400
 112574383.836 7  87720264.47047                  21422178.391
  21422183.258                          42.600          44.800
 105975852.704 7  82425710.162 7                  19838906.258    19838906.328
  19838911.199                          45.600          45.900
 107771907.675 7  83978081.15146                  20508295.797
  20508300.988                          44.200          37.100
                  98725128.479 5                  23812174.930
  23812173.930                                          31.000
 117024729.323 6  91188173.93046  87388666.220 7  22269073.477
  22269082.980    22269081.977          38.300          38.900          47.800
 130068169.823 5 101351847.94742                  24751154.180
  24751158.355                          31.800          15.600
 119891557.846 6  93422036.78843                  22814611.914
  22814616.762                          38.800          23.000
 122822169.690 7                  91717875.795 8  23372279.102
                  23372284.406          46.300                          50.700
 124580591.355 6                  93030989.204 7  23706897.438
                  23706902.336          40.700                          44.200
 131762375.954 7                  98394005.668 7  25073545.367
                  25073551.109          42.200                          46.400
 124847236.679 7                  93230095.300 7  23757640.492
                  23757646.496          44.200                          47.700
 121287608.768 7                  90571943.081 8  23080262.430
                  23080268.746          46.000                          50.900
 20  7  6  0 15 37.0000000  0 19G08G27R24G30G09R23R13G07R12G11R14G01
                                G21G16E27E14E13E30E15
 107704666.383 7  83925762.26648  80428850.735 8  20495520.609
  20495528.504    20495527.621          45.300          50.400          52.500
 115510169.080 6  90007962.02145  86257625.760 8  21980856.773
  21980864.176    21980863.785          40.300          32.100          48.200
 118028082.972 6  91799641.517 6                  22071845.000    22071844.148
  22071850.016                          38.700          39.600
 122944442.596 5  95800884.64445  91809176.740 7  23395543.070
  23395549.875    23395550.879          34.900          32.400          44.100
 131253524.793 4 102275475.14443  98014000.715 6  24976717.516
  24976727.742    24976728.547          28.000          22.200          38.000
 104090523.283 7  80959332.763 6                  19458624.039    19458622.598
  19458630.027                          46.600          41.000
 105714560.407 5  82222463.665 6                  19796943.227    19796942.316
  19796948.164                          33.300          41.200
 112572963.194 7  87719157.47347                  21421907.461
  21421912.941                          42.200          44.700
 105977626.704 7  82427089.949 7                  19839238.297    19839238.660
  19839243.281                          45.600          46.100
 107770311.857 7  83976837.66246                  20507991.883
  20507997.313                          44.400          37.100
                  98722014.749 5                  23811422.102
  23811422.984                                          31.000
 117021181.615 6  91185409.48446  87386016.960 7  22268398.820
  22268407.813    22268406.703          38.300          39.000          47.800
 130071226.197 5 101354229.56742                  24751736.211
  24751739.762                          31.000          15.600
 119893869.634 6  93423838.19544                  22815051.336
  22815056.734                          38.300          25.200
 122821448.426 7                  91717337.177 8  23372142.023
                  23372147.023          46.400                          51.000
 124574805.744 6                  93026668.782 7  23705796.656
                  23705801.406          40.800                          43.900
 131759879.653 7                  98392141.555 7  25073070.156
                  25073076.059          42.900                          46.100
 124848868.478 7                  93231313.842 7  23757951.250
                  23757957.047          44.700                          47.100
 121287581.953 7                  90571923.072 8  23080257.602
                  23080263.711          45.900                          50.900
 20  7  6  0 15 38.0000000  0 19G08G27R24G30G09R23R13G07R12G11R14G01
                                G21G16E27E14E13E30E15
 107705551.392 7  83926451.87648  80429511.614 8  20495688.773
  20495696.820    20495696.031          45.100          50.200          52.800
 115512676.257 6  90009915.65845  86259498.019 8  21981333.859
  21981341.398    21981340.824          40.500          31.500          48.100
 118024548.660 6  91796892.625 6                  22071183.281    22071182.938
  22071189.172                          38.600          39.300
 122941585.370 5  95798658.22945  91807043.081 7  23394999.352
  23395006.070    23395007.117          34.600          31.700          44.100
 131256038.232 4 102277433.67143  98015877.630 6  24977195.789
  24977206.211    24977206.777          27.600          22.200          38.000
 104089167.975 7  80958278.635 6                  19458370.023    19458369.117
  19458376.625                          46.100          40.800
 105712411.958 5  82220792.642 6                  19796542.344    19796540.324
  19796545.840                          33.600          41.000
 112571543.171 7  87718050.96447                  21421637.109
  21421642.863                          42.400          44.600
 105979401.418 7  82428470.282 7                  19839570.945    19839570.660
  19839575.551                          45.300          46.100
 107768716.641 7  83975594.62946                  20507688.984
  20507693.625                          44.500          36.900
                  98718901.010 5                  23810669.914
  23810671.930                                          31.200
 117017634.313 6  91182645.35346  87383367.976 7  22267723.586
  22267732.711    22267731.855          38.300          38.900          47.700
 130074282.784 5 101356611.34842                  24752317.180
  24752321.270                          31.200          13.900
 119896181.776 6  93425639.85944                  22815491.438
  22815496.734                          38.400          24.900
 122820727.451 7                  91716798.798 8  23372004.656
                  23372009.938          46.700                          50.900
 124569020.254 6                  93022348.442 7  23704695.734
                  23704700.418          40.600                          44.200
 131757383.706 7                  98390277.696 7  25072595.234
                  25072600.988          43.000                          46.100
 124850500.575 7                  93232532.612 7  23758261.617
                  23758267.547          44.700                          47.300
 121287555.634 7                  90571903.419 8  23080252.547
                  23080258.824          46.000                          51.000
 20  7  6  0 15 39.0000000  0 19G08G27R24G30G09R23R13G07R12G11R14G01
                                G21G16E27E14E13E30E15
 107706436.670 7  83927141.70248  80430172.695 8  20495857.945
  20495865.273    20495864.484          44.900          50.200          52.700
 115515183.509 6  90011869.36145  86261370.312 8  21981810.898
  21981818.711    21981817.945          40.400          31.600          48.300
 118021014.717 6  91794144.008 6                  22070522.531    22070522.063
  22070528.293                          38.900          39.600
 122938728.434 5  95796432.04845  91804909.639 7  23394454.234
  23394462.500    23394463.469          35.000          31.400          44.300
 131258551.709 4 102279392.20043  98017754.577 6  24977673.977
  24977684.457    24977685.078          28.300          22.300          37.700
 104087813.330 7  80957225.013 6                  19458116.453    19458116.020
  19458123.414                          46.600          40.900
 105710263.983 5  82219122.007 6                  19796139.406    19796137.977
  19796143.563                          33.500          40.400
 112570123.691 7  87716944.86947                  21421366.984
  21421372.621                          42.200          44.500
 105981176.710 7  82429851.061 7                  19839903.586    19839903.074
  19839907.895                          45.200          45.400
 107767121.861 7  83974351.95346                  20507385.133
  20507390.160                          44.200          37.300
                  98715787.167 4                  23809921.305
  23809921.031                                          29.900
 117014087.199 6  91179881.36746  87380719.175 8  22267048.156
  22267057.688    22267056.875          38.300          38.700          48.000
 130077339.554 5 101358993.19842                  24752897.719
  24752902.941                          31.900          14.800
 119898494.019 6  93427441.59844                  22815931.445
  22815936.656                          38.800          24.300
 122820006.668 7                  91716260.543 8  23371867.578
                  23371872.727          46.600                          50.600
 124563234.702 6                  93018028.058 7  23703594.688
                  23703599.434          40.400                          43.700
 131754887.962 7                  98388413.980 7  25072120.477
                  25072126.195          42.800                          46.300
 124852132.861 7                  93233751.533 7  23758572.336
                  23758578.223          44.400                          47.000
 121287529.702 7                  90571884.054 8  23080247.680
                  23080253.816          45.900                          50.600
 20  7  6  0 15 40.0000000  0 18G08G27R24G30G09R23R13G07R12G11G01G21
                                G16E27E14E13E30E15
 107707322.331 7  83927831.82748  80430834.058 8  20496025.641
  20496033.723    20496032.992          45.000          50.200          52.700
 115517690.976 6  90013823.24645  86263242.760 8  21982287.930
  21982295.969    21982295.148          40.200          31.800          48.300
 118017481.268 6  91791395.749 6                  22069861.922    22069861.410
  22069867.508                          38.700          39.100
 122935871.893 5  95794206.16945  91802776.529 7  23393911.148
  23393918.887    23393919.906          34.800          31.900          44.400
 131261065.258 4 102281350.80943  98019631.603 6  24978152.203
  24978162.855    24978163.660          29.100          22.000          37.900
 104086459.450 7  80956172.011 6                  19457863.766    19457862.953
  19457870.344                          46.600          41.100
 105708116.630 5  82217451.866 6                  19795737.266    19795736.016
  19795741.410                          33.600          40.900
 112568704.857 7  87715839.29247                  21421097.414
  21421102.750                          42.600          44.700
 105982952.726 7  82431232.412 7                  19840236.328    19840235.699
  19840240.344                          45.700          45.600
 107765527.686 7  83973109.73346                  20507082.031
  20507086.961                          44.300          37.300
 117010540.515 6  91177117.72146  87378070.674 8  22266373.969
  22266382.574    22266381.938          38.500          39.100          48.200
 130080396.464 5 101361375.21442                  24753480.336
  24753484.637                          31.200          14.800
 119900806.501 6  93429243.53144                  22816371.195
  22816376.895                          38.800          25.100
 122819286.200 7                  91715722.536 8  23371730.531
                  23371735.543          46.400                          50.700
 124557449.250 6                  93013707.771 7  23702493.773
                  23702498.410          40.200                          43.700
 131752392.545 7                  98386550.515 7  25071645.492
                  25071651.191          42.800                          46.400
 124853765.462 7                  93234970.681 7  23758882.961
                  23758888.902          44.400                          47.500
 121287504.281 7                  90571865.058 8  23080242.727
                  23080248.930          46.000                          50.900
 20  7  6  0 15 41.0000000  0 18G08G27R24G30G09R23R13G07R12G11G01G21
                                G16E27E14E13E30E15
 107708208.303 7  83928522.19448  80431495.661 8  20496194.609
  20496202.375    20496201.629          44.800          50.300          52.700
 115520198.581 6  90015777.21745  86265115.327 8  21982764.852
  21982773.270    21982772.191          40.200          31.400          48.100
 118013948.166 6  91788647.793 6                  22069201.563    22069200.910
  22069206.742                          38.300          39.400
 122933015.751 5  95791980.60845  91800643.669 7  23393367.305
  23393375.266    23393376.445          34.400          31.000          44.300
 131263578.903 4 102283309.47743  98021508.630 6  24978631.500
  24978641.094    24978642.039          28.300          22.300          37.800
 104085106.318 7  80955119.558 6                  19457610.828    19457610.023
  19457617.355                          46.400          40.800
 105705969.797 5  82215782.114 6                  19795335.867    19795334.547
  19795339.453                          33.700          40.900
 112567286.602 7  87714734.15747                  21420827.313
  21420832.871                          43.000          44.800
 105984729.435 7  82432614.277 7                  19840568.664    19840568.320
  19840572.938                          46.100          46.000
 107763934.045 7  83971867.94046                  20506778.859
  20506783.660                          44.300          37.100
 117006994.112 6  91174354.28746  87375422.409 8  22265698.586
  22265707.652    22265706.930          38.600          39.200          48.400
 130083453.614 5 101363757.44542                  24754061.359
  24754066.238                          31.800          15.600
 119903119.165 6  93431045.60343                  22816811.398
  22816817.023                          38.800          23.900
 122818565.965 7                  91715184.703 8  23371593.578
                  23371598.445          46.500                          50.700
 124551663.835 6                  93009387.499 7  23701392.883
                  23701397.520          40.200                          44.200
 131749897.389 7                  98384687.239 7  25071170.648
                  25071176.246          43.000                          46.000
 124855398.324 7                  93236190.008 7  23759193.539
                  23759199.746          44.500                          47.400
 121287479.290 7                  90571846.403 8  23080237.969
                  23080244.254          45.900                          51.200
 20  7  6  0 15 42.0000000  0 18G08G27R24G30G09R23R13G07R12G11G01G21
                                G16E27E14E13E30E15
 107709094.580 7  83929212.80048  80432157.491 8  20496363.430
  20496371.207    20496370.262          44.900          50.400          52.500
 115522706.307 6  90017731.28445  86266987.973 8  21983242.313
  21983250.445    21983249.570          40.400          31.700          48.000
 118010415.422 6  91785900.126 6                  22068540.758    22068540.184
  22068546.332                          38.400          39.400
 122930159.927 5  95789755.28945  91798511.076 7  23392824.281
  23392831.848    23392833.000          33.800          31.200          44.300
 131266092.418 4 102285268.06843  98023385.662 6  24979109.320
  24979119.367    24979120.277          27.600          22.000          37.600
 104083753.856 7  80954067.641 6                  19457358.398    19457357.082
  19457364.547                          46.400          40.500
 105703823.510 5  82214112.776 6                  19794934.555    19794931.922
  19794937.516                          33.700          41.000
 112565868.933 7  87713629.47747                  21420557.617
  21420563.168                          43.000          44.700
 105986506.762 7  82433996.643 7                  19840900.984    19840900.742
  19840905.738                          45.500          45.900
 107762340.889 7  83970626.52146                  20506475.453
  20506480.543                          44.500          37.500
 117003448.025 6  91171591.11146  87372774.354 8  22265023.859
  22265032.801    22265032.059          38.600          39.200          48.500
 130086510.838 5 101366139.68742                  24754643.320
  24754648.152                          31.500          15.600
 119905432.022 6  93432847.84544                  22817251.398
  22817257.105                          38.400          24.800
 122817845.954 7                  91714647.030 8  23371456.461
                  23371461.617          46.600                          50.900
 124545878.481 6                  93005067.252 7  23700291.891
                  23700296.684          40.100                          44.000
 131747402.488 7                  98382824.183 7  25070696.250
                  25070701.469          42.700                          46.000
 124857031.377 7                  93237409.522 7  23759504.359
                  23759510.391          44.400                          47.400
 121287454.716 7                  90571828.045 8  23080233.266
                  23080239.492          46.300                          50.900
 20  7  6  0 15 43.0000000  0 18G08G27R24G30G09R23R13G07R12G11G01G21
                                G16E27E14E13E30E15
 107709981.153 7  83929903.64348  80432819.552 8  20496532.055
  20496539.746    20496539.008          45.100          50.300          52.500
 115525214.145 6  90019685.44545  86268860.723 7  21983719.742
  21983727.563    21983726.723          40.000          32.100          47.900
 118006883.104 6  91783152.750 6                  22067879.125    22067879.699
  22067885.621                          38.800          39.300
 122927304.449 5  95787530.23345  91796378.749 7  23392280.656
  23392288.434    23392289.570          33.700          30.800          44.200
 131268606.070 4 102287226.77143  98025262.723 6  24979588.227
  24979597.750    24979598.547          27.600          21.800          38.000
 104082402.115 7  80953016.296 6                  19457105.242    19457104.281
  19457111.730                          46.500          40.800
 105701677.811 5  82212443.859 6                  19794532.430    19794529.992
  19794535.738                          33.400          41.500
 112564451.845 7  87712525.25147                  21420288.125
  21420293.504                          42.900          44.800
 105988284.732 7  82435379.512 7                  19841234.148    19841233.848
  19841238.563                          45.700          45.700
 107760748.258 7  83969385.51146                  20506172.133
  20506177.484                          44.000          37.500
 116999902.262 6  91168828.17346  87370126.529 8  22264348.820
  22264358.031    22264357.469          38.800          38.500          48.300
 130089568.339 5 101368522.19042                  24755225.984
  24755230.023                          32.000          13.900
 119907745.077 6  93434650.23344                  22817691.727
  22817697.191                          38.400          24.700
 122817126.201 7                  91714109.541 8  23371319.805
                  23371324.613          46.600                          50.700
 124540093.069 6                  93000747.003 7  23699190.953
                  23699195.805          40.000                          44.100
 131744907.834 7                  98380961.289 7  25070221.445
                  25070226.891          42.600                          46.000
 124858664.697 7                  93238629.206 7  23759815.367
                  23759821.293          44.300                          47.700
 121287430.570 7                  90571810.009 8  23080228.508
                  23080234.988          46.400                          50.900
 20  7  6  0 15 44.0000000  0 18G08G27R24G30G09R23R13G07R12G11G01G21
                                G16E27E14E13E30E15
 107710868.076 7  83930594.75048  80433481.862 8  20496700.938
  20496708.473    20496707.766          45.100          50.300          52.700
 115527722.178 6  90021639.75145  86270733.589 8  21984196.422
  21984204.879    21984204.012          39.400          31.500          48.100
 118003351.212 6  91780405.740 6                  22067219.367    22067219.512
  22067225.172                          39.200          39.400
 122924449.319 5  95785305.46245  91794246.684 7  23391736.789
  23391745.105    23391746.328          34.200          32.000          44.500
 131271119.770 4 102289185.47743  98027139.796 6  24980064.969
  24980076.086    24980076.891          27.300          21.500          38.400
 104081051.121 7  80951965.527 6                  19456852.563    19456851.816
  19456859.113                          46.400          40.500
 105699532.592 5  82210775.375 6                  19794130.242    19794128.457
  19794134.012                          33.600          41.500
 112563035.355 7  87711421.49847                  21420018.180
  21420023.875                          42.700          44.700
 105990063.389 7  82436762.917 7                  19841567.898    19841566.801
  19841571.504                          45.300          45.500
 107759156.188 7  83968144.93646                  20505869.719
  20505874.504                          43.400          37.100
 116996356.800 6  91166065.48246  87367478.954 7  22263674.133
  22263683.297    22263682.672          38.400          38.900          47.900
 130092625.939 5 101370904.70042                  24755807.406
  24755811.836                          30.800          15.600
 119910058.370 6  93436452.79044                  22818131.984
  22818137.430                          38.000          25.300
 122816406.690 7                  91713572.247 8  23371182.719
                  23371187.547          46.400                          50.900
 124534307.756 6                  92996426.784 7  23698090.078
                  23698095.012          40.200                          43.800
 131742413.475 7                  98379098.630 7  25069746.594
                  25069752.070          42.500                          45.700
 124860298.280 7                  93239849.088 7  23760126.047
                  23760132.047          44.300                          47.800
 121287406.862 7                  90571792.318 8  23080224.219
                  23080230.516          46.200                          50.900
 20  7  6  0 15 45.0000000  0 18G08G27R24G30G09R23R13G07R12G11G01G21
                                G16E27E14E13E30E15
 107711755.269 7  83931286.07048  80434144.379 8  20496869.398
  20496877.297    20496876.684          45.200          50.500          52.700
 115530230.285 6  90023594.12745  86272606.538 8  21984673.734
  21984681.961    21984681.227          39.700          30.900          48.300
 117999819.714 6  91777659.021 6                  22066558.172    22066559.055
  22066564.836                          39.400          39.800
 122921594.554 5  95783080.96745  91792114.888 7  23391194.234
  23391201.895    23391203.234          33.700          32.300          44.400
 131273633.467 4 102291144.21343  98029016.920 6  24980544.508
  24980554.391    24980555.395          28.600          22.000          38.200
 104079700.825 7  80950915.293 6                  19456600.445    19456599.328
  19456606.934                          46.200          40.600
 105697387.926 5  82209107.351 6                  19793728.414    19793726.949
  19793732.414                          34.100          41.800
 112561619.427 7  87710318.17847                  21419748.703
  21419754.410                          43.200          44.700
 105991842.686 7  82438146.800 7                  19841900.602    19841899.922
  19841904.520                          45.400          45.700
 107757564.594 7  83966904.73146                  20505566.750
  20505571.531                          43.900          37.300
 116992811.635 6  91163303.00846  87364831.592 7  22262999.359
  22263008.609    22263008.004          37.900          38.600          47.900
 130095683.855 5 101373287.51942                  24756389.070
  24756393.598                          31.300          16.300
 119912371.794 6  93438255.44644                  22818571.719
  22818577.637                          37.800          24.600
 122815687.400 7                  91713035.113 8  23371045.641
                  23371050.668          46.300                          51.200
 124528522.423 6                  92992106.561 7  23696989.195
                  23696994.109          40.200                          44.200
 131739919.353 7                  98377236.130 7  25069271.961
                  25069277.637          42.600                          45.700
 124861932.076 7                  93241069.121 7  23760436.930
                  23760443.035          44.300                          47.900
 121287383.573 7                  90571774.934 8  23080219.922
                  23080226.160          46.300                          50.900
 20  7  6  0 15 46.0000000  0 18G08G27R24G30G09R23R13G07R12G11G01G21
                                G16E27E14E13E30E15
 107712642.832 7  83931977.67748  80434807.166 8  20497038.219
  20497046.383    20497045.516          45.300          50.300          52.600
 115532738.616 6  90025548.66745  86274479.635 8  21985151.070
  21985159.340    21985158.605          39.300          30.900          48.600
 117996288.625 6  91774912.614 6                  22065898.703    22065898.582
  22065904.449                          39.400          39.400
 122918740.211 5  95780856.81145  91789983.376 7  23390651.102
  23390658.805    23390659.992          34.300          32.000          44.100
 131276147.249 4 102293102.98943  98030894.076 6  24981023.211
  24981032.738    24981033.988          28.600          22.500          38.800
 104078351.309 7  80949865.671 6                  19456347.875    19456346.965
  19456354.594                          46.500          40.700
 105695243.872 5  82207439.712 6                  19793327.203    19793325.082
  19793330.793                          33.400          41.900
 112560204.148 7  87709215.35847                  21419479.367
  21419485.109                          43.300          44.900
 105993622.677 7  82439531.232 7                  19842233.477    19842233.301
  19842237.781                          45.400          46.000
 107755973.565 7  83965664.97646                  20505263.500
  20505268.992                          44.100          36.900
 116989266.830 6  91160540.82546  87362184.497 7  22262325.438
  22262333.941    22262333.457          38.400          38.600          47.600
 130098741.824 5 101375670.33542                  24756972.203
  24756975.621                          31.300          16.900
 119914685.475 6  93440058.33244                  22819011.789
  22819017.867                          37.900          24.900
 122814968.417 7                  91712498.208 8  23370909.148
                  23370914.031          46.400                          51.300
 124522737.197 6                  92987786.423 7  23695888.242
                  23695893.250          40.500                          44.300
 131737425.529 7                  98375373.867 7  25068797.445
                  25068802.977          42.500                          46.100
 124863566.183 7                  93242289.388 7  23760747.680
                  23760753.859          44.200                          47.600
 121287360.778 7                  90571757.901 8  23080215.430
                  23080221.711          46.200                          51.000
 20  7  6  0 15 47.0000000  0 18G08G27R24G30G09R23R13G07R12G11G01G21
                                G16E27E14E13E30E15
 107713530.675 7  83932669.50348  80435470.173 8  20497207.367
  20497215.270    20497214.449          45.200          50.300          52.600
 115535247.065 6  90027503.30545  86276352.825 8  21985628.828
  21985636.746    21985636.047          39.500          31.400          48.000
 117992757.969 6  91772166.534 6                  22065237.594    22065238.605
  22065244.102                          39.400          39.300
 122915886.214 5  95778632.92045  91787852.147 7  23390107.211
  23390115.559    23390116.957          34.200          31.900          44.000
 131278661.040 4 102295061.77543  98032771.294 6  24981501.344
  24981511.141    24981512.402          28.900          22.600          38.600
 104077002.491 7  80948816.584 6                  19456095.711    19456094.828
  19456102.453                          46.600          41.100
 105693100.369 5  82205772.545 6                  19792924.547    19792924.105
  19792929.527                          33.800          41.500
 112558789.425 7  87708112.97047                  21419210.078
  21419215.938                          43.400          44.800
 105995403.317 7  82440916.179 7                  19842566.430    19842566.336
  19842571.113                          45.700          45.900
 107754383.054 7  83964425.61246                  20504961.352
  20504966.137                          44.500          37.100
 116985722.366 6  91157778.90646  87359537.648 7  22261651.156
  22261659.305    22261658.898          39.000          38.400          47.800
 130101800.50315 101378053.82852                  24757552.219
  24757557.551                          31.000          16.300
 119916999.329 6  93441861.31543                  22819451.914
  22819458.090                          38.000          23.000
 122814249.656 7                  91711961.470 8  23370772.266
                  23370777.160          47.000                          51.400
 124516951.968 6                  92983466.281 7  23694787.375
                  23694792.324          40.400                          44.600
 131734932.002 7                  98373511.811 7  25068322.945
                  25068328.520          42.600                          45.700
 124865200.531 7                  93243509.839 7  23761058.898
                  23761064.953          44.000                          47.700
 121287338.416 7                  90571741.198 8  23080211.086
                  23080217.453          46.300                          50.900
 20  7  6  0 15 48.0000000  0 18G08G27R24G30G09R23R13G07R12G11G01G21
                                G16E27E14E13E30E15
 107714418.840 7  83933361.57548  80436133.403 8  20497376.273
  20497384.258    20497383.469          45.300          50.200          52.600
 115537755.597 6  90029457.99845  86278226.090 8  21986105.922
  21986114.094    21986113.289          39.600          30.900          48.100
 117989227.616 6  91769420.727 6                  22064578.336    22064578.621
  22064583.883                          39.600          39.200
 122913032.554 5  95776409.28645  91785721.164 7  23389564.867
  23389572.371    23389573.848          34.300          31.300          44.300
 131281175.33814 102297021.08053  98034648.452 6  24981979.422
  24981989.543    24981990.762          28.900          22.000          38.200
 104075654.349 7  80947768.038 6                  19455843.734    19455842.715
  19455850.422                          46.200          40.200
 105690957.342 5  82204105.765 6                  19792523.523    19792522.797
  19792528.230                          33.700          41.400
 112557375.278 7  87707011.04547                  21418941.305
  21418946.750                          43.300          44.700
 105997184.586 7  82442301.619 7                  19842900.047    19842899.844
  19842904.605                          45.300          46.000
 107752793.061 7  83963186.65646                  20504658.797
  20504663.629                          44.600          37.100
 116982178.162 6  91155017.18746  87356890.993 7  22260976.313
  22260985.012    22260984.473          38.900          38.400          47.600
 130104858.415 5 101380436.49042                  24758133.930
  24758139.359                          31.500          14.800
 119919313.342 6  93443664.43244                  22819893.617
  22819898.438                          37.800          24.300
 122813531.116 7                  91711424.891 8  23370635.570
                  23370640.383          47.000                          51.000
 124511166.740 6                  92979146.148 7  23693686.484
                  23693691.703          40.700                          44.500
 131732438.679 7                  98371649.924 7  25067848.391
                  25067854.023          42.600                          45.800
 124866835.068 7                  93244730.449 7  23761370.141
                  23761375.988          44.000                          47.600
 121287316.439 7                  90571724.784 8  23080206.922
                  23080213.266          46.500                          51.300
 20  7  6  0 15 49.0000000  0 18G08G27R24G30G09R23R13G07R12G11G01G21
                                G16E27E14E13E30E15
 107715307.378 7  83934053.94148  80436796.926 8  20497545.117
  20497553.379    20497552.590          45.200          50.200          52.600
 115540264.395 6  90031412.91445  86280099.537 8  21986583.094
  21986591.430    21986590.730          39.600          31.200          48.100
 117985697.785 6  91766675.293 6                  22063918.844    22063918.480
  22063923.766                          39.600          39.100
 122910179.292 5  95774185.96745  91783590.496 7  23389021.609
  23389029.449    23389031.070          34.600          31.900          44.100
 131283688.759 4 102298979.47043  98036525.711 6  24982458.109
  24982467.781    24982469.250          28.300          21.700          38.100
 104074307.015 7  80946720.109 6                  19455591.813    19455590.895
  19455598.512                          45.700          40.400
 105688814.975 5  82202439.481 6                  19792122.781    19792121.648
  19792126.949                          33.400          41.100
 112555961.763 7  87705909.60247                  21418671.719
  21418677.766                          43.000          44.600
 105998966.606 7  82443687.615 7                  19843233.672    19843233.629
  19843238.152                          45.200          45.900
 107751203.639 7  83961948.15246                  20504356.250
  20504361.121                          44.500          36.900
 116978634.317 6  91152255.74246  87354244.632 7  22260301.813
  22260310.598    22260310.055          38.600          38.600          47.400
 130107916.972 5 101382819.80242                  24758716.344
  24758721.461                          31.300          16.300
 119921627.654 6  93445467.79044                  22820333.203
  22820338.871                          38.600          25.600
 122812812.889 7                  91710888.562 8  23370499.016
                  23370503.762          47.200                          51.200
 124505381.608 6                  92974826.090 7  23692585.672
                  23692590.695          40.600                          43.700
 131729945.719 7                  98369788.290 7  25067374.133
                  25067379.492          42.700                          46.100
 124868469.946 7                  93245951.297 7  23761681.188
                  23761687.230          44.000                          47.200
 121287294.968 7                  90571708.767 8  23080202.898
                  23080209.098          46.400                          51.200
 20  7  6  0 15 50.0000000  0 18G08G27R24G30G09R23R13G07R12G11G01G21
                                G16E27E14E13E30E15
 107716196.188 7  83934746.52048  80437460.641 8  20497714.781
  20497722.395    20497721.707          45.300          50.500          53.000
 115542773.242 6  90033367.85245  86281973.027 8  21987060.891
  21987068.977    21987068.102          39.700          31.100          48.200
 117982168.298 6  91763930.123 6                  22063258.141    22063258.355
  22063263.602                          40.100          38.800
 122907326.335 5  95771962.87745  91781460.042 7  23388478.258
  23388486.543    23388487.957          34.400          31.200          44.400
 131286202.694 4 102300938.36343  98038402.967 6  24982936.008
  24982946.160    24982947.660          27.600          22.000          38.100
 104072960.347 7  80945672.706 6                  19455340.516    19455339.234
  19455346.836                          45.900          40.400
 105686673.099 5  82200773.581 6                  19791721.617    19791720.488
  19791725.871                          33.400          40.800
 112554548.826 7  87704808.61547                  21418403.125
  21418408.879                          42.200          44.900
 106000749.192 7  82445074.083 7                  19843567.992    19843567.355
  19843571.895                          45.700          45.900
 107749614.676 7  83960710.00346                  20504054.305
  20504058.816                          44.000          37.400
 116975090.776 6  91149494.54546  87351598.463 7  22259628.195
  22259636.383    22259635.797          38.700          38.800          47.500
 130110975.723 5 101385203.20642                  24759298.453
  24759303.539                          31.500          15.600
 119923942.112 6  93447271.26343                  22820774.242
  22820779.395                          38.600          23.800
 122812094.835 7                  91710352.360 8  23370362.047
                  23370367.094          47.000                          51.300
 124499596.466 6                  92970506.015 7  23691485.055
                  23691489.715          40.500                          44.000
 131727452.979 7                  98367926.825 7  25066899.617
                  25066905.164          42.400                          46.600
 124870105.018 7                  93247172.282 7  23761992.250
                  23761998.246          44.300                          47.400
 121287273.896 7                  90571693.029 8  23080198.984
                  23080205.191          46.500                          50.900
 20  7  6  0 15 51.0000000  0 18G08G27R24G30G09R23R13G07R12G11G01G21
                                G16E27E14E13E30E15
 107717085.346 7  83935439.37148  80438124.627 8  20497883.414
  20497891.633    20497890.883          45.500          50.400          52.700
 115545282.293 6  90035322.95945  86283846.667 8  21987538.141
  21987546.367    21987545.535          39.600          31.000          48.100
 117978639.234 6  91761185.318 6                  22062598.656    22062598.629
  22062603.512                          40.100          39.100
 122904473.793 5  95769740.12945  91779329.911 7  23387935.508
  23387943.820    23387945.367          34.400          30.500          44.200
 131288716.590 4 102302897.22843  98040280.248 6  24983414.078
  24983424.500    24983426.016          27.600          22.200          38.300
 104071614.472 7  80944625.901 6                  19455089.484    19455087.391
  19455095.133                          46.000          40.700
 105684531.797 5  82199108.102 6                  19791321.711    19791319.691
  19791324.898                          33.400          41.500
 112553136.484 7  87703708.08847                  21418134.344
  21418140.227                          42.700          44.700
 106002532.462 7  82446461.071 7                  19843901.992    19843901.012
  19843905.699                          45.800          46.000
 107748026.293 7  83959472.30446                  20503751.680
  20503756.676                          44.300          37.200
 116971547.549 6  91146733.58446  87348952.566 7  22258953.594
  22258962.063    22258961.383          38.900          38.500          47.300
 130114034.64015 101387586.80052                  24759880.688
  24759885.680                          31.200          15.600
 119926256.778 6  93449074.92943                  22821214.516
  22821219.867                          38.700          22.300
 122811377.107 7                  91709816.378 8  23370225.594
                  23370230.566          47.000                          51.400
 124493811.409 6                  92966185.994 7  23690383.984
                  23690389.230          40.300                          43.900
 131724960.536 7                  98366065.596 7  25066425.180
                  25066430.957          42.700                          45.900
 124871740.357 7                  93248393.486 7  23762303.484
                  23762309.383          44.100                          47.300
 121287253.299 7                  90571677.641 8  23080194.891
                  23080201.223          46.300                          50.900
 20  7  6  0 15 52.0000000  0 18G08G27R24G30G09R23R13G07R12G11G01G21
                                G16E27E14E13E30E15
 107717974.803 7  83936132.45148  80438788.836 8  20498052.922
  20498060.930    20498060.133          45.300          50.300          52.400
 115547791.490 6  90037278.17445  86285720.402 8  21988015.656
  21988023.688    21988023.145          39.700          31.400          48.200
 117975110.592 6  91758440.800 6                  22061938.867    22061938.621
  22061943.684                          39.900          38.400
 122901621.608 5  95767517.64645  91777200.036 7  23387392.313
  23387401.105    23387402.621          34.600          31.000          44.700
 131291231.10814 102304856.71153  98042157.589 6  24983893.344
  24983902.859    24983904.313          28.600          21.800          38.700
 104070269.310 7  80943579.671 6                  19454837.078    19454836.230
  19454843.680                          46.000          40.900
 105682391.012 5  82197443.077 6                  19790920.125    19790918.523
  19790923.953                          33.500          41.200
 112551724.746 7  87702608.02847                  21417865.984
  21417871.277                          42.600          44.800
 106004316.439 7  82447848.614 7                  19844235.609    19844235.094
  19844239.609                          45.700          46.300
 107746438.434 7  83958235.00746                  20503449.688
  20503454.492                          43.900          36.900
 116968004.692 6  91143972.92146  87346306.912 7  22258280.023
  22258287.715    22258287.262          38.600          38.900          47.300
 130117093.796 5 101389970.56542                  24760462.781
  24760467.723                          32.000          15.600
 119928571.638 6  93450878.68744                  22821654.570
  22821660.348                          38.700          24.500
 122810659.599 7                  91709280.586 8  23370088.906
                  23370094.066          46.700                          51.200
 124488026.360 6                  92961866.002 7  23689283.039
                  23689288.348          40.600                          44.200
 131722468.364 7                  98364204.545 7  25065950.992
                  25065956.715          42.800                          45.900
 124873375.960 7                  93249614.874 7  23762614.820
                  23762620.797          44.000                          47.500
 121287233.143 7                  90571662.597 8  23080191.016
                  23080197.445          46.400                          51.000
 20  7  6  0 15 53.0000000  0 18G08G27R24G30G09R23R13G07R12G11G01G21
                                G16E27E14E13E30E15
 107718864.563 7  83936825.77148  80439453.253 8  20498222.438
  20498230.258    20498229.465          45.700          50.300          52.500
 115550300.780 6  90039233.45645  86287594.228 8  21988493.344
  21988501.363    21988500.551          39.400          31.200          48.400
 117971582.296 6  91755696.568 6                  22061278.625    22061278.828
  22061283.832                          40.200          38.700
 122898769.809 5  95765295.46445  91775070.427 7  23386849.523
  23386858.613    23386859.922          33.800          31.200          44.600
 131293744.650 4 102306815.21443  98044034.924 6  24984371.875
  24984381.305    24984382.922          27.300          22.200          39.000
 104068924.848 7  80942533.977 6                  19454586.180    19454584.500
  19454592.363                          46.000          41.100
 105680250.780 5  82195778.430 6                  19790518.125    19790517.309
  19790523.352                          33.800          41.200
 112550313.562 7  87701508.40247                  21417596.836
  21417602.867                          42.700          44.800
 106006101.033 7  82449236.637 7                  19844569.375    19844568.953
  19844573.703                          45.400          46.500
 107744851.068 7  83956998.10546                  20503147.516
  20503152.582                          44.200          37.300
 116964462.085 6  91141212.44846  87343661.462 7  22257605.477
  22257613.754    22257613.164          39.200          39.100          47.500
 130120153.032 5 101392354.39042                  24761044.977
  24761049.945                          31.500          15.600
 119930886.674 6  93452682.61544                  22822094.977
  22822100.891                          38.800          25.200
 122809942.312 7                  91708744.948 8  23369952.641
                  23369957.570          46.700                          51.200
 124482241.323 6                  92957545.999 7  23688182.016
                  23688187.395          40.800                          44.200
 131719976.426 7                  98362343.692 7  25065476.719
                  25065482.461          42.400                          45.900
 124875011.792 7                  93250836.436 7  23762925.891
                  23762932.113          44.100                          47.700
 121287213.405 7                  90571647.848 8  23080187.258
                  23080193.730          46.300                          50.800
 20  7  6  0 15 54.0000000  0 18G08G27R24G30G09R23R13G07R12G11G01G21
                                G16E27E14E13E30E15
 107719754.665 7  83937519.35748  80440117.944 8  20498392.219
  20498399.707    20498398.883          45.600          50.300          52.300
 115552810.245 6  90041188.88745  86289468.182 8  21988971.172
  21988978.793    21988978.023          39.700          31.200          48.600
 117968054.413 6  91752952.664 6                  22060619.180    22060619.348
  22060623.965                          39.900          38.600
 122895918.343 5  95763073.54545  91772941.090 7  23386308.180
  23386316.008    23386317.504          34.200          31.300          44.700
 131296258.680 4 102308774.18243  98045912.324 6  24984850.281
  24984859.855    24984861.379          28.300          21.700          38.800
 104067581.150 7  80941488.876 6                  19454334.680    19454333.445
  19454341.219                          45.800          41.000
 105678111.086 5  82194114.210 6                  19790117.242    19790117.250
  19790122.668                          33.700          41.600
 112548903.014 7  87700409.27947                  21417328.328
  21417334.434                          42.700          44.700
 106007886.309 7  82450625.163 7                  19844903.883    19844903.059
  19844907.973                          45.300          46.800
 107743264.263 7  83955761.62546                  20502845.242
  20502850.445                          43.800          37.400
 116960919.833 6  91138452.24946  87341016.270 7  22256931.141
  22256939.715    22256939.000          38.600          38.600          47.400
 130123212.525 5 101394738.41242                  24761626.523
  24761632.094                          31.500          14.800
 119933201.920 6  93454486.70743                  22822536.258
  22822541.512                          38.300          23.600
 122809225.299 7                  91708209.518 8  23369816.031
                  23369821.004          46.300                          50.900
 124476456.354 6                  92953226.062 7  23687080.992
                  23687086.520          40.700                          44.100
 131717484.778 7                  98360483.041 7  25065002.680
                  25065008.273          42.400                          46.000
 124876647.891 7                  93252058.209 7  23763237.383
                  23763243.309          44.000                          47.700
 121287194.115 7                  90571633.447 8  23080183.602
                  23080189.996          45.900                          51.200
 20  7  6  0 15 55.0000000  0 18G08G27R24G30G09R23R13G07R12G11G01G21
                                G16E27E14E13E30E15
 107720645.050 7  83938213.16048  80440782.832 8  20498561.305
  20498568.965    20498568.336          45.000          50.300          52.400
 115555319.817 6  90043144.39445  86291342.203 8  21989448.680
  21989456.363    21989455.668          39.800          31.400          48.600
 117964526.902 6  91750209.053 6                  22059959.898    22059960.074
  22059964.227                          39.900          39.100
 122893067.210 5  95760851.87945  91770812.000 7  23385764.797
  23385773.289    23385775.012          34.300          30.400          44.900
 131298772.809 4 102310733.25343  98047789.704 6  24985328.859
  24985338.145    24985339.754          28.000          22.600          38.900
 104066238.124 7  80940444.312 6                  19454084.109    19454082.789
  19454090.277                          46.000          40.700
 105675971.881 5  82192450.397 6                  19789717.023    19789716.832
  19789722.223                          34.000          41.600
 112547493.007 7  87699310.56947                  21417060.648
  21417066.230                          42.900          44.900
 106009672.220 7  82452014.199 7                  19845238.773    19845237.234
  19845242.266                          45.300          46.600
 107741677.940 7  83954525.53446                  20502543.672
  20502548.422                          44.100          37.100
 116957377.859 6  91135692.26946  87338371.300 7  22256256.922
  22256265.746    22256264.957          39.200          38.900          47.500
 130126272.106 5 101397122.50442                  24762209.070
  24762214.488                          31.500          15.600
 119935517.364 6  93456290.94844                  22822976.852
  22822982.117                          38.800          24.100
 122808508.509 7                  91707674.244 8  23369679.758
                  23369684.707          46.500                          50.600
 124470671.400 6                  92948906.097 7  23685980.492
                  23685985.707          40.600                          44.300
 131714993.365 7                  98358622.589 7  25064528.414
                  25064534.320          42.300                          46.000
 124878284.220 7                  93253280.131 7  23763548.461
                  23763554.809          44.000                          47.600
 121287175.236 7                  90571619.346 8  23080179.984
                  23080186.445          46.000                          51.100
 20  7  6  0 15 56.0000000  0 18G08G27R24G30G09R23R13G07R12G11G01G21
                                G16E27E14E13E30E15
 107721535.812 7  83938907.25748  80441448.017 8  20498730.969
  20498738.438    20498737.793          45.500          50.500          52.600
 115557829.613 6  90045100.07645  86293216.388 8  21989926.250
  21989933.891    21989933.145          39.800          31.400          48.400
 117960999.856 6  91747465.788 6                  22059299.461    22059300.344
  22059304.746                          39.300          39.100
 122890216.459 5  95758630.51945  91768683.217 7  23385222.586
  23385230.766    23385232.457          34.600          31.500          44.900
 131301286.938 4 102312692.28443  98049667.164 6  24985806.188
  24985816.840    24985818.004          27.300          22.200          39.000
 104064895.898 7  80939400.356 6                  19453832.930    19453831.852
  19453839.418                          45.800          40.500
 105673833.305 5  82190787.078 6                  19789317.164    19789316.289
  19789321.512                          33.700          41.500
 112546083.639 7  87698212.35947                  21416792.047
  21416798.020                          43.000          44.500
 106011458.834 7  82453403.802 7                  19845572.586    19845571.973
  19845576.688                          45.400          46.700
 107740092.218 7  83953289.90146                  20502241.711
  20502246.766                          43.700          37.100
 116953836.285 6  91132932.59746  87335726.601 7  22255583.164
  22255591.871    22255591.047          39.000          38.500          47.100
 130129331.975 5 101399506.74142                  24762792.211
  24762796.746                          30.700          16.300
 119937833.071 6  93458095.39743                  22823417.344
  22823422.797                          38.900          22.900
 122807792.016 7                  91707139.206 8  23369543.180
                  23369548.445          46.900                          50.700
 124464886.490 6                  92944586.238 7  23684879.727
                  23684884.906          41.000                          44.500
 131712502.320 7                  98356762.369 7  25064054.320
                  25064060.215          42.300                          45.700
 124879920.841 7                  93254502.298 7  23763859.891
                  23763866.188          44.400                          47.600
 121287156.855 7                  90571605.625 8  23080176.617
                  23080182.883          46.200                          51.300
 20  7  6  0 15 57.0000000  0 18G08G27R24G30G09R23R13G07R12G11G01G21
                                G16E27E14E13E30E15
 107722426.877 7  83939601.59548  80442113.423 8  20498900.391
  20498908.082    20498907.363          45.600          50.500          52.600
 115560339.487 6  90047055.81945  86295090.677 8  21990404.031
  21990411.629    21990410.871          40.100          31.400          48.300
 117957473.213 6  91744722.866 6                  22058640.719    22058640.762
  22058645.309                          39.500          39.000
 122887366.123 5  95756409.47345  91766554.718 7  23384681.117
  23384688.445    23384690.219          34.500          31.700          44.800
 131303801.064 4 102314651.34543  98051544.613 6  24986284.758
  24986295.230    24986296.578          26.800          21.800          39.300
 104063554.379 7  80938356.948 6                  19453581.813    19453580.789
  19453588.590                          46.000          40.700
 105671695.224 5  82189124.112 6                  19788917.148    19788915.922
  19788921.219                          33.600          41.600
 112544674.873 7  87697114.62447                  21416524.117
  21416529.824                          42.900          44.700
 106013246.112 7  82454793.901 7                  19845907.352    19845906.570
  19845911.262                          45.600          46.300
 107738507.009 7  83952054.67446                  20501940.195
  20501945.129                          44.100          36.900
 116950294.999 6  91130173.15846  87333082.142 7  22254909.289
  22254918.000    22254917.262          39.000          39.200          47.600
 130132391.986 5 101401891.15842                  24763374.422
  24763379.176                          30.100          16.300
 119940148.919 6  93459899.96143                  22823857.984
  22823863.574                          38.400          23.000
 122807075.757 7                  91706604.337 8  23369406.930
                  23369412.070          46.500                          50.700
 124459101.621 6                  92940266.370 7  23683778.656
                  23683784.020          40.800                          44.200
 131710011.490 6                  98354902.340 7  25063580.148
                  25063586.320          41.900                          46.300
 124881557.706 7                  93255724.621 7  23764171.344
                  23764177.672          43.900                          47.700
 121287138.900 7                  90571592.208 8  23080173.125
                  23080179.516          46.500                          51.500
 20  7  6  0 15 58.0000000  0 18G08G27R24G30G09R23R13G07R12G11G01G21
                                G16E27E14E13E30E15
 107723318.250 7  83940296.17648  80442779.055 8  20499070.031
  20499077.719    20499076.949          45.300          50.300          52.500
 115562849.556 6  90049011.73445  86296965.061 8  21990881.281
  21990889.293    21990888.582          39.800          31.100          48.500
 117953947.008 6  91741980.234 6                  22057981.039    22057981.066
  22057985.859                          39.400          38.400
 122884516.184 5  95754188.75345  91764426.475 7  23384137.703
  23384146.199    23384147.879          34.500          31.100          45.100
 131306315.78114 102316610.98353  98053422.129 6  24986762.883
  24986773.668    24986774.754          27.300          21.500          38.800
 104062213.588 7  80937314.108 6                  19453331.195    19453330.320
  19453337.855                          46.200          40.600
 105669557.705 5  82187461.600 6                  19788516.781    19788515.738
  19788520.984                          33.300          41.000
 112543266.691 7  87696017.33947                  21416255.984
  21416261.973                          43.000          44.700
 106015034.069 7  82456184.526 7                  19846242.344    19846241.109
  19846246.004                          45.300          46.400
 107736922.316 7  83950819.84446                  20501638.586
  20501643.551                          43.600          37.000
 116946754.049 6  91127413.97546  87330437.918 7  22254235.055
  22254244.230    22254243.379          39.100          38.900          47.600
 130135452.216 5 101404275.77642                  24763956.477
  24763961.430                          31.000          16.300
 119942464.974 6  93461704.69043                  22824299.203
  22824304.324                          38.700          22.800
 122806359.769 7                  91706069.663 8  23369270.836
                  23369275.758          46.800                          50.800
 124453316.812 6                  92935946.542 7  23682677.813
                  23682683.207          40.900                          44.200
 131707520.961 6                  98353042.530 7  25063106.586
                  25063112.336          41.900                          46.800
 124883194.830 7                  93256947.145 7  23764482.852
                  23764489.355          44.000                          47.600
 121287121.400 7                  90571579.141 8  23080169.852
                  23080176.109          46.600                          51.200
 20  7  6  0 15 59.0000000  0 18G08G27R24G30G09R23R13G07R12G11G01G21
                                G16E27E14E13E30E15
 107724209.933 7  83940990.99348  80443444.916 8  20499239.836
  20499247.574    20499246.699          45.700          50.300          52.200
 115565359.716 6  90050967.69245  86298839.534 8  21991359.039
  21991366.914    21991366.160          39.900          31.800          48.500
 117950421.104 6  91739237.884 6                  22057321.969    22057321.863
  22057326.398                          39.500          38.000
 122881666.469 5  95751968.18345  91762298.486 7  23383595.789
  23383604.113    23383605.438          34.200          30.900          45.000
 131308829.502 4 102318569.64143  98055299.615 6  24987240.367
  24987252.262    24987253.180          25.900          21.500          39.100
 104060873.471 7  80936271.791 6                  19453080.625    19453079.797
  19453087.422                          46.200          40.500
 105667420.739 5  82185799.472 6                  19788116.867    19788115.527
  19788120.754                          33.600          41.100
 112541859.093 7  87694920.50747                  21415988.805
  21415994.066                          43.200          44.700
 106016822.629 7  82457575.639 7                  19846576.430    19846575.965
  19846580.727                          45.500          45.600
 107735338.127 7  83949585.41546                  20501337.016
  20501342.035                          43.700          37.100
 116943213.361 6  91124654.99546  87327793.897 7  22253561.539
  22253570.461    22253569.609          39.300          38.900          47.600
 130138512.559 5 101406660.48842                  24764538.313
  24764543.762                          30.500          16.300
 119944781.216 6  93463509.54144                  22824739.477
  22824745.055                          38.600          24.200
 122805643.983 7                  91705535.152 8  23369134.477
                  23369139.617          46.400                          50.800
 124447531.988 6                  92931626.692 7  23681577.313
                  23681582.324          41.400                          44.200
 131705030.652 7                  98351182.887 7  25062632.469
                  25062638.461          42.100                          46.700
 124884832.183 7                  93258169.844 7  23764794.680
                  23764800.781          43.700                          47.700
 121287104.286 7                  90571566.365 8  23080166.664
                  23080173.070          46.400                          51.000
 20  7  6  0 16  0.0000000  0 18G08G27R24G30G09R23R13G07R12G11G01G21
                                G16E27E14E13E30E15
 107725101.968 7  83941686.07548  80444111.057 8  20499409.250
  20499417.238    20499416.457          45.400          50.300          52.500
 115567870.107 6  90052923.83645  86300714.172 8  21991836.672
  21991844.539    21991843.844          40.300          31.600          48.400
 117946895.712 6  91736495.915 6                  22056662.055    22056662.398
  22056667.000                          39.000          38.300
 122878817.290 5  95749748.06145  91760170.815 7  23383054.125
  23383061.949    23383063.281          33.900          31.100          44.700
 131311344.34814 102320529.34053  98057177.221 6  24987719.656
  24987730.668    24987731.930          26.800          21.800          38.700
 104059534.157 7  80935230.116 6                  19452830.094    19452829.070
  19452837.098                          46.300          40.900
 105665284.308 5  82184137.844 6                  19787716.242    19787715.637
  19787720.645                          34.100          41.400
 112540452.137 7  87693824.17647                  21415720.625
  21415726.320                          43.600          44.700
 106018611.904 7  82458967.302 7                  19846911.633    19846911.113
  19846915.641                          45.300          45.700
 107733754.542 7  83948351.45946                  20501035.891
  20501040.746                          43.600          36.900
 116939673.070 6  91121896.32446  87325150.190 7  22252887.820
  22252896.754    22252896.023          39.400          39.000          47.900
 130141573.182 5 101409045.42842                  24765120.422
  24765125.996                          31.200          14.800
 119947097.709 6  93465314.60144                  22825180.242
  22825185.801                          38.400          24.700
 122804928.507 7                  91705000.862 8  23368998.305
                  23369003.516          46.700                          50.500
 124441747.252 6                  92927306.934 7  23680476.289
                  23680481.625          41.200                          44.400
 131702540.689 7                  98349323.504 7  25062158.914
                  25062164.570          42.100                          46.400
 124886469.831 7                  93259392.773 7  23765106.414
                  23765112.559          43.700                          47.200
 121287087.689 7                  90571553.979 8  23080163.672
                  23080169.801          46.200                          51.000
 20  7  6  0 16  1.0000000  0 18G08G27R24G30G09R23R13G07R12G11G01G21
                                G16E27E14E13E30E15
 107725994.285 7  83942381.38748  80444777.385 8  20499579.266
  20499586.926    20499586.324          45.700          50.400          52.600
 115570380.571 6  90054880.04345  86302588.872 8  21992314.836
  21992322.434    21992321.586          40.200          31.500          48.300
 117943370.698 6  91733754.208 6                  22056003.281    22056003.355
  22056007.613                          39.300          38.300
 122875968.331 5  95747528.09145  91758043.396 7  23382511.172
  23382519.578    23382521.188          34.300          31.300          44.700
 131313858.148 4 102322488.04543  98059054.771 6  24988199.563
  24988209.027    24988210.457          27.300          21.100          38.500
 104058195.550 7  80934188.970 6                  19452580.250    19452579.301
  19452586.762                          45.900          41.200
 105663148.409 5  82182476.554 6                  19787317.102    19787315.066
  19787320.680                          33.600          41.300
 112539045.724 7  87692728.27047                  21415453.172
  21415458.574                          43.100          44.800
 106020401.802 7  82460359.439 7                  19847246.617    19847246.215
  19847250.695                          45.300          45.700
 107732171.440 7  83947117.86846                  20500734.508
  20500739.430                          43.700          37.100
 116936133.067 6  91119137.88046  87322506.678 7  22252214.219
  22252223.000    22252222.488          39.000          38.600          47.600
 130144633.883 5 101411430.37442                  24765702.945
  24765708.367                          31.300          16.300
 119949414.403 6  93467119.79743                  22825621.031
  22825626.734                          38.100          23.200
 122804213.228 7                  91704466.731 8  23368862.359
                  23368867.355          46.700                          50.500
 124435962.548 6                  92922987.159 7  23679375.102
                  23679380.879          40.000                          44.200
 131700050.955 7                  98347464.286 7  25061684.930
                  25061690.984          42.200                          46.400
 124888107.693 7                  93260615.838 7  23765418.078
                  23765424.094          43.600                          46.800
 121287071.487 7                  90571541.875 8  23080160.320
                  23080166.770          46.400                          51.200
 20  7  6  0 16  2.0000000  0 18G08G27R24G30G09R23R13G07R12G11G01G21
                                G16E27E14E13E30E15
 107726886.934 7  83943076.96248  80445443.977 8  20499749.211
  20499756.855    20499756.020          45.800          50.500          52.800
 115572891.206 6  90056836.37045  86304463.702 8  21992792.305
  21992800.352    21992799.383          39.800          31.700          48.200
 117939846.091 6  91731012.882 6                  22055344.680    22055344.012
  22055348.313                          39.100          38.500
 122873119.848 5  95745308.48645  91755916.247 7  23381969.516
  23381977.578    23381979.105          34.800          31.300          44.800
 131316372.543 4 102324447.31843  98060932.389 6  24988677.016
  24988687.594    24988689.109          26.800          21.800          39.200
 104056857.680 7  80933148.398 6                  19452329.492    19452329.145
  19452336.840                          46.100          41.100
 105661013.100 5  82180815.774 6                  19786914.586    19786915.414
  19786920.809                          33.600          41.500
 112537639.927 7  87691632.85247                  21415185.586
  21415191.223                          43.400          44.600
 106022192.407 7  82461752.123 7                  19847581.672    19847581.488
  19847585.945                          45.600          45.900
 107730588.858 7  83945884.68946                  20500433.219
  20500438.398                          43.900          37.300
 116932593.403 6  91116379.70746  87319863.416 7  22251541.094
  22251549.406    22251548.992          38.800          38.800          47.500
 130147694.808 5 101413815.49542                  24766285.680
  24766290.660                          30.500          16.300
 119951731.258 6  93468925.14444                  22826062.406
  22826067.555                          38.800          24.600
 122803498.239 7                  91703932.815 8  23368726.313
                  23368731.383          46.500                          51.000
 124430177.877 6                  92918667.460 7  23678274.102
                  23678279.961          39.800                          44.200
 131697561.511 7                  98345605.278 7  25061211.305
                  25061217.410          42.400                          46.500
 124889745.826 7                  93261839.126 7  23765729.945
                  23765735.930          43.800                          47.300
 121287055.743 7                  90571530.120 8  23080157.734
                  23080163.750          46.200                          50.800
 20  7  6  0 16  3.0000000  0 18G08G27R24G30G09R23R13G07R12G11G01G21
                                G16E27E14E13E30E15
 107727779.886 7  83943772.76548  80446110.803 8  20499919.148
  20499926.813    20499926.078          46.000          50.500          52.600
 115575401.968 6  90058792.80945  86306338.618 8  21993270.180
  21993278.227    21993277.223          39.900          31.700          48.200
 117936321.914 6  91728271.829 6                  22054685.695    22054685.172
  22054689.297                          39.600          38.300
 122870271.665 5  95743089.12745  91753789.377 7  23381427.711
  23381435.652    23381437.250          34.200          30.900          44.500
 131318886.925 4 102326406.55543  98062810.035 6  24989155.594
  24989166.004    24989167.184          26.800          22.000          39.100
 104055520.522 7  80932108.406 6                  19452079.859    19452079.008
  19452086.805                          46.700          41.300
 105658878.283 5  82179155.370 6                  19786516.516    19786515.402
  19786520.906                          33.800          41.600
 112536234.717 7  87690537.87847                  21414918.438
  21414923.707                          42.900          44.900
 106023983.655 7  82463145.318 7                  19847917.070    19847916.832
  19847921.230                          45.300          45.700
 107729006.824 7  83944651.94046                  20500132.258
  20500137.371                          43.900          37.100
 116929054.063 6  91113621.77146  87317220.389 7  22250866.461
  22250876.031    22250875.332          39.000          38.800          47.300
 130150756.024 5 101416200.86542                  24766869.242
  24766873.141                          30.700          16.300
 119954048.323 6  93470730.64944                  22826503.039
  22826508.414                          38.200          24.100
 122802783.479 7                  91703399.074 8  23368590.242
                  23368595.297          46.900                          50.500
 124424393.236 6                  92914347.759 7  23677173.773
                  23677179.152          40.400                          44.000
 131695072.326 7                  98343746.482 7  25060737.539
                  25060743.574          42.400                          46.200
 124891384.235 7                  93263062.593 7  23766041.773
                  23766047.508          43.200                          46.700
 121287040.442 7                  90571518.681 8  23080154.414
                  23080160.738          46.400                          50.700
 20  7  6  0 16  4.0000000  0 18G08G27R24G30G09R23R13G07R12G11G01G21
                                G16E27E14E13E30E15
 107728673.172 7  83944468.83548  80446777.852 8  20500088.984
  20500096.762    20500095.969          45.400          50.500          52.800
 115577912.885 6  90060749.37345  86308213.629 8  21993747.914
  21993756.008    21993755.090          39.800          31.500          48.000
 117932798.056 6  91725531.049 6                  22054026.211    22054026.172
  22054030.379                          39.700          38.300
 122867423.868 5  95740870.05745  91751662.756 7  23380885.602
  23380893.652    23380895.125          34.900          31.600          44.500
 131321401.337 4 102328365.84843  98064687.673 6  24989633.211
  24989644.609    24989646.020          27.300          21.500          39.400
 104054184.093 7  80931068.956 6                  19451830.273    19451829.109
  19451836.914                          46.400          40.800
 105656744.047 5  82177495.390 6                  19786118.289    19786115.699
  19786121.215                          33.700          41.600
 112534830.079 7  87689443.35447                  21414650.992
  21414656.395                          42.800          44.600
 106025775.522 7  82464538.995 7                  19848253.094    19848252.211
  19848256.727                          45.200          45.800
 107727425.281 7  83943419.56846                  20499831.695
  20499836.355                          43.700          37.100
 116925514.996 6  91110864.05446  87314577.597 7  22250193.516
  22250202.559    22250201.922          38.500          38.800          47.300
 130153817.248 5 101418586.22742                  24767452.211
  24767455.672                          30.500          16.300
 119956365.596 6  93472536.31143                  22826943.797
  22826949.430                          38.100          23.300
 122802068.950 7                  91702865.491 8  23368454.391
                  23368459.371          46.600                          50.600
 124418608.598 6                  92910028.081 7  23676073.234
                  23676078.316          40.500                          43.900
 131692583.390 7                  98341887.868 7  25060264.109
                  25060270.000          42.100                          46.200
 124893022.837 7                  93264286.222 7  23766353.352
                  23766359.508          43.400                          47.000
 121287025.542 7                  90571507.568 8  23080151.711
                  23080157.887          46.200                          50.600
 20  7  6  0 16  5.0000000  0 18G08G27R24G30G09R23R13G07R12G11G01G21
                                G16E27E14E13E30E15
 107729566.789 7  83945165.16048  80447445.164 8  20500259.023
  20500266.750    20500266.035          45.500          50.400          53.000
 115580423.933 6  90062706.02645  86310088.789 8  21994226.039
  21994233.699    21994232.828          39.700          31.100          48.000
 117929274.646 6  91722790.638 6                  22053367.328    22053367.203
  22053371.418                          39.400          38.100
 122864576.437 5  95738651.29545  91749536.440 7  23380344.078
  23380351.738    23380353.281          34.600          31.500          44.700
 131323915.855 4 102330325.23443  98066565.367 6  24990111.930
  24990123.137    24990124.570          26.800          21.500          39.400
 104052848.396 7  80930030.083 6                  19451580.703    19451579.613
  19451587.242                          46.300          41.000
 105654610.385 5  82175835.890 6                  19785717.711    19785716.125
  19785721.617                          33.400          41.700
 112533426.054 7  87688349.31147                  21414383.563
  21414389.270                          43.100          44.700
 106027568.062 7  82465933.197 7                  19848588.227    19848587.852
  19848592.250                          45.400          46.000
 107725844.292 7  83942187.63246                  20499530.570
  20499535.266                          44.100          37.300
 116921976.292 6  91108106.61946  87311935.052 7  22249520.281
  22249529.184    22249528.574          38.600          38.800          47.400
 130156878.736 5 101420971.78742                  24768033.766
  24768038.180                          30.300          16.300
 119958683.033 6  93474342.11844                  22827384.094
  22827390.441                          37.700          24.100
 122801354.693 7                  91702332.121 8  23368318.375
                  23368323.406          46.700                          50.200
 124412824.046 6                  92905708.440 7  23674972.391
                  23674977.680          40.300                          43.700
 131690094.771 6                  98340029.471 7  25059790.578
                  25059796.340          41.800                          46.100
 124894661.706 7                  93265510.071 7  23766665.273
                  23766671.289          43.400                          47.000
 121287011.120 7                  90571496.794 8  23080149.039
                  23080155.164          46.000                          50.900
 20  7  6  0 16  6.0000000  0 18G08G27R24G30G09R23R13G07R12G11G01G21
                                G16E27E14E13E30E15
 107730460.675 7  83945861.69348  80448112.682 8  20500428.891
  20500436.988    20500436.191          45.400          50.500          52.800
 115582935.132 6  90064662.80945  86311964.025 8  21994704.109
  21994711.727    21994710.695          39.400          31.800          48.400
 117925751.647 6  91720050.514 6                  22052708.195    22052708.199
  22052712.441                          39.100          38.100
 122861729.356 5  95736432.79145  91747410.385 7  23379801.945
  23379810.211    23379811.809          34.600          31.000          44.300
 131326430.309 4 102332284.53943  98068443.058 6  24990590.633
  24990601.527    24990603.320          26.400          21.500          39.600
 104051513.422 7  80928991.758 6                  19451330.891    19451330.094
  19451337.672                          46.000          41.200
 105652477.246 5  82174176.810 6                  19785317.500    19785316.484
  19785322.078                          33.600          41.500
 112532022.625 7  87687255.72947                  21414117.070
  21414122.266                          42.800          44.700
 106029361.288 7  82467327.919 7                  19848923.664    19848923.434
  19848928.031                          45.600          46.200
 107724263.840 7  83940956.11046                  20499229.906
  20499234.715                          44.100          36.800
 116918437.916 6  91105349.44746  87309292.744 7  22248847.063
  22248855.953    22248855.145          38.700          39.000          47.300
 130159940.377 5 101423357.50142                  24768616.234
  24768620.809                          31.000          16.300
 119961000.680 6  93476148.07043                  22827825.477
  22827831.527                          38.000          23.500
 122800640.687 7                  91701798.930 8  23368182.453
                  23368187.672          46.600                          50.400
 124407039.540 6                  92901388.820 7  23673871.875
                  23673876.656          40.400                          43.400
 131687606.411 6                  98338171.282 7  25059317.195
                  25059322.965          41.900                          46.500
 124896300.850 7                  93266734.091 7  23766977.047
                  23766983.219          43.400                          47.000
 121286997.127 7                  90571486.338 8  23080146.094
                  23080152.531          46.600                          50.600
 20  7  6  0 16  7.0000000  0 18G08G27R24G30G09R23R13G07R12G11G01G21
                                G16E27E14E13E30E15
 107731354.928 7  83946558.51648  80448780.469 8  20500598.844
  20500607.070    20500606.367          45.400          50.400          52.500
 115585446.492 6  90066619.72345  86313839.385 8  21995181.680
  21995189.664    21995188.695          40.000          30.800          48.600
 117922229.091 6  91717310.744 6                  22052050.008    22052049.605
  22052053.867                          39.200          38.100
 122858882.658 5  95734214.57145  91745284.595 7  23379260.820
  23379268.383    23379269.715          34.600          31.600          44.500
 131328944.880 4 102334243.93243  98070320.790 6  24991069.875
  24991080.090    24991081.953          27.300          21.500          39.800
 104050179.180 7  80927954.024 6                  19451081.773    19451080.660
  19451088.336                          46.200          41.100
 105650344.673 5  82172518.121 6                  19784918.766    19784917.246
  19784922.758                          33.800          41.500
 112530619.782 7  87686162.60147                  21413849.852
  21413855.230                          43.400          44.700
 106031155.189 7  82468723.171 7                  19849259.383    19849259.254
  19849263.723                          45.700          46.200
 107722683.898 7  83939724.99146                  20498928.820
  20498934.105                          44.200          37.100
 116914899.831 6  91102592.49446  87306650.679 7  22248173.242
  22248182.738    22248181.895          38.400          39.000          47.600
 130163002.178 5 101425743.29942                  24769198.672
  24769203.535                          31.000          16.900
 119963318.553 6  93477954.20343                  22828266.828
  22828272.508                          37.700          22.600
 122799926.948 7                  91701265.935 8  23368046.656
                  23368051.758          46.800                          50.600
 124401255.021 6                  92897069.227 7  23672771.227
                  23672775.934          40.400                          43.500
 131685118.331 6                  98336313.302 7  25058843.656
                  25058849.492          41.900                          46.400
 124897940.216 7                  93267958.317 7  23767289.086
                  23767295.188          43.600                          47.200
 121286983.579 7                  90571476.231 8  23080143.563
                  23080149.914          46.300                          50.900
 20  7  6  0 16  8.0000000  0 18G08G27R24G30G09R23R13G07R12G11G01G21
                                G16E27E14E13E30E15
 107732249.519 7  83947255.60048  80449448.508 8  20500769.820
  20500777.355    20500776.559          45.600          50.400          52.300
 115587958.007 6  90068576.73845  86315714.878 7  21995659.922
  21995667.699    21995666.555          40.300          31.900          47.800
 117918706.924 6  91714571.279 6                  22051391.180    22051390.828
  22051395.242                          39.400          38.300
 122856036.342 5  95731996.67045  91743159.103 7  23378717.969
  23378726.691    23378728.102          34.700          32.100          44.700
 131331459.98314 102336203.87053  98072198.602 6  24991549.383
  24991558.777    24991560.176          28.000          21.300          38.800
 104048845.674 7  80926916.869 6                  19450832.445    19450831.488
  19450839.059                          46.000          41.200
 105648212.723 5  82170859.939 6                  19784519.750    19784517.883
  19784523.539                          33.400          41.500
 112529217.565 7  87685069.96647                  21413583.086
  21413588.477                          43.200          44.900
 106032949.784 7  82470118.973 7                  19849595.148    19849595.289
  19849599.895                          45.600          46.400
 107721104.522 7  83938494.30646                  20498628.594
  20498633.531                          44.600          37.300
 116911362.122 6  91099835.83746  87304008.877 7  22247500.055
  22247509.590    22247508.492          38.700          39.200          47.900
 130166064.299 5 101428129.40042                  24769780.016
  24769786.387                          30.800          15.600
 119965636.630 6  93479760.48244                  22828707.445
  22828713.598                          37.700          24.700
 122799213.477 7                  91700733.147 8  23367910.914
                  23367915.926          47.200                          50.800
 124395470.606 6                  92892749.690 7  23671670.297
                  23671675.375          40.600                          43.500
 131682630.547 7                  98334455.530 7  25058370.047
                  25058376.141          42.400                          46.500
 124899579.907 7                  93269182.740 7  23767601.234
                  23767607.234          44.000                          47.300
 121286970.511 7                  90571466.464 8  23080141.078
                  23080147.484          46.300                          51.400
 20  7  6  0 16  9.0000000  0 18G08G27R24G30G09R23R13G07R12G11G01G21
                                G16E27E14E13E30E15
 107733144.359 7  83947952.87748  80450116.734 8  20500939.938
  20500947.566    20500946.902          45.600          50.300          52.400
 115590469.604 6  90070533.82945  86317590.421 8  21996137.297
  21996145.410    21996144.570          40.400          31.400          48.000
 117915185.071 6  91711832.059 6                  22050731.977    22050732.559
  22050736.758                          39.500          38.000
 122853190.330 5  95729778.99545  91741033.847 7  23378177.250
  23378185.199    23378186.531          34.500          31.200          44.700
 131333974.108 4 102338162.79843  98074076.374 6  24992027.156
  24992037.281    24992038.719          27.300          21.300          38.800
 104047512.863 7  80925880.223 6                  19450583.188    19450582.266
  19450589.855                          46.300          40.800
 105646081.201 5  82169202.063 6                  19784120.539    19784118.906
  19784124.289                          33.500          40.700
 112527815.895 7  87683977.76047                  21413316.398
  21413321.813                          42.900          44.700
 106034744.948 7  82471515.214 7                  19849931.508    19849931.113
  19849935.922                          45.400          45.300
 107719525.614 7  83937263.98446                  20498328.281
  20498333.133                          45.000          37.300
 116907824.654 6  91097079.37446  87301367.264 8  22246827.227
  22246836.473    22246835.531          39.100          38.600          48.000
 130169126.394 5 101430515.43942                  24770363.688
  24770369.078                          30.500          16.300
 119967954.850 6  93481566.88643                  22829149.609
  22829154.855                          37.800          23.900
 122798500.174 7                  91700200.494 8  23367775.141
                  23367780.207          47.400                          50.600
 124389686.138 6                  92888430.133 7  23670569.281
                  23670574.703          40.500                          43.800
 131680142.956 7                  98332597.928 7  25057896.859
                  25057902.641          42.000                          46.700
 124901219.750 7                  93270407.309 7  23767913.156
                  23767919.223          43.700                          47.300
 121286957.803 7                  90571456.983 8  23080138.852
                  23080145.090          46.200                          51.000
 20  7  6  0 16 10.0000000  0 18G08G27R24G30G09R23R13G07R12G11G01G21
                                G16E27E14E13E30E15
 107734039.567 7  83948650.44148  80450785.231 8  20501110.094
  20501118.008    20501117.215          45.500          50.300          52.700
 115592981.377 6  90072491.05245  86319466.083 8  21996615.078
  21996623.328    21996622.543          40.200          31.400          48.000
 117911663.670 6  91709093.205 6                  22050074.586    22050073.738
  22050078.344                          39.600          37.900
 122850344.744 5  95727561.64645  91738908.886 7  23377635.188
  23377643.781    23377644.910          34.100          31.500          44.900
 131336488.757 4 102340122.25443  98075954.194 6  24992506.266
  24992515.949    24992517.309          27.600          22.200          38.800
 104046180.800 7  80924844.174 6                  19450334.406    19450333.203
  19450340.910                          46.200          41.000
 105643950.278 5  82167544.700 6                  19783721.250    19783720.398
  19783725.215                          33.700          41.200
 112526414.857 7  87682886.03747                  21413049.625
  21413055.070                          43.000          44.600
 106036540.824 7  82472912.011 7                  19850267.695    19850267.184
  19850272.074                          45.200          45.700
 107717947.267 7  83936034.10546                  20498027.750
  20498032.605                          44.400          37.100
 116904287.551 6  91094323.19346  87298725.922 8  22246153.766
  22246163.426    22246162.449          38.900          38.700          48.300
 130172188.776 5 101432901.67942                  24770946.867
  24770951.938                          30.500          15.600
 119970273.340 6  93483373.53544                  22829590.492
  22829596.012                          37.800          24.300
 122797787.166 7                  91699668.046 8  23367639.406
                  23367644.547          47.000                          50.700
 124383901.768 6                  92884110.628 7  23669468.289
                  23669474.051          40.900                          43.900
 131677655.705 7                  98330740.561 7  25057423.367
                  25057429.254          42.000                          46.500
 124902859.894 7                  93271632.088 7  23768225.133
                  23768231.430          43.700                          47.500
 121286945.573 7                  90571447.850 8  23080136.219
                  23080142.645          46.100                          51.000
 20  7  6  0 16 11.0000000  0 18G08G27R24G30G09R23R13G07R12G11G01G21
                                G16E27E14E13E30E15
 107734935.071 7  83949348.24048  80451453.955 8  20501280.680
  20501288.277    20501287.566          45.200          50.300          53.000
 115595493.299 6  90074448.38845  86321341.883 8  21997093.883
  21997101.484    21997100.574          40.200          32.100          48.300
 117908142.659 6  91706354.632 6                  22049415.633    22049415.656
  22049419.863                          39.800          38.500
 122847499.535 5  95725344.60945  91736784.208 7  23377094.789
  23377102.367    23377103.414          34.300          32.100          44.500
 131339003.404 4 102342081.72643  98077832.042 6  24992984.883
  24992994.449    24992995.578          28.300          22.200          38.800
 104044849.468 7  80923808.688 6                  19450085.563    19450084.211
  19450092.129                          46.300          41.000
 105641819.936 5  82165887.731 6                  19783321.750    19783320.605
  19783326.410                          33.700          41.300
 112525014.385 7  87681794.76247                  21412783.492
  21412788.566                          43.500          44.900
 106038337.388 7  82474309.325 7                  19850604.969    19850603.754
  19850608.492                          45.400          46.200
 107716369.474 7  83934804.64646                  20497727.648
  20497732.336                          44.500          37.100
 116900750.779 6  91091567.26246  87296084.812 8  22245481.430
  22245490.320    22245489.375          39.100          39.000          48.400
 130175251.305 5 101435288.05642                  24771530.406
  24771534.664                          30.800          15.600
 119972591.975 6  93485180.25244                  22830031.531
  22830037.332                          38.100          24.100
 122797074.417 7                  91699135.800 8  23367503.602
                  23367508.895          46.800                          50.900
 124378117.403 6                  92879791.138 7  23668367.750
                  23668373.336          40.600                          43.600
 131675168.708 7                  98328883.376 7  25056950.125
                  25056956.125          42.300                          46.200
 124904500.276 7                  93272857.058 7  23768537.250
                  23768543.414          43.900                          47.300
 121286933.799 7                  90571439.049 8  23080133.992
                  23080140.500          46.400                          51.100
 20  7  6  0 16 12.0000000  0 18G08G27R24G30G09R23R13G07R12G11G01G21
                                G16E27E14E13E30E15
 107735830.945 7  83950046.31848  80452122.945 8  20501451.195
  20501458.836    20501458.086          45.100          50.500          53.000
 115598005.384 6  90076405.86045  86323217.791 8  21997571.070
  21997579.637    21997578.680          40.200          32.000          48.200
 117904622.120 6  91703616.414 6                  22048756.781    22048756.980
  22048761.402                          39.400          38.800
 122844654.637 5  95723127.81345  91734659.804 7  23376553.258
  23376560.859    23376562.199          34.300          31.600          44.500
 131341518.152 4 102344041.28243  98079709.899 6  24993463.328
  24993472.926    24993474.379          28.000          21.800          38.900
 104043518.886 7  80922773.801 6                  19449835.914    19449835.738
  19449843.348                          46.100          40.700
 105639690.106 5  82164231.248 6                  19782923.195    19782922.332
  19782927.598                          33.300          41.600
 112523614.535 7  87680703.97047                  21412516.461
  21412522.281                          43.400          44.700
 106040134.623 7  82475707.166 7                  19850940.211    19850939.902
  19850944.852                          45.500          45.800
 107714792.205 7  83933575.61146                  20497427.617
  20497432.355                          44.600          36.700
 116897214.329 6  91088811.58246  87293443.964 8  22244808.461
  22244817.426    22244816.324          38.900          38.900          48.000
 130178314.55315 101437675.10252                  24772112.117
  24772117.492                          31.000          16.300
 119974910.834 6  93486987.13443                  22830472.594
  22830478.480                          37.900          23.600
 122796361.933 7                  91698603.749 8  23367368.250
                  23367373.336          46.500                          51.000
 124372333.112 6                  92875471.707 7  23667267.422
                  23667272.531          40.800                          43.700
 131672681.970 6                  98327026.441 7  25056476.977
                  25056482.824          41.800                          46.100
 124906140.962 7                  93274082.239 7  23768849.742
                  23768855.652          43.900                          47.300
 121286922.462 7                  90571430.588 8  23080131.977
                  23080138.305          46.400                          51.000
 20  7  6  0 16 13.0000000  0 18G08G27R24G30G09R23R13G07R12G11G01G21
                                G16E27E14E13E30E15
 107736727.076 7  83950744.60548  80452792.128 8  20501621.617
  20501629.281    20501628.688          44.900          50.500          52.800
 115600517.582 6  90078363.41345  86325093.773 8  21998049.313
  21998057.754    21998056.648          39.900          31.900          48.100
 117901101.890 6  91700878.476 6                  22048097.219    22048098.563
  22048103.125                          39.700          39.000
 122841810.131 5  95720911.32145  91732535.634 7  23376012.430
  23376019.684    23376020.770          34.800          31.100          44.900
 131344032.907 4 102346000.78543  98081587.770 6  24993941.883
  24993951.258    24993952.961          28.600          21.300          38.700
 104042188.994 7  80921739.432 6                  19449587.953    19449586.805
  19449594.609                          46.000          40.900
 105637560.793 5  82162575.101 6                  19782525.453    19782523.605
  19782528.715                          33.600          41.600
 112522215.215 7  87679613.59647                  21412250.586
  21412255.895                          43.700          44.700
 106041932.456 7  82477105.474 7                  19851277.609    19851276.453
  19851281.512                          45.600          45.900
 107713215.413 7  83932346.94646                  20497127.242
  20497132.250                          44.300          37.100
 116893678.155 6  91086056.11846  87290803.322 7  22244135.188
  22244144.648    22244143.449          39.000          39.200          47.900
 130181376.891 5 101440061.25042                  24772695.594
  24772700.332                          31.500          16.300
 119977229.869 6  93488794.18443                  22830913.617
  22830919.684                          37.300          23.900
 122795649.636 7                  91698071.846 8  23367232.500
                  23367237.879          46.800                          51.200
 124366548.793 6                  92871152.257 7  23666166.516
                  23666171.777          40.700                          44.000
 131670195.495 7                  98325169.646 7  25056003.773
                  25056009.742          42.000                          46.300
 124907781.814 7                  93275307.562 7  23769162.305
                  23769167.898          43.400                          47.200
 121286911.524 7                  90571422.421 8  23080129.734
                  23080136.207          46.000                          51.200
 20  7  6  0 16 14.0000000  0 18G08G27R24G30G09R23R13G07R12G11G01G21
                                G16E27E14E13E30E15
 107737623.554 7  83951443.15448  80453461.586 8  20501791.859
  20501800.031    20501799.203          44.900          50.500          52.900
 115603029.967 6  90080321.11545  86326969.898 8  21998527.484
  21998535.617    21998534.867          40.100          31.700          48.300
 117897582.163 6  91698140.901 6                  22047439.828    22047440.215
  22047445.008                          39.300          39.300
 122838966.007 5  95718695.10945  91730411.780 7  23375470.813
  23375478.516    23375479.648          34.900          31.300          44.600
 131346547.672 4 102347960.35243  98083465.720 6  24994420.766
  24994429.766    24994431.082          29.100          21.500          38.800
 104040859.872 7  80920705.681 6                  19449339.156    19449338.504
  19449346.164                          45.900          40.900
 105635432.049 5  82160919.428 6                  19782125.938    19782124.996
  19782130.117                          33.500          41.600
 112520816.576 7  87678523.74247                  21411984.328
  21411989.855                          43.800          44.800
 106043730.996 7  82478504.350 7                  19851613.750    19851613.215
  19851618.164                          45.300          45.900
 107711639.223 7  83931118.74646                  20496827.867
  20496832.266                          44.300          37.000
 116890142.336 6  91083300.94346  87288162.954 7  22243462.266
  22243471.832    22243470.598          38.800          39.600          47.900
 130184440.025 5 101442448.08142                  24773278.273
  24773283.195                          30.500          16.300
 119979549.157 6  93490601.42843                  22831355.102
  22831361.191                          37.000          22.500
 122794937.654 7                  91697540.171 8  23367097.164
                  23367102.355          46.600                          51.000
 124360764.578 6                  92866832.874 7  23665065.914
                  23665071.145          40.800                          44.100
 131667709.326 7                  98323313.085 7  25055530.883
                  25055536.691          42.100                          46.200
 124909422.982 7                  93276533.095 7  23769474.328
                  23769480.211          43.800                          47.300
 121286901.084 7                  90571414.614 8  23080127.875
                  23080134.184          45.700                          51.700
 20  7  6  0 16 15.0000000  0 18G08G27R24G30G09R23R13G07R12G11G01G21
                                G16E27E14E13E30E15
 107738520.305 7  83952141.92648  80454131.226 8  20501962.680
  20501970.762    20501969.832          44.700          50.500          52.900
 115605542.408 6  90082278.86345  86328846.082 8  21999005.656
  21999013.848    21999012.898          40.600          31.800          48.600
 117894062.820 6  91695403.653 6                  22046782.016    22046781.836
  22046786.910                          39.500          38.800
 122836122.175 5  95716479.13245  91728288.161 7  23374929.758
  23374937.359    23374938.387          34.900          31.400          44.500
 131349062.574 4 102349920.02043  98085343.672 6  24994899.539
  24994908.434    24994909.949          28.600          21.700          39.000
 104039531.445 7  80919672.464 6                  19449091.484    19449090.230
  19449097.824                          46.000          41.000
 105633303.845 5  82159264.119 6                  19781727.125    19781726.813
  19781731.598                          33.700          41.600
 112519418.443 7  87677434.29147                  21411718.281
  21411723.734                          43.300          44.600
 106045530.142 7  82479903.681 7                  19851950.680    19851949.988
  19851955.008                          45.300          45.900
 107710063.499 7  83929890.90946                  20496527.570
  20496532.555                          44.600          36.900
 116886606.833 6  91080546.00446  87285522.803 7  22242789.852
  22242799.000    22242797.773          38.900          39.400          47.600
 130187503.296 5 101444835.07742                  24773861.391
  24773866.023                          30.800          14.800
 119981868.564 6  93492408.74744                  22831796.969
  22831802.461                          37.000          24.000
 122794225.891 7                  91697008.640 8  23366961.508
                  23366966.844          46.800                          51.200
 124354980.363 6                  92862513.493 7  23663965.336
                  23663970.313          40.900                          44.200
 131665223.414 7                  98321456.716 7  25055057.641
                  25055063.586          42.500                          46.200
 124911064.360 7                  93277758.786 7  23769786.641
                  23769792.516          44.600                          47.400
 121286891.024 7                  90571407.105 8  23080125.984
                  23080132.270          46.400                          51.300
 20  7  6  0 16 16.0000000  0 18G08G27R24G30G09R23R13G07R12G11G01G21
                                G16E27E14E13E30E15
 107739417.431 7  83952840.97848  80454801.166 8  20502133.672
  20502141.539    20502140.621          45.000          50.500          52.500
 115608055.109 6  90084236.79445  86330722.421 8  21999483.523
  21999491.824    21999491.059          40.700          31.900          48.500
 117890543.911 6  91692666.720 6                  22046123.781    22046124.098
  22046128.820                          39.200          38.500
 122833278.823 5  95714263.53345  91726164.855 7  23374388.539
  23374396.340    23374397.289          35.000          31.600          44.300
 131351577.414 4 102351879.62343  98087221.672 6  24995377.344
  24995386.965    24995388.496          28.600          21.800          38.800
 104038203.802 7  80918639.839 6                  19448843.141    19448841.996
  19448849.730                          46.000          40.900
 105631176.240 5  82157609.325 6                  19781329.813    19781328.387
  19781333.230                          34.100          41.100
 112518021.005 7  87676345.37647                  21411452.352
  21411457.781                          43.200          44.700
 106047329.994 7  82481303.568 7                  19852288.148    19852287.301
  19852291.992                          45.500          45.600
 107708488.373 7  83928663.53246                  20496227.727
  20496232.766                          44.400          37.000
 116883071.680 6  91077791.34546  87282882.907 7  22242117.047
  22242126.332    22242125.086          38.800          39.700          47.800
 130190566.765 5 101447222.16842                  24774443.992
  24774449.094                          30.300          14.800
 119984188.236 6  93494216.29743                  22832238.219
  22832243.816                          37.000          23.000
 122793514.401 7                  91696477.345 8  23366826.289
                  23366831.469          46.800                          50.700
 124349196.247 6                  92858194.164 7  23662864.680
                  23662869.578          40.700                          44.200
 131662737.779 7                  98319600.578 7  25054584.750
                  25054590.613          42.600                          46.500
 124912706.043 7                  93278984.723 7  23770098.742
                  23770105.008          44.500                          47.400
 121286881.464 7                  90571399.977 8  23080124.086
                  23080130.480          45.900                          51.500
 20  7  6  0 16 17.0000000  0 18G08G27R24G30G09R23R13G07R12G11G01G21
                                G16E27E14E13E30E15
 107740314.846 7  83953540.26848  80455471.309 8  20502304.445
  20502312.129    20502311.336          44.600          50.600          52.600
 115610567.883 6  90086194.80945  86332598.849 8  21999962.141
  21999969.930    21999969.117          40.200          31.700          48.500
 117887025.325 6  91689930.032 6                  22045466.070    22045465.559
  22045470.813                          39.200          38.900
 122830435.789 5  95712048.18945  91724041.795 7  23373847.406
  23373855.340    23373856.383          34.800          31.700          44.800
 131354092.305 4 102353839.27543  98089099.669 6  24995856.891
  24995865.422    24995866.723          28.900          21.300          38.700
 104036876.827 7  80917607.746 6                  19448594.195    19448593.527
  19448601.543                          45.800          40.900
 105629049.137 5  82155954.905 6                  19780932.250    19780929.621
  19780934.855                          33.600          41.600
 112516624.102 7  87675256.87547                  21411186.445
  21411191.934                          43.500          44.900
 106049130.486 7  82482703.937 7                  19852624.672    19852624.438
  19852629.023                          45.500          45.700
 107706913.722 7  83927436.53446                  20495927.984
  20495933.051                          44.300          37.000
 116879536.813 6  91075036.89946  87280243.246 7  22241444.203
  22241453.754    22241452.395          39.000          39.200          47.500
 130193630.84815 101449609.90852                  24775026.688
  24775032.125                          30.300          13.900
 119986508.063 6  93496023.94644                  22832679.156
  22832685.141                          37.000          24.700
 122792803.134 7                  91695946.206 8  23366691.266
                  23366696.070          47.000                          50.700
 124343412.117 6                  92853874.849 7  23661764.078
                  23661768.832          40.400                          44.400
 131660252.414 7                  98317744.629 7  25054111.648
                  25054117.707          42.600                          46.400
 124914347.929 7                  93280210.810 7  23770411.297
                  23770417.316          44.200                          47.400
 121286872.319 7                  90571393.135 8  23080122.508
                  23080128.785          46.200                          51.300
 20  7  6  0 16 18.0000000  0 18G08G27R24G30G09R23R13G07R12G11G01G21
                                G16E27E14E13E30E15
 107741212.580 7  83954239.80348  80456141.702 8  20502474.867
  20502482.965    20502482.125          44.400          50.400          52.800
 115613080.798 6  90088152.92345  86334475.380 8  22000440.352
  22000448.227    22000447.242          40.100          31.900          48.600
 117883507.183 6  91687193.700 6                  22044807.016    22044807.805
  22044813.004                          39.200          39.000
 122827593.127 5  95709833.13845  91721919.025 7  23373305.828
  23373314.367    23373315.355          34.500          30.900          44.600
 131356607.215 4 102355798.97543  98090977.685 6  24996335.258
  24996343.777    24996345.531          29.100          22.300          38.400
 104035550.583 7  80916576.238 6                  19448346.883    19448345.984
  19448353.633                          45.800          40.800
 105626922.567 5  82154300.901 6                  19780534.430    19780531.242
  19780536.637                          33.400          41.800
 112515227.801 7  87674168.84347                  21410920.391
  21410926.184                          43.300          44.700
 106050931.683 7  82484104.872 7                  19852961.883    19852961.422
  19852966.301                          45.800          45.700
 107705339.622 7  83926209.97346                  20495628.445
  20495633.531                          44.000          37.000
 116876002.303 6  91072282.74146  87277603.829 7  22240771.883
  22240781.203    22240779.801          39.200          39.400          47.500
 130196694.109 4 101451996.76042                  24775609.859
  24775615.109                          29.400          14.800
 119988828.109 6  93497831.78243                  22833121.047
  22833126.598                          37.400          23.000
 122792092.153 7                  91695415.272 8  23366555.688
                  23366560.762          46.700                          50.800
 124337628.033 6                  92849555.570 7  23660663.023
                  23660668.156          40.900                          44.000
 131657767.360 7                  98315888.885 7  25053638.891
                  25053644.902          42.800                          46.400
 124915990.108 7                  93281437.117 7  23770723.758
                  23770729.793          44.500                          47.400
 121286863.614 7                  90571386.651 8  23080120.820
                  23080127.156          46.600                          51.200
 20  7  6  0 16 19.0000000  0 18G08G27R24G30G09R23R13G07R12G11G01G21
                                G16E27E14E13E30E15
 107742110.638 7  83954939.59048  80456812.320 8  20502646.094
  20502653.863    20502653.027          44.500          50.200          52.500
 115615593.873 6  90090111.16545  86336352.013 8  22000918.258
  22000926.527    22000925.586          39.800          31.700          48.300
 117879989.455 6  91684457.707 6                  22044149.375    22044149.980
  22044155.316                          39.600          38.400
 122824750.782 5  95707618.31945  91719796.517 7  23372765.445
  23372773.598    23372774.387          34.800          30.800          44.300
 131359122.166 4 102357758.66343  98092855.746 6  24996812.648
  24996822.328    24996823.930          29.400          22.300          38.700
 104034225.048 7  80915545.259 6                  19448098.742    19448098.023
  19448105.848                          45.800          40.200
 105624796.593 5  82152647.372 6                  19780135.852    19780132.801
  19780138.520                          33.400          40.900
 112513832.091 7  87673081.27947                  21410655.148
  21410660.785                          43.000          44.500
 106052733.554 7  82485506.336 7                  19853299.195    19853298.777
  19853303.539                          45.700          44.900
 107703766.033 7  83924983.79546                  20495329.070
  20495334.105                          44.500          36.600
 116872468.094 6  91069528.80846  87274964.644 7  22240098.492
  22240108.770    22240107.254          38.800          38.400          47.900
 130199758.127 4 101454384.34042                  24776193.008
  24776198.039                          29.600          15.600
 119991148.356 6  93499639.76943                  22833562.102
  22833568.098                          36.800          23.200
 122791381.385 7                  91694884.506 8  23366420.500
                  23366425.633          47.000                          50.900
 124331843.984 6                  92845236.326 7  23659562.359
                  23659567.434          40.800                          44.100
 131655282.534 7                  98314033.338 7  25053166.031
                  25053171.895          42.800                          46.700
 124917632.505 7                  93282663.574 7  23771036.258
                  23771042.301          44.300                          47.100
 121286855.343 7                  90571380.462 8  23080119.352
                  23080125.441          46.500                          50.900
 20  7  6  0 16 20.0000000  0 18G08G27R24G30G09R23R13G07R12G11G01G21
                                G16E27E14E13E30E15
 107743009.016 7  83955639.62048  80457483.192 8  20502817.469
  20502824.875    20502824.016          44.900          50.700          52.600
 115618107.086 6  90092069.51045  86338228.770 8  22001396.453
  22001404.645    22001403.711          39.700          31.600          48.100
 117876472.154 6  91681722.027 6                  22043490.328    22043492.113
  22043497.414                          39.400          38.900
 122821908.856 5  95705403.83045  91717674.297 7  23372224.203
  23372232.707    23372233.719          34.100          31.000          44.600
 131361637.62614 102359718.84453  98094733.842 6  24997291.102
  24997301.012    24997302.363          29.600          22.000          39.000
 104032900.255 7  80914514.866 6                  19447851.477    19447850.180
  19447858.184                          45.800          40.700
 105622671.190 5  82150994.244 6                  19779737.125    19779734.957
  19779740.441                          33.500          40.800
 112512436.979 7  87671994.17547                  21410389.219
  21410395.203                          43.000          44.600
 106054536.069 7  82486908.288 7                  19853636.641    19853636.148
  19853641.074                          45.600          45.200
 107702192.994 7  83923758.04946                  20495029.898
  20495034.871                          44.300          37.300
 116868934.210 6  91066775.13446  87272325.713 8  22239426.453
  22239436.191    22239434.730          38.900          39.400          48.100
 130202822.73715 101456772.44952                  24776775.648
  24776781.203                          30.300          14.800
 119993468.858 6  93501447.94143                  22834003.258
  22834009.750                          37.200          23.200
 122790670.889 7                  91694353.942 8  23366285.188
                  23366290.430          47.100                          50.700
 124326059.982 6                  92840917.116 7  23658461.961
                  23658466.551          40.500                          43.800
 131652797.998 7                  98312178.005 7  25052693.203
                  25052698.922          42.700                          46.200
 124919275.192 7                  93283890.236 7  23771348.813
                  23771354.875          44.100                          47.200
 121286847.525 7                  90571374.633 8  23080117.766
                  23080124.016          46.200                          50.600
 20  7  6  0 16 21.0000000  0 18G08G27R24G30G09R23R13G07R12G11G01G21
                                G16E27E14E13E30E15
 107743907.656 7  83956339.85748  80458154.259 8  20502987.555
  20502995.867    20502994.961          44.500          50.500          52.300
 115620620.404 6  90094027.94645  86340105.614 8  22001875.133
  22001882.922    22001882.078          39.600          31.900          48.200
 117872955.197 6  91678986.602 6                  22042832.977    22042834.035
  22042839.734                          38.600          38.500
 122819067.216 5  95703189.56845  91715552.316 7  23371683.727
  23371692.137    23371692.863          34.300          30.500          44.900
 131364152.196 5 102361678.17543  98096611.904 6  24997770.313
  24997779.719    24997781.324          30.500          21.700          39.400
 104031576.151 7  80913485.008 6                  19447603.586    19447602.738
  19447610.645                          45.800          40.400
 105620546.226 5  82149341.552 6                  19779338.734    19779337.016
  19779342.492                          33.800          40.700
 112511042.431 7  87670907.51547                  21410123.688
  21410129.770                          43.200          44.700
 106056339.153 7  82488310.692 7                  19853973.375    19853973.809
  19853978.539                          46.000          45.600
 107700620.462 7  83922532.70746                  20494730.203
  20494735.508                          44.200          36.800
 116865400.635 6  91064021.70046  87269686.999 8  22238754.086
  22238763.766    22238762.387          38.400          39.200          48.000
 130205886.556 5 101459159.65942                  24777358.750
  24777364.199                          30.500          14.800
 119995789.413 6  93503256.16843                  22834445.906
  22834451.211                          37.300          23.500
 122789960.613 7                  91693823.541 8  23366150.172
                  23366155.176          46.800                          51.000
 124320275.993 6                  92836597.884 7  23657361.383
                  23657366.016          40.500                          43.800
 131650313.713 7                  98310322.847 7  25052220.555
                  25052226.367          43.000                          46.300
 124920918.063 7                  93285117.068 7  23771661.602
                  23771667.590          44.100                          47.100
 121286840.119 7                  90571369.100 8  23080116.367
                  23080122.508          46.200                          51.000
 20  7  6  0 16 22.0000000  0 18G08G27R24G30G09R23R13G07R12G11G01G21
                                G16E27E14E13E30E15
 107744806.639 7  83957040.36248  80458825.570 8  20503159.094
  20503166.992    20503166.051          44.100          50.500          52.300
 115623133.882 6  90095986.50245  86341982.563 7  22002353.359
  22002361.258    22002360.375          39.500          30.400          47.900
 117869438.641 6  91676251.539 6                  22042175.617    22042176.645
  22042182.098                          38.800          38.900
 122816226.056 5  95700975.68245  91713430.648 7  23371142.875
  23371151.363    23371152.289          33.900          30.600          44.700
 131366667.241 5 102363637.91143  98098490.013 6  24998248.977
  24998258.391    24998260.012          30.500          22.200          39.200
 104030252.805 7  80912455.738 6                  19447356.234    19447355.676
  19447363.160                          45.600          40.400
 105618421.914 5  82147689.272 6                  19778939.758    19778939.379
  19778944.633                          34.200          40.800
 112509648.495 7  87669821.33147                  21409859.344
  21409864.488                          43.000          44.800
 106058142.915 7  82489713.597 7                  19854311.922    19854311.129
  19854316.223                          46.000          45.600
 107699048.468 7  83921307.77346                  20494431.680
  20494436.332                          44.000          37.100
 116861867.400 6  91061268.53846  87267048.537 8  22238081.625
  22238091.430    22238090.082          38.900          39.000          48.500
 130208951.60714 101461548.12152                  24777942.063
  24777947.281                          29.900          14.800
 119998110.225 6  93505064.59444                  22834887.172
  22834892.773                          37.400          25.000
 122789250.603 7                  91693293.333 8  23366014.984
                  23366020.055          47.000                          50.800
 124314492.054 6                  92832278.719 7  23656260.523
                  23656265.316          40.700                          44.000
 131647829.697 7                  98308467.911 7  25051747.922
                  25051753.566          43.100                          46.600
 124922561.217 7                  93286344.097 7  23771974.508
                  23771980.117          43.800                          47.100
 121286833.176 7                  90571363.913 8  23080115.063
                  23080121.313          45.900                          51.300
 20  7  6  0 16 23.0000000  0 18G08G27R24G30G09R23R13G07R12G11G01G21
                                G16E27E14E13E30E15
 107745705.946 7  83957741.12448  80459497.132 8  20503330.266
  20503338.117    20503337.215          44.400          50.500          52.400
 115625647.529 6  90097945.17945  86343859.636 8  22002831.891
  22002839.395    22002838.789          39.200          31.100          48.300
 117865922.550 6  91673516.776 6                  22041518.898    22041519.059
  22041524.566                          38.700          38.600
 122813385.221 5  95698762.05345  91711309.229 7  23370603.031
  23370610.754    23370611.586          34.000          31.100          44.600
 131369182.349 5 102365597.76343  98100368.176 6  24998727.836
  24998737.051    24998738.566          30.500          22.600          39.200
 104028930.198 7  80911427.038 6                  19447108.445    19447108.238
  19447115.805                          45.400          40.700
 105616298.169 5  82146037.485 6                  19778542.609    19778541.762
  19778546.742                          34.100          41.200
 112508255.141 7  87668735.60247                  21409593.961
  21409599.379                          43.100          44.900
 106059947.368 7  82491117.071 7                  19854648.938    19854649.129
  19854653.938                          46.200          45.900
 107697477.007 7  83920083.26146                  20494132.328
  20494137.285                          44.300          36.500
 116858334.488 6  91058515.61346  87264410.329 8  22237410.055
  22237418.992    22237417.621          39.000          39.400          48.100
 130212015.804 5 101463935.67442                  24778525.242
  24778530.418                          30.500          14.800
 120000431.262 6  93506873.18144                  22835329.016
  22835334.496                          37.400          24.000
 122788540.855 7                  91692763.326 8  23365879.922
                  23365884.926          46.400                          50.500
 124308708.159 6                  92827959.559 7  23655159.711
                  23655164.777          41.200                          44.200
 131645345.965 7                  98306613.182 7  25051275.133
                  25051280.875          43.300                          46.800
 124924204.633 7                  93287571.341 7  23772287.164
                  23772292.820          44.000                          46.800
 121286826.660 7                  90571359.052 8  23080113.859
                  23080120.035          46.200                          50.900
 20  7  6  0 16 24.0000000  0 18G08G27R24G30G09R23R13G07R12G11G01G21
                                G16E27E14E13E30E15
 107746605.581 7  83958442.13548  80460168.941 8  20503501.023
  20503509.328    20503508.449          44.200          50.500          52.700
 115628161.338 6  90099903.99445  86345736.816 8  22003309.719
  22003317.824    22003316.922          39.600          31.200          48.200
 117862406.870 6  91670782.363 6                  22040860.984    22040861.645
  22040867.070                          38.300          38.700
 122810544.718 5  95696548.67445  91709188.103 7  23370062.555
  23370070.184    23370071.180          34.600          30.900          44.600
 131371697.498 4 102367557.60543  98102246.371 6  24999206.188
  24999215.688    24999217.109          29.900          22.300          38.800
 104027608.348 7  80910398.943 6                  19446861.570    19446861.398
  19446868.848                          45.700          40.200
 105614174.914 5  82144386.082 6                  19778145.359    19778144.148
  19778149.211                          34.500          41.300
 112506862.400 7  87667650.35547                  21409328.844
  21409334.449                          43.000          44.600
 106061752.535 7  82492521.085 7                  19854988.000    19854987.109
  19854991.824                          46.300          45.800
 107695906.089 7  83918859.16846                  20493833.617
  20493838.461                          44.300          37.100
 116854801.896 6  91055762.94946  87261772.372 8  22236737.047
  22236746.676    22236745.453          38.800          39.000          48.200
 130215080.652 5 101466323.88642                  24779108.930
  24779113.570                          31.000          14.800
 120002752.512 6  93508681.95844                  22835771.492
  22835776.141                          37.600          24.700
 122787831.350 7                  91692233.522 8  23365745.047
                  23365750.004          46.800                          50.600
 124302924.328 6                  92823640.472 7  23654059.258
                  23654064.090          41.100                          44.400
 131642862.553 7                  98304758.663 7  25050802.578
                  25050808.391          42.700                          46.800
 124925848.312 7                  93288798.749 7  23772599.734
                  23772605.664          43.800                          47.000
 121286820.614 7                  90571354.523 8  23080112.555
                  23080118.809          46.300                          51.200
 20  7  6  0 16 25.0000000  0 18G08G27R24G30G09R23R13G07R12G11G01G21
                                G16E27E14E13E30E15
 107747505.563 7  83959143.42148  80460840.991 8  20503672.289
  20503680.586    20503679.734          44.300          50.500          52.700
 115630675.229 6  90101862.86445  86347614.100 8  22003788.008
  22003796.285    22003795.496          39.800          31.700          48.100
 117858891.571 6  91668048.226 6                  22040204.328    22040204.402
  22040209.879                          38.800          38.800
 122807704.601 5  95694335.59445  91707067.247 7  23369521.703
  23369529.785    23369530.605          34.600          31.600          44.600
 131374212.675 4 102369517.45343  98104124.543 6  24999684.828
  24999694.297    24999695.434          29.900          21.700          38.800
 104026287.214 7  80909371.387 6                  19446614.547    19446614.340
  19446621.941                          45.600          40.400
 105612052.279 5  82142735.112 6                  19777747.203    19777745.965
  19777751.691                          34.100          41.200
 112505470.255 7  87666565.56647                  21409063.766
  21409069.559                          42.600          44.600
 106063558.357 7  82493925.619 7                  19855325.875    19855325.000
  19855329.973                          45.800          45.900
 107694335.682 7  83917635.47146                  20493534.641
  20493539.496                          44.500          37.000
 116851269.627 6  91053010.53646  87259134.632 8  22236065.328
  22236074.629    22236073.438          38.700          39.200          48.000
 130218145.694 4 101468712.28342                  24779692.063
  24779696.754                          29.400          14.800
 120005073.923 6  93510490.84343                  22836212.750
  22836218.066                          37.700          23.600
 122787122.112 7                  91691703.876 8  23365610.078
                  23365615.152          47.100                          50.800
 124297140.491 6                  92819321.376 7  23652958.609
                  23652963.438          41.200                          44.100
 131640379.367 7                  98302904.351 7  25050330.164
                  25050335.906          42.700                          46.100
 124927492.236 7                  93290026.351 7  23772912.539
                  23772918.508          44.000                          46.800
 121286814.984 7                  90571350.325 8  23080111.656
                  23080117.773          45.900                          50.900
 20  7  6  0 16 26.0000000  0 18G08G27R24G30G09R23R13G07R12G11G01G21
                                G16E27E14E13E30E15
 107748405.831 7  83959844.93448  80461513.281 8  20503843.852
  20503851.824    20503850.945          44.500          50.500          52.800
 115633189.318 6  90103821.89845  86349491.490 8  22004266.008
  22004274.746    22004273.863          39.600          32.300          48.100
 117855376.665 6  91665314.430 6                  22039546.055    22039546.520
  22039552.453                          38.400          38.700
 122804864.891 5  95692122.83045  91704946.661 7  23368980.695
  23368989.484    23368990.160          34.500          31.300          44.700
 131376727.844 4 102371477.33943  98106002.812 6  25000164.758
  25000173.145    25000174.184          29.900          22.800          38.400
 104024966.823 7  80908344.421 6                  19446368.422    19446367.348
  19446375.105                          45.600          40.400
 105609930.145 5  82141084.582 6                  19777351.453    19777348.957
  19777354.242                          33.600          41.200
 112504078.707 7  87665481.23947                  21408798.797
  21408804.590                          42.700          45.000
 106065364.825 7  82495330.633 7                  19855663.430    19855663.250
  19855668.082                          45.700          45.700
 107692765.829 7  83916412.20746                  20493235.570
  20493240.875                          44.400          36.900
 116847737.730 6  91050258.40246  87256497.158 7  22235393.156
  22235402.512    22235401.129          38.000          39.200          47.800
 130221210.951 5 101471100.81642                  24780275.516
  24780280.270                          30.100          15.600
 120007395.565 6  93512299.93144                  22836655.125
  22836659.828                          37.900          24.600
 122786413.113 7                  91691174.430 8  23365475.102
                  23365480.148          46.900                          51.000
 124291356.736 6                  92815002.349 7  23651857.961
                  23651862.699          40.900                          43.800
 131637896.467 7                  98301050.241 7  25049857.578
                  25049863.516          42.900                          46.200
 124929136.411 7                  93291254.141 7  23773225.094
                  23773231.254          44.000                          47.100
 121286809.810 7                  90571346.458 8  23080110.563
                  23080116.828          45.900                          50.800
 20  7  6  0 16 27.0000000  0 18G08G27R24G30G09R23R13G07R12G11G01G21
                                G16E27E14E13E30E15
 107749306.387 7  83960546.65948  80462185.777 8  20504015.273
  20504023.141    20504022.324          44.900          50.500          52.900
 115635703.498 6  90105780.99845  86351368.962 8  22004745.422
  22004753.254    22004752.184          39.900          31.700          48.400
 117851862.153 6  91662580.913 6                  22038889.352    22038889.656
  22038895.258                          38.600          39.000
 122802025.485 5  95689910.29245  91702826.332 7  23368440.383
  23368449.238    23368449.832          33.600          31.800          44.600
 131379243.061 5 102373437.25343  98107881.029 6  25000643.609
  25000651.910    25000652.867          30.800          23.000          38.600
 104023647.125 7  80907317.986 6                  19446121.398    19446120.777
  19446128.215                          46.000          40.600
 105607808.560 5  82139434.491 6                  19776954.789    19776951.652
  19776957.043                          32.800          41.300
 112502687.745 7  87664397.37247                  21408533.719
  21408539.945                          43.400          44.600
 106067171.888 7  82496736.137 7                  19856002.617    19856001.441
  19856006.324                          45.600          46.000
 107691196.472 7  83915189.33646                  20492936.984
  20492942.180                          44.500          36.900
 116844206.064 6  91047506.46146  87253859.888 7  22234721.469
  22234730.574    22234729.125          38.800          39.200          47.800
 130224276.292 5 101473489.35442                  24780858.281
  24780863.641                          30.800          16.300
 120009717.371 6  93514109.12544                  22837096.555
  22837101.477                          37.500          24.000
 122785704.333 7                  91690645.145 8  23365340.164
                  23365345.285          46.800                          51.000
 124285572.959 6                  92810683.279 7  23650757.570
                  23650762.258          40.800                          44.000
 131635413.802 7                  98299196.309 7  25049385.398
                  25049390.965          43.400                          46.300
 124930780.802 7                  93292482.105 7  23773538.281
                  23773544.172          44.100                          47.000
 121286805.028 7                  90571342.895 8  23080109.773
                  23080115.969          46.200                          50.900
 20  7  6  0 16 28.0000000  0 18G08G27R24G30G09R23R13G07R12G11G01G21
                                G16E27E14E13E30E15
 107750207.224 7  83961248.60748  80462858.474 8  20504186.484
  20504194.633    20504193.789          44.600          50.400          52.300
 115638217.804 6  90107740.20445  86353246.529 8  22005223.336
  22005231.863    22005230.629          39.800          32.000          48.200
 117848348.010 6  91659847.685 6                  22038232.453    22038232.789
  22038238.176                          38.600          39.300
 122799186.424 5  95687698.04845  91700706.269 7  23367900.867
  23367908.988    23367909.609          33.300          31.600          44.300
 131381758.275 5 102375397.19243  98109759.299 6  25001120.102
  25001130.637    25001131.441          30.100          22.600          38.400
 104022328.120 7  80906292.104 6                  19445875.547    19445874.344
  19445881.465                          46.000          40.900
 105605687.503 5  82137784.762 6                  19776555.859    19776554.555
  19776559.941                          33.400          41.400
 112501297.326 7  87663313.92947                  21408269.867
  21408275.469                          42.900          44.600
 106068979.629 7  82498142.151 7                  19856341.070    19856339.688
  19856344.590                          45.300          46.200
 107689627.606 7  83913966.84546                  20492638.453
  20492643.836                          44.500          37.200
 116840674.742 6  91044754.78446  87251222.852 7  22234049.148
  22234058.465    22234057.215          39.200          39.300          47.700
 130227341.789 4 101475878.03642                  24781441.758
  24781446.789                          29.400          16.300
 120012039.344 6  93515918.44643                  22837538.297
  22837543.465                          37.600          23.500
 122784995.801 7                  91690116.049 8  23365205.367
                  23365210.426          47.100                          51.000
 124279789.217 6                  92806364.251 7  23649656.633
                  23649661.563          40.700                          43.800
 131632931.416 7                  98297342.561 7  25048913.016
                  25048918.469          42.700                          45.900
 124932425.432 7                  93293710.233 7  23773851.258
                  23773857.117          44.400                          47.000
 121286800.679 7                  90571339.651 8  23080108.922
                  23080115.074          46.200                          51.000
 20  7  6  0 16 29.0000000  0 18G08G27R24G30G09R23R13G07R12G11G01G21
                                G16E27E14E13E30E15
 107751108.428 7  83961950.84648  80463531.457 8  20504357.930
  20504366.156    20504365.246          44.700          50.300          52.200
 115640732.311 6  90109699.55345  86355124.233 8  22005702.078
  22005710.125    22005709.273          39.900          31.500          48.000
 117844834.375 6  91657114.848 6                  22037574.945    22037575.578
  22037581.023                          38.600          38.600
 122796347.761 5  95685486.09645  91698586.507 7  23367360.234
  23367368.691    23367369.242          33.500          31.600          44.300
 131384273.576 5 102377357.12943  98111637.594 6  25001599.336
  25001609.293    25001610.074          31.200          22.300          38.100
 104021009.898 7  80905266.817 6                  19445629.188    19445627.648
  19445635.203                          45.900          40.700
 105603567.015 5  82136135.511 6                  19776158.703    19776157.531
  19776162.789                          33.700          40.800
 112499907.573 7  87662231.00047                  21408005.156
  21408011.043                          42.900          44.400
 106070788.072 7  82499548.724 7                  19856678.422    19856678.070
  19856683.156                          45.500          45.200
 107688059.330 7  83912744.81346                  20492340.047
  20492345.199                          44.200          36.800
 116837143.773 6  91042003.38346  87248586.104 7  22233377.164
  22233386.563    22233385.344          39.400          39.000          47.600
 130230407.584 5 101478266.99142                  24782024.883
  24782030.262                          31.200          16.900
 120014361.567 6  93517727.98143                  22837979.914
  22837985.266                          37.500          22.500
 122784287.554 7                  91689587.161 8  23365070.500
                  23365075.645          46.600                          50.800
 124274005.559 6                  92802045.299 7  23648555.898
                  23648561.063          40.200                          43.900
 131630449.340 7                  98295489.063 7  25048440.594
                  25048446.059          43.300                          46.100
 124934070.359 7                  93294938.597 7  23774164.500
                  23774170.211          44.000                          47.300
 121286796.817 7                  90571336.760 8  23080108.164
                  23080114.309          45.800                          51.200
 20  7  6  0 16 30.0000000  0 18G08G27R24G30G09R23R13G07R12G11G01G21
                                G16E27E14E13E30E15
 107752009.932 7  83962653.31748  80464204.642 8  20504529.797
  20504537.723    20504536.828          45.100          50.500          52.200
 115643246.892 6  90111658.95945  86357002.025 8  22006180.656
  22006188.555    22006187.785          39.900          31.800          48.100
 117841321.029 6  91654382.302 6                  22036917.555    22036918.395
  22036923.914                          38.900          39.400
 122793509.469 5  95683274.43745  91696466.983 7  23366820.148
  23366828.730    23366829.176          33.900          31.400          44.300
 131386788.809 5 102379317.04343  98113515.911 6  25002078.117
  25002087.824    25002088.496          31.000          23.600          38.300
 104019692.324 7  80904242.032 6                  19445382.734    19445381.602
  19445388.805                          46.100          40.900
 105601447.116 5  82134486.654 6                  19775760.742    19775760.762
  19775765.719                          33.300          41.200
 112498518.371 7  87661148.51247                  21407740.414
  21407746.684                          42.400          44.700
 106072597.134 7  82500955.763 7                  19857017.695    19857016.809
  19857021.848                          45.700          45.700
 107686491.534 7  83911523.15146                  20492041.898
  20492046.898                          44.100          37.100
 116833613.088 6  91039252.20546  87245949.545 8  22232705.180
  22232714.730    22232713.238          39.100          39.900          48.000
 130233473.489 5 101480655.97342                  24782608.352
  24782613.625                          30.800          16.300
 120016683.964 6  93519537.61743                  22838422.000
  22838427.199                          36.800          23.300
 122783579.502 7                  91689058.438 8  23364935.945
                  23364940.973          46.800                          50.500
 124268221.911 6                  92797726.323 7  23647455.414
                  23647460.496          40.200                          43.800
 131627967.483 7                  98293635.733 7  25047968.266
                  25047973.949          43.100                          46.200
 124935715.496 7                  93296167.102 7  23774477.477
                  23774483.160          43.600                          47.200
 121286793.351 7                  90571334.174 8  23080107.523
                  23080113.629          45.800                          51.200
 20  7  6  0 16 31.0000000  0 18G08G27R24G30G09R23R13G07R12G11G01G21
                                G16E27E14E13E30E15
 107752911.749 7  83963356.03448  80464878.091 8  20504701.078
  20504709.332    20504708.426          44.900          50.500          52.500
 115645761.658 6  90113618.52345  86358879.929 8  22006659.367
  22006667.074    22006666.367          40.000          32.300          48.200
 117837808.156 6  91651650.041 6                  22036261.672    22036261.809
  22036266.957                          39.000          39.100
 122790671.544 5  95681063.07145  91694347.761 7  23366279.555
  23366288.496    23366289.129          33.700          31.100          44.500
 131389304.221 5 102381277.10443  98115394.246 6  25002557.070
  25002566.660    25002567.480          30.800          22.600          38.100
 104018375.532 7  80903217.855 6                  19445136.109    19445135.293
  19445142.688                          46.000          40.700
 105599327.705 5  82132838.210 6                  19775364.055    19775363.734
  19775368.852                          33.300          41.200
 112497129.774 7  87660066.49247                  21407476.695
  21407482.418                          42.200          44.900
 106074406.873 7  82502363.338 7                  19857357.117    19857355.684
  19857360.738                          45.600          46.100
 107684924.280 7  83910301.91246                  20491743.609
  20491748.629                          44.100          36.900
 116830082.738 6  91036501.27846  87243313.248 8  22232033.547
  22232042.832    22232041.633          39.400          38.900          48.200
 130236539.57214 101483045.12952                  24783191.867
  24783197.094                          29.600          16.300
 120019006.538 6  93521347.42243                  22838863.945
  22838869.328                          37.100          23.500
 122782871.730 7                  91688529.895 8  23364801.133
                  23364806.305          46.600                          50.300
 124262438.293 6                  92793407.408 7  23646354.875
                  23646359.984          39.800                          44.000
 131625485.933 7                  98291782.626 7  25047495.813
                  25047501.750          43.300                          45.900
 124937360.910 7                  93297395.821 7  23774790.656
                  23774796.379          43.600                          46.800
 121286790.335 7                  90571331.922 8  23080106.773
                  23080113.066          45.800                          51.300
 20  7  6  0 16 32.0000000  0 18G08G27R24G30G09R23R13G07R12G11G01G21
                                G16E27E14E13E30E15
 107753813.909 7  83964059.01148  80465551.771 8  20504873.156
  20504881.078    20504880.156          45.100          50.500          52.600
 115648276.564 6  90115578.19745  86360757.934 7  22007137.523
  22007145.664    22007144.789          40.300          32.100          47.900
 117834295.659 6  91648918.093 6                  22035605.039    22035605.242
  22035610.008                          39.200          39.300
 122787833.984 5  95678851.97945  91692228.803 7  23365739.953
  23365748.578    23365749.227          33.700          31.400          44.600
 131391819.568 4 102383237.12344  98117272.610 6  25003036.492
  25003045.230    25003046.316          29.600          24.000          37.900
 104017059.460 7  80902194.239 6                  19444890.047    19444888.969
  19444896.664                          46.300          40.400
 105597208.813 5  82131190.220 6                  19774968.023    19774966.957
  19774971.965                          33.100          41.300
 112495741.773 7  87658984.92847                  21407212.859
  21407218.262                          42.500          44.600
 106076217.285 7  82503771.426 7                  19857695.766    19857694.836
  19857699.691                          45.200          45.900
 107683357.572 7  83909081.09746                  20491445.180
  20491450.555                          43.900          37.100
 116826552.725 6  91033750.62646  87240677.214 8  22231361.891
  22231371.090    22231369.887          39.400          39.700          48.200
 130239605.859 5 101485434.50042                  24783775.727
  24783780.617                          30.100          15.600
 120021329.344 6  93523157.38943                  22839306.156
  22839311.426                          37.500          22.900
 122782164.222 7                  91688001.574 8  23364666.383
                  23364671.523          46.700                          50.300
 124256654.725 6                  92789088.498 7  23645254.547
                  23645259.316          40.200                          43.700
 131623004.641 7                  98289929.720 7  25047023.813
                  25047029.453          43.000                          45.900
 124939006.591 7                  93298624.715 7  23775103.805
                  23775109.469          43.700                          47.000
 121286787.775 7                  90571330.009 8  23080106.422
                  23080112.602          45.800                          51.200
 20  7  6  0 16 33.0000000  0 18G08G27R24G30G09R23R13G07R12G11G01G21
                                G16E27E14E13E30E15
 107754716.395 7  83964762.24648  80466225.701 8  20505044.758
  20505052.832    20505051.797          45.100          50.500          52.700
 115650791.609 6  90117537.96145  86362636.070 8  22007616.625
  22007624.234    22007623.535          40.400          32.300          48.200
 117830783.629 6  91646186.528 6                  22034948.586    22034948.082
  22034953.367                          39.000          38.800
 122784996.841 5  95676641.22145  91690110.129 7  23365200.484
  23365208.758    23365209.086          33.700          31.900          44.700
 131394335.038 4 102385197.20543  98119150.996 6  25003515.000
  25003523.820    25003525.223          29.600          22.000          38.700
 104015744.122 7  80901171.216 6                  19444644.320    19444643.379
  19444650.758                          46.000          40.400
 105595090.503 5  82129542.656 6                  19774571.922    19774570.203
  19774575.254                          33.500          41.100
 112494354.411 7  87657903.86747                  21406948.656
  21406954.211                          42.600          44.600
 106078028.336 7  82505180.017 7                  19858034.820    19858033.863
  19858038.820                          45.200          46.200
 107681791.390 7  83907860.69646                  20491147.117
  20491152.309                          44.100          37.000
 116823023.050 6  91031000.22346  87238041.413 8  22230690.523
  22230699.258    22230698.289          39.400          39.600          48.200
 130242672.315 5 101487823.92842                  24784359.086
  24784364.008                          30.500          16.300
 120023652.361 6  93524967.54944                  22839747.977
  22839753.508                          37.300          24.300
 122781456.982 7                  91687473.420 8  23364531.953
                  23364537.004          47.100                          50.600
 124250871.217 6                  92784769.649 7  23644153.852
                  23644158.840          40.100                          44.000
 131620523.656 7                  98288077.024 7  25046551.648
                  25046557.348          42.800                          46.000
 124940652.494 7                  93299853.823 7  23775417.000
                  23775422.820          43.500                          47.000
 121286785.662 7                  90571328.433 8  23080105.984
                  23080112.191          46.200                          51.000
 20  7  6  0 16 34.0000000  0 18G08G27R24G30G09R23R13G07R12G11G01G21
                                G16E27E14E13E30E15
 107755619.174 7  83965465.70648  80466899.865 8  20505216.828
  20505224.496    20505223.621          45.300          50.500          52.300
 115653306.793 6  90119497.85045  86364514.279 8  22008094.953
  22008102.973    22008102.105          40.600          32.600          48.100
 117827271.946 6  91643455.222 6                  22034291.734    22034291.652
  22034296.691                          38.900          39.200
 122782160.002 5  95674430.69245  91687991.722 7  23364660.164
  23364668.949    23364669.250          34.500          32.000          44.700
 131396850.434 5 102387157.28243  98121029.417 6  25003993.680
  25004002.254    25004003.840          30.100          22.600          38.700
 104014429.515 7  80900148.737 6                  19444398.969    19444397.738
  19444405.047                          46.400          40.900
 105592972.727 5  82127895.503 6                  19774174.906    19774173.676
  19774178.789                          33.500          41.800
 112492967.599 7  87656823.23147                  21406684.555
  21406690.371                          42.700          44.700
 106079840.036 7  82506589.131 7                  19858373.391    19858373.094
  19858377.949                          45.300          46.200
 107680225.724 7  83906640.69346                  20490849.688
  20490854.441                          43.900          37.100
 116819493.672 6  91028250.06346  87235405.843 8  22230018.609
  22230027.621    22230026.563          39.200          39.800          48.000
 130245738.916 5 101490213.50842                  24784943.438
  24784947.594                          30.500          15.600
 120025975.538 6  93526777.79843                  22840190.188
  22840195.645                          37.800          22.900
 122780749.946 7                  91686945.455 8  23364397.289
                  23364402.379          46.800                          50.200
 124245087.731 6                  92780450.805 7  23643053.141
                  23643058.500          40.300                          43.900
 131618042.905 7                  98286224.532 7  25046079.430
                  25046085.449          42.600                          46.200
 124942298.652 7                  93301083.096 7  23775729.961
                  23775735.984          43.700                          47.000
 121286783.965 7                  90571327.161 8  23080105.766
                  23080111.852          46.500                          51.200
 20  7  6  0 16 35.0000000  0 18G08G27R24G30G09R23R13G07R12G11G01G21
                                G16E27E14E13E30E15
 107756522.297 7  83966169.44448  80467574.268 8  20505388.273
  20505396.410    20505395.465          45.300          50.400          52.400
 115655822.138 6  90121457.86045  86366392.619 8  22008573.719
  22008581.688    22008580.934          40.200          32.100          48.000
 117823760.703 6  91640724.247 6                  22033634.578    22033635.152
  22033640.168                          39.300          39.300
 122779323.587 5  95672220.50145  91685873.615 7  23364121.086
  23364129.121    23364129.574          34.600          32.300          44.700
 131399365.877 5 102389117.36343  98122907.864 6  25004471.953
  25004480.965    25004482.633          30.100          22.600          38.700
 104013115.662 7  80899126.850 6                  19444152.398    19444152.121
  19444159.359                          46.500          41.000
 105590855.568 5  82126248.787 6                  19773777.750    19773777.445
  19773782.238                          33.500          41.800
 112491581.392 7  87655743.07647                  21406420.781
  21406426.648                          42.900          44.600
 106081652.440 7  82507998.771 7                  19858712.656    19858712.250
  19858717.273                          45.000          46.300
 107678660.604 7  83905421.11546                  20490551.648
  20490556.559                          44.000          37.500
 116815964.642 6  91025500.16346  87232770.527 8  22229347.070
  22229356.027    22229355.000          39.400          39.300          48.000
 130248805.716 5 101492603.21642                  24785527.242
  24785531.145                          30.100          14.800
 120028298.948 6  93528588.25043                  22840632.625
  22840637.777                          37.700          22.500
 122780043.217 7                  91686417.685 8  23364262.953
                  23364268.000          46.700                          50.600
 124239304.293 6                  92776132.023 7  23641952.570
                  23641957.961          40.700                          43.700
 131615562.477 7                  98284372.244 7  25045607.563
                  25045613.266          42.300                          46.200
 124943945.095 7                  93302312.574 7  23776043.664
                  23776049.258          43.700                          47.200
 121286782.738 7                  90571326.241 8  23080105.477
                  23080111.637          46.500                          51.100
 20  7  6  0 16 36.0000000  0 18G08G27R24G30G09R23R13G07R12G11G01G21
                                G16E27E14E13E30E15
 107757425.764 7  83966873.44448  80468248.948 8  20505560.133
  20505568.262    20505567.328          45.400          50.300          52.400
 115658337.656 6  90123417.99745  86368271.076 8  22009052.281
  22009060.387    22009059.598          39.900          31.700          48.100
 117820249.914 6  91637993.612 6                  22032977.969    22032978.508
  22032983.594                          39.000          38.700
 122776487.532 5  95670010.58745  91683755.794 7  23363580.547
  23363589.227    23363589.855          33.900          32.000          44.500
 131401881.396 5 102391077.49343  98124786.363 6  25004951.055
  25004959.547    25004961.602          30.500          23.200          38.600
 104011802.579 7  80898105.555 6                  19443907.109    19443906.672
  19443913.887                          46.400          41.300
 105588738.905 5  82124602.528 6                  19773382.805    19773380.883
  19773386.012                          33.600          41.400
 112490195.828 7  87654663.41247                  21406157.289
  21406162.809                          42.800          44.600
 106083465.514 7  82509408.947 7                  19859052.258    19859051.762
  19859056.746                          45.000          46.100
 107677096.052 7  83904201.98746                  20490254.039
  20490258.941                          44.100          37.000
 116812435.932 6  91022750.52946  87230135.465 8  22228675.898
  22228684.617    22228683.512          39.700          39.600          48.100
 130251872.761 5 101494993.05742                  24786110.625
  24786114.762                          30.500          15.600
 120030622.605 6  93530398.90743                  22841074.391
  22841079.926                          37.400          23.900
 122779336.747 7                  91685890.126 8  23364128.305
                  23364133.539          46.100                          51.000
 124233520.941 6                  92771813.267 7  23640852.039
                  23640857.359          40.700                          44.000
 131613082.344 7                  98282520.200 7  25045135.711
                  25045141.305          42.100                          46.400
 124945591.798 7                  93303542.256 7  23776357.078
                  23776362.609          44.100                          47.100
 121286781.969 7                  90571325.678 8  23080105.461
                  23080111.539          46.700                          51.300
 20  7  6  0 16 37.0000000  0 18G08G27R24G30G09R23R13G07R12G11G01G21
                                G16E27E14E13E30E15
 107758329.515 7  83967577.65848  80468923.804 8  20505732.578
  20505740.336    20505739.363          45.400          50.400          52.300
 115660853.244 6  90125378.19345  86370149.609 8  22009531.523
  22009539.234    22009538.289          39.900          31.600          48.200
 117816739.442 6  91635263.254 6                  22032321.508    22032322.125
  22032327.047                          38.900          38.900
 122773651.812 5  95667800.93445  91681638.218 7  23363041.398
  23363049.715    23363050.250          34.300          32.400          44.400
 131404396.949 5 102393037.67643  98126664.815 6  25005429.289
  25005438.316    25005440.367          30.500          22.600          38.600
 104010490.160 7  80897084.796 6                  19443662.039    19443661.180
  19443668.574                          46.400          40.700
 105586622.788 5  82122956.658 6                  19772986.008    19772984.586
  19772989.742                          33.800          41.200
 112488810.806 7  87653584.17347                  21405894.188
  21405899.293                          43.200          44.500
 106085279.195 7  82510819.591 7                  19859392.500    19859391.281
  19859396.203                          45.100          46.100
 107675531.962 7  83902983.22046                  20489956.000
  20489961.352                          44.000          36.700
 116808907.552 6  91020001.14246  87227500.628 8  22228004.586
  22228013.172    22228012.230          39.200          39.400          48.000
 130254939.919 5 101497383.04542                  24786694.953
  24786698.324                          30.700          15.600
 120032946.391 6  93532209.63344                  22841516.367
  22841522.211                          37.800          24.700
 122778630.478 7                  91685362.726 8  23363994.008
                  23363999.164          46.600                          50.900
 124227737.585 6                  92767494.517 7  23639751.656
                  23639756.832          40.900                          43.900
 131610602.414 6                  98280668.311 7  25044663.703
                  25044669.531          41.700                          46.100
 124947238.716 7                  93304772.098 7  23776670.289
                  23776675.867          44.000                          47.200
 121286781.576 7                  90571325.384 8  23080105.352
                  23080111.477          46.500                          51.300
 20  7  6  0 16 38.0000000  0 18G08G27R24G30G09R23R13G07R12G11G01G21
                                G16E27E14E13E30E15
 107759233.574 7  83968282.12648  80469598.922 8  20505904.625
  20505912.313    20505911.523          45.500          50.400          52.400
 115663369.005 6  90127338.53145  86372028.263 8  22010009.453
  22010017.738    22010017.051          39.800          31.400          48.200
 117813229.392 6  91632533.214 6                  22031666.336    22031665.488
  22031670.691                          38.900          38.500
 122770816.477 5  95665591.58845  91679520.907 7  23362501.633
  23362510.332    23362510.508          34.300          31.400          44.300
 131406912.568 4 102394997.89544  98128543.329 6  25005908.078
  25005916.934    25005918.785          29.600          24.500          38.100
 104009178.486 7  80896064.594 6                  19443417.031    19443415.676
  19443423.480                          46.700          40.400
 105584507.204 5  82121311.197 6                  19772591.055    19772588.500
  19772593.621                          33.400          41.500
 112487426.378 7  87652505.40147                  21405630.391
  21405636.043                          43.000          44.600
 106087093.567 7  82512230.757 7                  19859731.766    19859730.703
  19859735.934                          45.100          45.900
 107673968.425 7  83901764.87946                  20489658.766
  20489663.785                          43.800          37.100
 116805379.482 6  91017251.99046  87224866.040 8  22227332.539
  22227341.637    22227340.676          39.200          39.200          48.000
 130258007.241 5 101499773.20742                  24787277.906
  24787282.156                          30.700          16.300
 120035270.357 6  93534020.50743                  22841958.102
  22841964.340                          38.300          22.500
 122777924.460 7                  91684835.506 8  23363859.727
                  23363864.797          46.500                          50.500
 124221954.225 6                  92763175.806 7  23638651.164
                  23638656.332          41.000                          43.800
 131608122.759 6                  98278816.622 7  25044191.594
                  25044197.645          41.900                          46.400
 124948885.895 7                  93306002.124 7  23776983.789
                  23776989.441          44.200                          46.800
 121286781.666 7                  90571325.442 8  23080105.242
                  23080111.543          46.800                          51.500
 20  7  6  0 16 39.0000000  0 18G08G27R24G30G09R23R13G07R12G11G01G21
                                G16E27E14E13E30E15
 107760137.971 7  83968986.84748  80470274.287 8  20506076.828
  20506084.391    20506083.508          45.300          50.000          52.200
 115665884.933 6  90129298.99345  86373907.037 7  22010488.156
  22010496.469    22010495.754          39.900          30.900          47.900
 117809719.789 6  91629803.539 6                  22031009.695    22031009.082
  22031014.434                          38.900          38.400
 122767981.499 5  95663382.52245  91677403.895 7  23361962.258
  23361970.957    23361971.016          34.300          31.200          44.100
 131409428.182 5 102396958.12043  98130421.875 6  25006387.055
  25006395.566    25006397.590          30.100          22.800          37.800
 104007867.528 7  80895044.971 6                  19443172.000    19443171.035
  19443178.383                          46.500          40.300
 105582392.194 5  82119666.201 6                  19772194.648    19772192.512
  19772197.523                          33.500          41.100
 112486042.583 7  87651427.11847                  21405367.102
  21405372.488                          43.200          44.100
 106088908.624 7  82513642.473 7                  19860071.563    19860070.578
  19860075.598                          45.100          45.100
 107672405.444 7  83900546.97246                  20489361.578
  20489366.371                          43.700          36.700
 116801851.773 6  91014503.13546  87222231.707 7  22226661.391
  22226670.348    22226669.520          38.500          38.600          47.800
 130261074.787 5 101502163.46142                  24787861.320
  24787865.824                          30.500          15.600
 120037594.569 6  93535831.59243                  22842401.109
  22842406.746                          37.800          22.900
 122777218.728 7                  91684308.491 8  23363725.203
                  23363730.516          46.700                          50.300
 124216170.978 6                  92758857.136 7  23637550.633
                  23637556.063          40.600                          43.600
 131605643.421 7                  98276965.179 7  25043720.227
                  25043725.930          42.200                          46.600
 124950533.331 7                  93307232.365 7  23777297.156
                  23777302.992          43.900                          47.000
 121286782.187 7                  90571325.835 8  23080105.336
                  23080111.551          47.200                          51.700
 20  7  6  0 16 40.0000000  0 18G08G27R24G30G09R23R13G07R12G11G01G21
                                G16E27E14E13E30E15
 107761042.673 7  83969691.80948  80470949.870 8  20506248.703
  20506256.656    20506255.715          45.500          50.400          52.200
 115668400.961 6  90131259.52745  86375785.896 8  22010967.516
  22010975.281    22010974.648          40.200          31.400          48.300
 117806210.596 6  91627074.144 6                  22030352.789    22030352.848
  22030358.273                          38.500          38.100
 122765146.892 5  95661173.74045  91675287.150 7  23361423.211
  23361431.527    23361431.641          34.400          31.200          43.900
 131411943.823 5 102398918.36144  98132300.440 6  25006865.648
  25006874.273    25006876.133          30.100          24.500          38.300
 104006557.287 7  80894025.895 6                  19442926.992    19442925.828
  19442933.547                          46.700          40.600
 105580277.772 5  82118021.596 6                  19771799.320    19771796.230
  19771801.578                          33.500          41.300
 112484659.366 7  87650349.28747                  21405103.891
  21405109.270                          43.000          44.600
 106090724.310 7  82515054.669 7                  19860411.250    19860410.445
  19860415.430                          45.300          45.700
 107670842.968 7  83899329.45346                  20489064.234
  20489068.883                          43.900          36.800
 116798324.369 6  91011754.50546  87219597.598 7  22225989.656
  22225999.004    22225998.199          38.700          38.900          47.700
 130264142.98215 101504554.33352                  24788445.297
  24788449.688                          30.300          14.800
 120039918.951 6  93537642.81443                  22842843.141
  22842849.031                          37.900          23.600
 122776513.222 7                  91683781.660 8  23363590.938
                  23363596.172          46.700                          50.500
 124210387.741 6                  92754538.493 7  23636450.148
                  23636455.473          40.400                          43.600
 131603164.337 7                  98275113.912 7  25043248.516
                  25043254.059          42.400                          46.900
 124952181.011 7                  93308462.777 7  23777610.945
                  23777616.609          44.000                          47.100
 121286783.147 7                  90571326.553 8  23080105.367
                  23080111.723          46.900                          51.800
 20  7  6  0 16 41.0000000  0 18G08G27R24G30G09R23R13G07R12G11G01G21
                                G16E27E14E13E30E15
 107761947.670 7  83970397.00148  80471625.691 8  20506421.219
  20506428.852    20506427.906          45.300          50.500          52.300
 115670917.154 6  90133220.20245  86377664.853 8  22011446.836
  22011454.082    22011453.414          40.200          31.200          48.100
 117802701.737 6  91624345.054 6                  22029697.586    22029696.977
  22029702.141                          38.600          38.600
 122762312.680 5  95658965.25645  91673170.661 7  23360883.242
  23360892.074    23360892.387          34.000          31.600          44.200
 131414459.487 5 102400878.58143  98134178.978 6  25007343.641
  25007352.844    25007355.043          30.800          23.000          38.100
 104005247.736 7  80893007.361 6                  19442682.273    19442681.047
  19442688.676                          46.600          40.400
 105578163.825 5  82116377.457 6                  19771402.656    19771399.984
  19771405.633                          32.600          41.300
 112483276.711 7  87649271.89047                  21404840.555
  21404846.109                          43.200          44.800
 106092540.590 7  82516467.328 7                  19860751.516    19860750.379
  19860755.480                          45.200          45.800
 107669281.010 7  83898112.35046                  20488766.688
  20488771.758                          43.800          37.100
 116794797.244 6  91009006.09846  87216963.714 7  22225319.656
  22225327.797    22225326.996          38.700          39.400          47.800
 130267210.410 5 101506944.41242                  24789028.305
  24789033.383                          30.500          14.800
 120042243.531 6  93539454.15244                  22843285.555
  22843291.320                          37.900          24.600
 122775807.961 7                  91683254.997 8  23363456.859
                  23363462.051          47.000                          50.400
 124204604.515 6                  92750219.838 7  23635349.664
                  23635355.012          40.200                          43.900
 131600685.496 7                  98273262.825 7  25042776.625
                  25042782.434          42.000                          46.700
 124953828.925 7                  93309693.354 7  23777924.445
                  23777930.039          44.000                          47.300
 121286784.523 7                  90571327.582 8  23080105.820
                  23080112.047          47.000                          51.600
 20  7  6  0 16 42.0000000  0 18G08G27R24G30G09R23R13G07R12G11G01G21
                                G16E27E14E13E30E15
 107762853.019 7  83971102.46748  80472301.755 8  20506593.422
  20506601.078    20506600.207          45.700          50.400          52.300
 115673433.449 6  90135180.95145  86379543.930 8  22011925.156
  22011932.859    22011932.207          40.400          32.300          48.500
 117799193.359 6  91621616.295 6                  22029041.063    22029040.676
  22029046.043                          38.700          38.100
 122759478.763 5  95656757.01345  91671054.464 7  23360344.047
  23360352.777    23360352.980          34.200          32.100          44.400
 131416975.139 5 102402838.82943  98136057.600 6  25007822.742
  25007831.648    25007833.652          30.100          22.300          37.900
 104003938.941 7  80891989.385 6                  19442437.398    19442436.426
  19442443.949                          46.500          40.600
 105576050.483 5  82114733.742 6                  19771006.891    19771004.559
  19771009.785                          32.800          41.400
 112481894.695 7  87648194.99647                  21404577.867
  21404583.238                          43.400          44.800
 106094357.567 7  82517880.533 7                  19861091.680    19861090.711
  19861095.641                          44.900          45.800
 107667719.600 7  83896895.66446                  20488469.547
  20488474.648                          44.300          36.900
 116791270.478 6  91006257.96246  87214330.088 7  22224648.156
  22224656.613    22224655.820          39.100          39.200          47.600
 130270278.456 5 101509335.17842                  24789612.000
  24789617.324                          30.100          15.600
 120044568.302 6  93541265.67044                  22843727.742
  22843733.578                          38.100          24.000
 122775102.954 7                  91682728.537 8  23363322.781
                  23363327.887          47.200                          50.200
 124198821.331 6                  92745901.256 7  23634248.961
                  23634254.523          40.200                          43.800
 131598206.954 7                  98271411.970 7  25042305.203
                  25042310.770          42.100                          46.500
 124955477.112 7                  93310924.143 7  23778238.039
                  23778243.754          44.300                          47.000
 121286786.356 7                  90571328.943 8  23080106.133
                  23080112.258          46.900                          51.500
 20  7  6  0 16 43.0000000  0 18G08G27R24G30G09R23R13G07R12G11G01G21
                                G16E27E14E13E30E15
 107763758.712 7  83971808.20748  80472978.086 8  20506765.516
  20506773.395    20506772.578          45.600          50.600          52.700
 115675949.938 6  90137141.84945  86381423.120 8  22012404.086
  22012411.781    22012411.039          40.400          31.600          48.300
 117795685.395 6  91618887.897 6                  22028386.289    22028384.816
  22028390.059                          38.600          38.900
 122756645.299 5  95654549.11745  91668938.544 7  23359804.820
  23359813.637    23359813.762          33.900          31.300          44.300
 131419490.991 4 102404799.23143  98137936.272 6  25008301.203
  25008310.535    25008312.141          29.900          22.600          38.000
 104002630.871 7  80890972.010 6                  19442193.094    19442192.008
  19442199.434                          46.700          40.400
 105573937.664 5  82113090.434 6                  19770610.969    19770608.512
  19770614.109                          32.700          41.400
 112480513.259 7  87647118.55047                  21404314.273
  21404320.496                          43.900          44.600
 106096175.245 7  82519294.290 7                  19861432.016    19861430.945
  19861435.816                          44.900          46.100
 107666158.712 7  83895679.39346                  20488172.711
  20488177.770                          44.700          37.200
 116787744.061 6  91003510.10646  87211696.727 7  22223976.875
  22223985.602    22223984.648          39.500          39.000          47.900
 130273346.601 5 101511725.90742                  24790195.977
  24790201.230                          30.700          16.900
 120046893.317 6  93543077.36243                  22844169.734
  22844175.898                          38.200          22.600
 122774398.235 7                  91682202.274 8  23363188.625
                  23363193.707          47.400                          50.500
 124193038.275 6                  92741582.695 7  23633148.617
                  23633153.938          40.500                          43.700
 131595728.709 7                  98269561.337 7  25041833.563
                  25041839.234          42.500                          46.600
 124957125.570 7                  93312155.129 7  23778551.508
                  23778557.332          44.300                          47.100
 121286788.661 7                  90571330.656 8  23080106.438
                  23080112.699          46.900                          51.200
 20  7  6  0 16 44.0000000  0 18G08G27R24G30G09R23R13G07R12G11G01G21
                                G16E27E14E13E30E15
 107764664.678 7  83972514.14448  80473654.608 8  20506937.984
  20506945.770    20506944.914          45.500          50.400          52.700
 115678466.535 6  90139102.83345  86383302.387 8  22012883.023
  22012890.660    22012890.027          40.100          31.300          48.300
 117792177.835 6  91616159.779 6                  22027729.961    22027728.805
  22027734.203                          39.200          39.000
 122753812.180 5  95652341.50645  91666822.894 7  23359265.102
  23359274.488    23359274.543          34.000          31.700          44.600
 131422006.675 4 102406759.52143  98139814.902 6  25008780.195
  25008789.336    25008790.887          29.900          22.000          38.200
 104001323.489 7  80889955.168 6                  19441948.586    19441947.477
  19441955.137                          46.200          40.200
 105571825.415 5  82111447.572 6                  19770216.352    19770213.590
  19770218.652                          33.200          41.400
 112479132.416 7  87646042.56847                  21404052.094
  21404057.602                          43.800          44.900
 106097993.575 7  82520708.542 7                  19861771.883    19861771.477
  19861776.234                          44.900          45.900
 107664598.355 7  83894463.52846                  20487875.922
  20487880.883                          44.400          37.200
 116784217.934 6  91000762.47646  87209063.582 7  22223305.547
  22223314.559    22223313.660          39.800          38.900          47.600
 130276415.005 5 101514116.86842                  24790781.500
  24790785.156                          30.300          17.400
 120049218.483 6  93544889.18444                  22844613.148
  22844618.512                          37.900          24.100
 122773693.719 7                  91681676.183 8  23363054.758
                  23363059.656          46.800                          50.900
 124187255.162 6                  92737264.161 7  23632047.984
                  23632053.508          40.500                          44.100
 131593250.704 7                  98267710.875 7  25041361.641
                  25041367.746          42.700                          46.800
 124958774.246 7                  93313386.284 7  23778865.320
                  23778871.117          44.000                          47.400
 121286791.338 7                  90571332.670 8  23080106.961
                  23080113.344          46.700                          51.100
 20  7  6  0 16 45.0000000  0 18G08G27R24G30G09R23R13G07R12G11G01G21
                                G16E27E14E13E30E15
 107765570.915 7  83973220.30548  80474331.353 8  20507110.328
  20507118.184    20507117.359          45.600          50.500          52.800
 115680983.256 6  90141063.91845  86385181.746 8  22013361.258
  22013369.547    22013368.855          40.200          32.100          48.400
 117788670.625 6  91613431.945 6                  22027074.320    22027072.816
  22027078.230                          39.400          39.100
 122750979.331 5  95650134.08445  91664707.485 7  23358726.859
  23358735.387    23358735.348          33.700          31.400          44.100
 131424522.450 4 102408719.87343  98141693.539 6  25009258.500
  25009267.938    25009269.910          29.400          21.700          37.700
 104000016.811 7  80888938.863 6                  19441703.719    19441703.195
  19441710.887                          45.900          40.200
 105569713.664 5  82109805.111 6                  19769820.039    19769817.809
  19769823.219                          33.200          40.900
 112477752.136 7  87644967.02547                  21403789.727
  21403794.891                          44.100          44.600
 106099812.547 7  82522123.292 7                  19862112.938    19862111.738
  19862116.910                          44.900          46.000
 107663038.496 7  83893248.05646                  20487578.391
  20487583.926                          44.100          37.000
 116780692.108 6  90998015.08146  87206430.650 7  22222634.445
  22222643.441    22222642.730          39.600          39.400          47.500
 130279483.550 5 101516507.95642                  24791364.117
  24791369.191                          30.700          15.600
 120051543.810 6  93546701.15244                  22845055.172
  22845061.031                          37.900          25.300
 122772989.421 7                  91681150.260 8  23362920.742
                  23362925.586          46.500                          50.800
 124181472.074 6                  92732945.638 7  23630947.500
                  23630953.039          40.500                          43.900
 131590772.924 7                  98265860.598 7  25040890.375
                  25040896.340          42.700                          46.700
 124960423.139 7                  93314617.606 7  23779179.070
                  23779184.984          43.900                          47.700
 121286794.455 7                  90571334.992 8  23080107.625
                  23080113.973          46.700                          51.100
 20  7  6  0 16 46.0000000  0 18G08G27R24G30G09R23R13G07R12G11G01G21
                                G16E27E14E13E30E15
 107766477.500 7  83973926.73948  80475008.341 8  20507282.844
  20507290.684    20507289.914          45.600          50.400          52.500
 115683500.102 6  90143025.10345  86387061.226 8  22013840.352
  22013848.500    22013847.730          40.200          31.100          48.400
 117785163.798 6  91610704.419 6                  22026417.391    22026417.352
  22026422.363                          39.200          38.800
 122748146.903 5  95647926.99745  91662592.365 7  23358188.359
  23358196.469    23358196.574          34.300          32.400          44.100
 131427038.254 4 102410680.24143  98143572.211 6  25009737.563
  25009746.691    25009748.613          29.900          22.800          37.400
 103998710.905 7  80887923.156 6                  19441459.945    19441459.121
  19441466.691                          45.800          40.400
 105567602.511 5  82108163.117 6                  19769424.313    19769422.703
  19769427.727                          33.100          41.700
 112476372.432 7  87643891.93447                  21403526.758
  21403532.367                          43.700          44.700
 106101632.159 7  82523538.532 7                  19862453.461    19862452.523
  19862457.578                          44.900          46.400
 107661479.169 7  83892032.99346                  20487282.102
  20487287.125                          44.200          36.800
 116777166.595 6  90995267.92546  87203797.986 7  22221963.633
  22221972.719    22221971.863          39.100          39.500          47.800
 130282552.230 5 101518899.15942                  24791948.039
  24791953.098                          30.300          16.300
 120053869.367 6  93548513.26244                  22845497.953
  22845503.523                          37.800          25.300
 122772285.403 7                  91680624.522 8  23362786.844
                  23362791.645          46.600                          51.000
 124175689.045 6                  92728627.139 7  23629847.133
                  23629852.402          40.500                          44.100
 131588295.473 7                  98264010.530 7  25040418.797
                  25040424.684          43.000                          46.700
 124962072.297 7                  93315849.117 7  23779493.023
                  23779498.617          43.600                          47.200
 121286798.014 7                  90571337.648 8  23080108.352
                  23080114.555          47.400                          51.100
 20  7  6  0 16 47.0000000  0 18G08G27R24G30G09R23R13G07R12G11G01G21
                                G16E27E14E13E30E15
 107767384.406 7  83974633.41848  80475685.574 8  20507455.391
  20507463.488    20507462.527          45.400          50.300          52.300
 115686017.138 6  90144986.42345  86388940.828 8  22014319.102
  22014327.387    22014326.754          40.800          30.700          48.300
 117781657.462 6  91607977.276 6                  22025761.344    22025761.625
  22025766.688                          39.300          38.500
 122745314.913 5  95645720.25345  91660477.545 7  23357649.469
  23357657.480    23357657.758          34.300          32.300          44.000
 131429554.101 4 102412640.61743  98145450.943 6  25010216.930
  25010225.500    25010227.066          29.600          22.500          37.300
 103997405.770 7  80886908.040 6                  19441216.266    19441215.105
  19441222.664                          45.700          40.400
 105565491.915 5  82106521.527 6                  19769028.672    19769026.879
  19769032.430                          33.000          41.600
 112474993.417 7  87642817.37847                  21403264.289
  21403269.914                          43.300          44.700
 106103452.442 7  82524954.316 7                  19862793.984    19862793.480
  19862798.227                          44.900          46.000
 107659920.403 7  83890818.37646                  20486985.133
  20486990.598                          44.100          37.100
 116773641.483 6  90992521.07946  87201165.578 7  22221292.742
  22221301.945    22221301.043          39.000          39.000          47.900
 130285621.205 5 101521290.51942                  24792532.250
  24792536.980                          31.000          17.400
 120056195.159 6  93550325.55244                  22845940.344
  22845946.031                          37.600          24.100
 122771581.670 7                  91680099.005 8  23362652.820
                  23362657.781          46.400                          50.800
 124169906.090 6                  92724308.693 7  23628746.508
                  23628752.082          40.800                          44.000
 131585818.290 7                  98262160.708 7  25039947.617
                  25039953.371          42.600                          46.600
 124963721.750 7                  93317080.845 7  23779807.055
                  23779812.734          43.400                          47.200
 121286802.047 7                  90571340.668 8  23080108.922
                  23080115.316          47.000                          51.300
 20  7  6  0 16 48.0000000  0 18G08G27R24G30G09R23R13G07R12G11G01G21
                                G16E27E14E13E30E15
 107768291.651 7  83975340.36048  80476363.070 8  20507627.945
  20507635.906    20507635.090          45.400          50.300          52.400
 115688534.362 6  90146947.89245  86390820.563 8  22014798.430
  22014806.555    22014805.840          40.700          31.500          48.100
 117778151.541 6  91605250.462 6                  22025106.359    22025105.836
  22025111.094                          39.000          38.700
 122742483.282 5  95643513.79045  91658363.004 7  23357110.570
  23357118.625    23357118.910          34.500          31.700          44.100
 131432070.049 4 102414601.07043  98147329.709 6  25010694.930
  25010704.180    25010705.855          29.100          21.700          37.400
 103996101.376 7  80885893.531 6                  19440971.875    19440971.176
  19440978.746                          45.900          40.400
 105563381.954 5  82104880.442 6                  19768634.445    19768631.832
  19768637.391                          33.700          41.500
 112473615.003 7  87641743.28847                  21403001.758
  21403007.734                          43.300          44.700
 106105273.433 7  82526370.645 7                  19863135.398    19863134.184
  19863139.309                          45.000          46.100
 107658362.200 7  83889604.18646                  20486689.070
  20486694.125                          44.400          37.000
 116770116.708 6  90989774.51146  87198533.441 7  22220622.344
  22220631.246    22220630.297          39.400          39.300          47.600
 130288690.349 5 101523682.04342                  24793116.648
  24793121.113                          30.500          16.300
 120058521.174 6  93552138.03644                  22846383.750
  22846388.746                          37.700          24.600
 122770878.220 7                  91679573.695 8  23362519.047
                  23362523.891          46.400                          50.800
 124164123.234 6                  92719990.317 7  23627646.156
                  23627651.488          40.800                          44.000
 131583341.426 7                  98260311.098 7  25039476.164
                  25039482.094          42.300                          46.800
 124965371.466 7                  93318312.788 7  23780120.945
                  23780126.461          43.800                          47.100
 121286806.549 7                  90571344.035 8  23080109.977
                  23080116.254          46.700                          51.200
 20  7  6  0 16 49.0000000  0 18G08G27R24G30G09R23R13G07R12G11G01G21
                                G16E27E14E13E30E15
 107769199.182 7  83976047.52648  80477040.774 8  20507801.078
  20507808.797    20507807.914          45.100          49.900          52.300
 115691051.706 6  90148909.45545  86392700.394 7  22015277.563
  22015285.539    22015284.734          41.000          31.600          47.900
 117774646.038 6  91602523.950 6                  22024450.039    22024449.777
  22024455.520                          39.300          37.900
 122739652.032 5  95641307.62145  91656248.768 7  23356571.375
  23356579.930    23356580.098          34.200          31.800          44.200
 131434586.014 4 102416561.59143  98149208.495 6  25011173.141
  25011182.941    25011184.770          28.300          21.100          37.600
 103994797.726 7  80884879.570 6                  19440727.656    19440727.566
  19440735.152                          46.200          40.200
 105561272.494 5  82103239.782 6                  19768238.703    19768236.891
  19768242.109                          33.700          41.000
 112472237.147 7  87640669.63647                  21402739.484
  21402745.523                          43.700          44.200
 106107095.100 7  82527787.496 7                  19863475.703    19863475.242
  19863480.355                          45.000          44.700
 107656804.505 7  83888390.40646                  20486392.422
  20486397.809                          44.500          36.100
 116766592.262 6  90987028.18746  87195901.531 7  22219952.102
  22219960.598    22219959.758          39.700          38.800          47.700
 130291759.674 5 101526073.73042                  24793700.938
  24793705.352                          30.500          15.600
 120060847.369 6  93553950.65343                  22846826.258
  22846831.371                          37.200          23.800
 122770174.996 7                  91679048.560 8  23362385.141
                  23362390.012          46.800                          50.700
 124158340.375 6                  92715671.950 7  23626545.883
                  23626551.066          40.800                          44.500
 131580864.837 7                  98258461.687 7  25039004.883
                  25039010.887          42.400                          46.500
 124967021.436 7                  93319544.898 7  23780434.891
                  23780440.539          43.700                          47.300
 121286811.482 7                  90571347.712 8  23080110.852
                  23080117.172          46.800                          51.200
 20  7  6  0 16 50.0000000  0 18G08G27R24G30G09R23R13G07R12G11G01G21
                                G16E27E14E13E30E15
 107770107.038 7  83976754.94848  80477718.708 8  20507973.547
  20507981.422    20507980.664          45.200          50.300          52.700
 115693569.118 6  90150871.07845  86394580.286 8  22015756.781
  22015764.555    22015763.797          40.800          31.100          48.200
 117771140.857 6  91599797.721 6                  22023794.156    22023794.410
  22023799.957                          39.200          38.500
 122736821.091 5  95639101.69645  91654134.770 7  23356032.961
  23356041.238    23356041.523          34.500          32.300          44.100
 131437101.894 4 102418522.00443  98151087.260 6  25011651.555
  25011661.590    25011663.465          28.600          20.900          37.600
 103993494.746 7  80883866.144 6                  19440485.156    19440484.129
  19440491.535                          46.000          40.400
 105559163.570 5  82101599.493 6                  19767843.898    19767842.371
  19767847.273                          33.800          41.400
 112470859.857 7  87639596.42247                  21402477.813
  21402483.348                          43.600          44.700
 106108917.399 7  82529204.836 7                  19863817.078    19863816.555
  19863821.422                          45.200          45.300
 107655247.315 7  83887177.00246                  20486095.953
  20486101.242                          43.900          37.300
 116763068.068 6  90984282.06046  87193269.849 8  22219281.047
  22219289.906    22219289.141          39.500          38.900          48.100
 130294829.126 5 101528465.54042                  24794283.430
  24794289.391                          30.500          16.300
 120063173.737 6  93555763.40544                  22847268.734
  22847273.816                          37.300          24.400
 122769471.993 7                  91678523.597 8  23362251.414
                  23362256.281          46.700                          50.900
 124152557.499 6                  92711353.595 7  23625445.313
                  23625450.730          40.800                          44.600
 131578388.498 7                  98256612.459 7  25038533.727
                  25038539.684          42.400                          46.400
 124968671.624 7                  93320777.181 7  23780748.734
                  23780754.582          43.900                          47.400
 121286816.805 7                  90571351.695 8  23080112.148
                  23080118.074          46.400                          50.900
 20  7  6  0 16 51.0000000  0 18G08G27R24G30G09R23R13G07R12G11G01G21
                                G16E27E14E13E30E15
 107771015.260 7  83977462.65548  80478396.929 8  20508145.875
  20508154.348    20508153.512          45.100          50.500          52.600
 115696086.766 6  90152832.87845  86396460.353 7  22016235.648
  22016243.656    22016242.945          40.300          31.700          47.900
 117767636.192 6  91597071.835 6                  22023139.625    22023138.973
  22023144.496                          39.200          38.600
 122733990.627 5  95636896.13645  91652021.091 7  23355494.094
  23355502.625    23355502.844          34.500          31.900          43.700
 131439617.955 4 102420482.54243  98152966.132 6  25012131.594
  25012140.234    25012142.270          29.400          21.300          38.300
 103992192.578 7  80882853.351 6                  19440241.203    19440240.598
  19440248.180                          46.400          40.700
 105557055.255 5  82099959.687 6                  19767448.695    19767446.883
  19767452.527                          33.900          41.400
 112469483.239 7  87638523.73047                  21402215.813
  21402221.367                          43.700          44.700
 106110740.436 7  82530622.741 7                  19864157.875    19864157.629
  19864162.664                          45.000          45.500
 107653690.713 7  83885964.06946                  20485799.727
  20485805.129                          44.300          37.100
 116759544.262 6  90981536.24046  87190638.468 7  22218610.766
  22218619.359    22218618.449          40.000          38.900          47.800
 130297898.785 5 101530857.49242                  24794868.992
  24794873.621                          30.800          15.600
 120065500.392 6  93557576.39744                  22847711.625
  22847716.629                          37.200          24.400
 122768769.316 7                  91677998.866 8  23362117.539
                  23362122.563          46.800                          50.500
 124146774.801 6                  92707035.335 7  23624345.023
                  23624350.453          40.900                          44.800
 131575912.478 7                  98254763.493 7  25038062.570
                  25038068.543          42.600                          46.300
 124970322.116 7                  93322009.700 7  23781063.078
                  23781068.762          43.700                          47.300
 121286822.659 7                  90571356.060 8  23080112.977
                  23080119.262          46.000                          50.700
 20  7  6  0 16 52.0000000  0 18G08G27R24G30G09R23R13G07R12G11G01G21
                                G16E27E14E13E30E15
 107771923.757 7  83978170.57348  80479075.348 8  20508319.227
  20508327.188    20508326.488          45.100          50.300          52.300
 115698604.534 6  90154794.77945  86398340.497 7  22016715.469
  22016722.754    22016722.055          39.900          31.600          47.800
 117764131.882 6  91594346.274 6                  22022484.156    22022483.453
  22022489.074                          38.900          39.100
 122731160.451 5  95634690.80945  91649907.663 7  23354955.539
  23354964.098    23354964.457          34.800          31.700          43.900
 131442134.43814 102422443.57053  98154844.971 6  25012610.211
  25012619.129    25012620.895          29.900          21.700          38.000
 103990891.083 7  80881841.083 6                  19439998.320    19439997.410
  19440004.840                          46.200          40.600
 105554947.470 5  82098320.283 6                  19767055.625    19767052.598
  19767057.836                          33.800          41.300
 112468107.192 7  87637451.48647                  21401954.102
  21401959.488                          44.300          44.600
 106112564.039 7  82532041.113 7                  19864499.789    19864499.191
  19864504.023                          45.400          45.700
 107652134.602 7  83884751.51746                  20485504.008
  20485508.996                          44.300          36.900
 116756020.801 6  90978790.68546  87188007.285 7  22217939.773
  22217948.898    22217947.973          40.000          39.000          47.900
 130300968.668 5 101533249.64042                  24795452.578
  24795457.801                          31.300          16.300
 120067827.186 6  93559389.47144                  22848154.344
  22848159.383                          37.800          24.900
 122768066.836 7                  91677474.304 8  23361983.922
                  23361988.879          46.800                          50.600
 124140992.037 6                  92702717.032 7  23623244.648
                  23623250.121          41.400                          44.400
 131573436.673 7                  98252914.679 7  25037591.484
                  25037597.426          42.700                          46.000
 124971972.826 7                  93323242.378 7  23781377.172
                  23781382.734          43.900                          47.200
 121286828.918 7                  90571360.714 8  23080114.234
                  23080120.523          46.300                          50.500
