     2.11           OBSERVATION DATA    M (MIXED)           RINEX VERSION / TYPE
teqc  2016Nov7      KASI/KOREA          20200706 01:02:30UTCPGM / RUN BY / DATE
Linux 2.4.20-8|Pentium IV|gcc|Linux|486/DX+                 COMMENT
  0.0000      (antenna height)                              COMMENT
 +36.39942714 (latitude)                                    COMMENT
+127.37448264 (longitude)                                   COMMENT
0116.859      (elevation)                                   COMMENT
BIT 2 OF LLI FLAGS DATA COLLECTED UNDER A/S CONDITION       COMMENT
23902M002 (COGO code)                                       COMMENT
DAEJ                                                        MARKER NAME
23902M002                                                   MARKER NUMBER
KASI GPS            KASI/KOREA                              OBSERVER / AGENCY
5412K48145          TRIMBLE NETR9       5.44                REC # / TYPE / VERS
4923363230          TRM59800.00     SCIS                    ANT # / TYPE
 -3120042.7621  4084616.0339  3764027.9709                  APPROX POSITION XYZ
        0.0000        0.0000        0.0000                  ANTENNA: DELTA H/E/N
     1     1                                                WAVELENGTH FACT L1/2
    10    L1    L2    L5    C1    P1    P2    C5    S1    S2# / TYPES OF OBSERV
          S5                                                # / TYPES OF OBSERV
    18                                                      LEAP SECONDS
 SNR is mapped to RINEX snr flag value [0-9]                COMMENT
  L1 & L2: min(max(int(snr_dBHz/6), 0), 9)                  COMMENT
  2020     7     6     0    45    0.0000000     GPS         TIME OF FIRST OBS
                                                            END OF HEADER
 20  7  6  0 45  0.0000000  0 18G08G27R24G30R23R13G07R12G11R14G01G16
                                E27E21E14E13E30E15
 109713406.521 7  85491013.82747  81928883.417 8  20877771.523
  20877779.441    20877778.820          44.200          47.800          51.100
 120106428.401 6  93589461.32344  89689895.617 7  22855497.508
  22855505.289    22855504.641          37.200          26.500          45.600
 112489136.143 6  87491572.678 6                  21036032.406    21036032.020
  21036037.457                          41.900          41.700
 118554745.959 6  92380342.31446  88531157.072 7  22560210.328
  22560218.109    22560218.516          38.500          36.600          46.200
 102819831.786 7  79971017.742 6                  19221081.297    19221079.418
  19221087.102                          45.400          40.900
 102883069.457 5  80020192.781 6                  19266697.531    19266695.770
  19266701.180                          32.600          41.400
 111038242.030 7  86523270.09947                  21129859.914
  21129866.227                          43.500          45.500
 110103619.733 7  85636194.169 7                  20611634.945    20611633.852
  20611639.305                          43.400          44.300
 105797818.745 7  82439830.54946                  20132639.328
  20132643.816                          43.400          36.900
 119916868.268 5  93268572.125 6                  22496064.977    22496064.395
  22496070.141                          35.900          38.100
 111359069.574 7  86773375.09647  83157817.533 8  21190932.758
  21190942.836    21190941.215          43.100          46.000          50.000
 124273555.743 5  96836578.48343                  23648479.461
  23648485.141                          34.600          18.600
 121974427.631 7                  91084821.152 8  23210959.555
                  23210964.980          45.600                          49.600
 135784007.771 6                 101397175.052 7  25838837.164
                  25838842.684          39.900                          43.300
 114530385.527 7                  85525966.419 7  21794406.563
                  21794411.340          43.600                          46.200
 127814876.601 7                  95446198.598 7  24322360.742
                  24322366.348          44.900                          47.200
 128115962.573 6                  95671025.547 7  24379658.797
                  24379665.504          41.400                          44.300
 121900611.922 7                  91029705.073 8  23196913.250
                  23196919.641          46.600                          49.800
 20  7  6  0 45  1.0000000  0 18G08G27R24G30R23R13G07R12G11R14G01G16
                                E27E21E14E13E30E15
 109714774.444 7  85492079.74548  81929904.914 8  20878032.328
  20878039.824    20878039.027          44.300          48.000          51.200
 120109110.089 6  93591550.93544  89691898.169 7  22856006.945
  22856015.516    22856014.828          37.000          26.500          45.700
 112486421.053 7  87489460.948 6                  21035524.672    21035524.770
  21035529.656                          42.600          41.700
 118552669.941 6  92378724.63146  88529606.804 7  22559814.984
  22559823.148    22559823.313          38.300          37.100          46.200
 102819731.749 7  79970939.949 6                  19221061.242    19221060.586
  19221068.445                          45.400          40.800
 102882065.199 5  80019411.736 6                  19266510.398    19266507.563
  19266513.102                          32.600          41.600
 111037943.862 7  86523037.75447                  21129803.398
  21129809.367                          43.600          45.600
 110106501.698 7  85638435.716 7                  20612174.383    20612173.457
  20612178.723                          43.500          44.200
 105797183.855 7  82439335.81746                  20132518.359
  20132523.004                          43.100          36.300
 119912975.456 5  93265544.382 6                  22495334.961    22495334.039
  22495339.922                          35.400          37.700
 111356247.461 7  86771176.05147  83155710.105 8  21190396.289
  21190405.883    21190404.129          43.300          46.000          50.200
 124276208.288 5  96838645.42943                  23648985.086
  23648989.797                          34.900          19.000
 121974208.976 7                  91084657.867 8  23210918.016
                  23210923.344          46.000                          50.000
 135781700.530 6                 101395452.112 7  25838398.047
                  25838403.645          40.200                          43.600
 114524841.225 7                  85521826.199 7  21793351.617
                  21793356.227          43.900                          46.600
 127812914.700 7                  95444733.538 7  24321987.492
                  24321992.852          44.700                          47.400
 128118034.624 6                  95672572.867 7  24380053.344
                  24380059.879          41.800                          44.200
 121901316.964 7                  91030231.563 8  23197047.578
                  23197053.805          46.500                          49.900
 20  7  6  0 45  2.0000000  0 18G08G27R24G30R23R13G07R12G11R14G01G16
                                E27E21E14E13E30E15
 109716142.568 7  85493145.81247  81930926.553 8  20878292.188
  20878300.016    20878299.414          44.400          47.800          51.300
 120111791.818 6  93593640.60144  89693900.761 7  22856518.227
  22856525.828    22856525.152          37.100          26.400          45.800
 112483706.433 7  87487349.567 7                  21035017.148    21035016.820
  21035021.992                          42.700          42.100
 118550594.448 6  92377107.36146  88528056.916 7  22559419.945
  22559428.109    22559428.520          38.600          37.100          46.100
 102819632.389 7  79970862.659 6                  19221043.180    19221042.055
  19221049.785                          45.200          41.000
 102881061.770 5  80018631.242 6                  19266321.922    19266319.941
  19266325.117                          33.000          41.800
 111037646.349 7  86522805.92147                  21129746.664
  21129752.707                          43.400          45.700
 110109384.222 7  85640677.665 7                  20612713.828    20612713.285
  20612718.336                          43.700          44.100
 105796549.481 7  82438841.50246                  20132397.266
  20132402.465                          43.200          37.000
 119909082.816 5  93262516.732 6                  22494603.789    22494603.559
  22494609.496                          35.500          38.300
 111353425.826 7  86768977.37047  83153603.051 8  21189859.438
  21189868.848    21189867.195          43.400          46.000          50.200
 124278860.986 5  96840712.45243                  23649488.891
  23649494.504                          34.700          18.300
 121973990.637 7                  91084494.819 8  23210876.352
                  23210881.848          45.900                          49.700
 135779393.360 6                 101393729.212 7  25837959.000
                  25837964.578          39.800                          43.500
 114519297.184 7                  85517686.172 7  21792296.523
                  21792301.098          43.800                          46.500
 127810953.104 7                  95443268.713 7  24321613.828
                  24321619.848          44.600                          47.400
 128120106.911 6                  95674120.349 7  24380447.750
                  24380454.137          41.700                          44.100
 121902022.366 7                  91030758.327 8  23197181.852
                  23197187.984          46.400                          49.800
 20  7  6  0 45  3.0000000  0 18G08G27R24G30R23R13G07R12G11R14G01G16
                                E27E21E14E13E30E15
 109717510.897 7  85494212.03947  81931948.379 8  20878552.578
  20878560.492    20878559.867          44.600          47.900          51.600
 120114473.629 6  93595730.33644  89695903.413 7  22857027.961
  22857036.211    22857035.504          37.400          27.400          45.800
 112480992.343 7  87485238.606 7                  21034509.539    21034509.512
  21034514.352                          43.100          42.000
 118548519.454 6  92375490.49346  88526507.412 7  22559024.539
  22559033.258    22559033.566          38.400          37.200          46.400
 102819533.689 7  79970785.906 6                  19221024.453    19221023.547
  19221031.301                          45.200          41.000
 102880059.034 5  80017851.381 6                  19266133.656    19266131.793
  19266137.355                          33.200          41.600
 111037349.494 7  86522574.60047                  21129690.422
  21129696.332                          43.300          45.600
 110112267.323 7  85642920.087 7                  20613254.078    20613253.270
  20613258.043                          43.500          44.400
 105795915.698 7  82438347.64446                  20132276.813
  20132282.039                          43.600          36.800
 119905190.267 6  93259489.238 6                  22493874.188    22493873.371
  22493879.359                          36.100          38.400
 111350604.692 7  86766779.07947  83151496.356 8  21189322.211
  21189332.051    21189330.461          43.600          45.800          50.000
 124281513.906 5  96842779.64243                  23649993.828
  23649999.461                          34.600          19.600
 121973772.600 7                  91084332.008 8  23210834.953
                  23210840.379          46.200                          50.000
 135777086.285 6                 101392006.399 7  25837519.633
                  25837525.430          39.600                          43.500
 114513753.386 7                  85513546.311 7  21791241.297
                  21791246.219          43.500                          46.600
 127808991.831 7                  95441804.112 7  24321240.617
                  24321246.453          44.200                          47.600
 128122179.435 6                  95675667.993 7  24380842.156
                  24380848.609          41.800                          43.600
 121902728.151 7                  91031285.373 8  23197316.109
                  23197322.332          46.100                          50.100
 20  7  6  0 45  4.0000000  0 18G08G27R24G30R23R13G07R12G11R14G01G16
                                E27E21E14E13E30E15
 109718879.524 7  85495278.49847  81932970.385 8  20878812.945
  20878820.953    20878820.203          44.500          47.900          51.600
 120117155.457 6  93597820.04844  89697906.102 7  22857538.359
  22857546.473    22857545.977          37.200          26.000          45.800
 112478278.815 7  87483128.095 6                  21034002.078    21034002.324
  21034006.938                          42.600          41.700
 118546445.014 6  92373874.04646  88524958.317 7  22558630.102
  22558638.469    22558638.832          38.200          36.900          46.200
 102819435.717 7  79970709.703 6                  19221005.406    19221005.484
  19221013.086                          45.500          40.500
 102879057.052 5  80017072.065 6                  19265944.234    19265944.109
  19265949.609                          33.100          41.500
 111037053.334 7  86522343.83047                  21129633.992
  21129639.953                          42.900          45.600
 110115151.059 7  85645162.987 7                  20613793.141    20613793.086
  20613797.934                          43.600          43.900
 105795282.467 7  82437854.22146                  20132156.156
  20132161.398                          43.600          36.900
 119901297.961 5  93256461.874 6                  22493143.953    22493143.270
  22493149.043                          35.700          37.700
 111347784.082 7  86764581.20847  83149390.064 8  21188785.625
  21188795.180    21188793.789          43.200          45.700          50.100
 124284166.973 5  96844846.96043                  23650499.594
  23650504.391                          34.700          18.600
 121973554.900 7                  91084169.439 8  23210793.633
                  23210798.867          46.200                          49.800
 135774779.285 6                 101390283.653 7  25837080.992
                  25837086.480          39.200                          43.300
 114508209.856 7                  85509406.673 7  21790186.469
                  21790191.066          43.100                          46.400
 127807030.911 7                  95440339.804 7  24320867.352
                  24320873.328          44.000                          47.500
 128124252.232 6                  95677215.858 7  24381236.758
                  24381242.875          41.800                          43.700
 121903434.358 7                  91031812.720 8  23197450.586
                  23197456.727          46.300                          50.300
 20  7  6  0 45  5.0000000  0 18G08G27R24G30R23R13G07R12G11R14G01G16
                                E27E21E14E13E30E15
 109720248.337 7  85496345.11047  81933992.560 8  20879073.742
  20879081.387    20879080.711          44.500          47.800          51.100
 120119837.399 6  93599909.87644  89699908.833 7  22858048.125
  22858056.867    22858056.230          37.400          27.000          45.600
 112475565.777 7  87481017.967 6                  21033494.492    21033494.652
  21033499.523                          42.600          41.600
 118544371.097 6  92372258.00046  88523409.620 7  22558235.484
  22558243.922    22558244.152          37.800          36.900          46.200
 102819338.414 7  79970634.014 6                  19220988.242    19220987.086
  19220994.914                          45.200          40.500
 102878055.818 5  80016293.315 6                  19265757.570    19265756.504
  19265762.195                          33.100          41.400
 111036757.864 7  86522113.59447                  21129578.141
  21129583.684                          43.000          45.600
 110118035.367 7  85647406.324 7                  20614333.523    20614333.012
  20614337.945                          43.900          43.800
 105794649.773 7  82437361.20546                  20132036.273
  20132040.910                          43.300          36.700
 119897405.774 5  93253434.645 6                  22492413.875    22492413.363
  22492418.855                          35.900          37.700
 111344963.975 7  86762383.72047  83147284.141 8  21188249.070
  21188258.633    21188257.016          43.200          45.900          50.000
 124286820.281 5  96846914.46843                  23651003.656
  23651009.344                          34.600          19.000
 121973337.531 7                  91084007.113 8  23210752.195
                  23210757.555          46.400                          49.800
 135772472.427 6                 101388560.975 7  25836642.297
                  25836647.484          39.400                          42.700
 114502666.594 7                  85505267.205 7  21789131.406
                  21789136.199          43.000                          46.000
 127805070.315 7                  95438875.728 7  24320494.742
                  24320500.352          44.300                          47.300
 128126325.229 6                  95678763.891 7  24381631.047
                  24381637.137          41.600                          43.600
 121904140.901 7                  91032340.353 8  23197585.094
                  23197591.215          46.300                          49.800
 20  7  6  0 45  6.0000000  0 18G08G27R24G30R23R13G07R12G11R14G01G16
                                E27E21E14E13E30E15
 109721617.399 7  85497411.91448  81935014.911 8  20879333.242
  20879341.949    20879341.344          44.300          48.000          51.200
 120122519.393 6  93601999.73644  89701911.620 7  22858558.859
  22858567.410    22858566.547          37.700          26.000          45.800
 112472853.240 7  87478908.218 6                  21032987.820    21032987.527
  21032992.301                          42.600          41.800
 118542297.683 6  92370642.35346  88521861.311 7  22557840.492
  22557849.297    22557849.383          38.300          37.100          46.400
 102819241.788 7  79970558.855 6                  19220970.336    19220969.105
  19220976.813                          45.400          40.600
 102877055.346 5  80015515.148 6                  19265571.297    19265569.273
  19265574.828                          33.500          41.400
 111036463.032 7  86521883.84747                  21129521.594
  21129527.621                          42.800          45.600
 110120920.244 7  85649650.121 7                  20614873.648    20614873.246
  20614877.996                          43.600          43.500
 105794017.654 7  82436868.64846                  20131915.547
  20131920.680                          43.100          36.700
 119893513.784 5  93250407.511 6                  22491683.617    22491682.727
  22491688.605                          35.800          38.100
 111342144.365 7  86760186.62647  83145178.582 8  21187712.875
  21187722.176    21187720.488          43.100          46.000          50.100
 124289473.734 5  96848982.12543                  23651509.195
  23651514.156                          34.600          18.300
 121973120.477 7                  91083845.031 8  23210710.906
                  23210716.297          46.600                          50.300
 135770165.639 6                 101386838.388 7  25836203.063
                  25836208.504          39.400                          43.500
 114497123.573 7                  85501127.950 7  21788076.602
                  21788081.449          43.200                          46.400
 127803110.048 7                  95437411.896 7  24320121.609
                  24320127.332          44.300                          47.700
 128128398.489 6                  95680312.109 7  24382025.625
                  24382031.652          41.400                          43.900
 121904847.865 7                  91032868.267 8  23197719.445
                  23197725.719          46.400                          50.200
 20  7  6  0 45  7.0000000  0 18G08G27R24G30R23R13G07R12G11R14G01G16
                                E27E21E14E13E30E15
 109722986.693 7  85498478.89447  81936037.424 8  20879594.102
  20879602.328    20879601.895          44.500          47.700          51.200
 120125201.409 6  93604089.62744  89703914.443 7  22859068.563
  22859077.715    22859077.133          37.700          25.500          45.800
 112470141.241 7  87476798.882 6                  21032480.633    21032480.223
  21032485.215                          42.600          40.900
 118540224.837 6  92369027.14746  88520313.367 7  22557445.836
  22557454.848    22557455.059          38.100          36.600          46.400
 102819145.820 7  79970484.218 6                  19220951.898    19220950.844
  19220958.797                          45.700          40.700
 102876055.539 5  80014737.577 6                  19265383.773    19265382.094
  19265387.664                          32.900          41.200
 111036168.848 7  86521654.61847                  21129465.398
  21129471.648                          43.000          45.400
 110123805.711 7  85651894.383 7                  20615414.203    20615413.301
  20615418.176                          43.900          43.400
 105793386.066 7  82436376.49846                  20131796.039
  20131800.477                          43.400          36.600
 119889622.021 5  93247380.567 6                  22490952.961    22490952.688
  22490958.414                          35.700          37.500
 111339325.217 7  86757989.89247  83143073.393 8  21187176.391
  21187185.625    21187184.027          43.200          45.900          50.100
 124292127.359 5  96851049.86243                  23652014.492
  23652019.051                          33.700          18.600
 121972903.745 7                  91083683.171 8  23210669.703
                  23210674.898          46.800                          49.700
 135767858.941 6                 101385115.855 7  25835764.148
                  25835769.496          39.400                          43.600
 114491580.814 7                  85496988.873 7  21787021.680
                  21787026.766          43.100                          46.200
 127801150.125 7                  95435948.306 7  24319748.383
                  24319754.344          44.300                          47.400
 128130472.005 6                  95681860.502 7  24382420.109
                  24382426.191          41.400                          44.000
 121905555.197 7                  91033396.487 8  23197854.227
                  23197860.324          46.400                          49.800
 20  7  6  0 45  8.0000000  0 18G08G27R24G30R23R13G07R12G11R14G01G16
                                E27E21E14E13E30E15
 109724356.176 7  85499546.02147  81937060.101 8  20879855.117
  20879863.160    20879862.410          44.500          47.800          51.000
 120127883.517 6  93606179.59344  89705917.296 7  22859579.844
  22859588.219    22859587.480          37.700          26.700          46.000
 112467429.752 7  87474689.931 6                  21031973.711    21031973.332
  21031978.168                          42.500          41.200
 118538152.435 6  92367412.28846  88518765.827 7  22557052.531
  22557060.348    22557060.598          37.500          36.900          46.300
 102819050.518 7  79970410.103 6                  19220935.164    19220933.074
  19220941.027                          45.200          40.700
 102875056.543 5  80013960.518 6                  19265194.688    19265194.613
  19265200.527                          32.600          41.200
 111035875.346 7  86521425.91647                  21129410.234
  21129415.848                          43.500          45.600
 110126691.724 7  85654139.053 7                  20615954.328    20615953.516
  20615958.398                          43.700          43.500
 105792755.010 7  82435884.77046                  20131675.523
  20131680.391                          43.400          36.600
 119885730.312 5  93244353.720 6                  22490222.609    22490222.469
  22490228.391                          35.900          37.900
 111336506.608 7  86755793.57547  83140968.569 8  21186639.992
  21186649.285    21186647.574          43.200          45.900          50.100
 124294781.189 5  96853117.78843                  23652518.258
  23652524.027                          33.900          18.600
 121972687.296 7                  91083521.558 8  23210628.477
                  23210633.848          46.700                          49.700
 135765552.306 6                 101383393.387 7  25835325.344
                  25835330.594          39.500                          43.600
 114486038.295 7                  85492849.981 7  21785967.414
                  21785971.934          43.500                          45.900
 127799190.514 7                  95434484.951 7  24319375.539
                  24319381.387          44.600                          47.400
 128132545.729 6                  95683409.085 7  24382814.820
                  24382820.629          41.500                          44.300
 121906262.903 7                  91033924.956 8  23197988.633
                  23197994.992          46.600                          49.800
 20  7  6  0 45  9.0000000  0 18G08G27R24G30R23R13G07R12G11R14G01G16
                                E27E21E14E13E30E15
 109725725.928 7  85500613.36747  81938082.967 8  20880115.859
  20880123.734    20880123.141          44.500          47.800          51.200
 120130565.683 6  93608269.57544  89707920.191 7  22860090.547
  22860098.500    22860097.895          37.800          26.500          45.800
 112464718.821 7  87472581.424 6                  21031466.281    21031466.551
  21031471.273                          42.200          41.400
 118536080.588 6  92365797.86346  88517218.665 7  22556658.547
  22556666.113    22556666.543          38.100          36.800          46.200
 102818955.906 7  79970336.510 6                  19220917.648    19220915.500
  19220923.504                          45.200          40.900
 102874058.218 5  80013184.088 6                  19265008.328    19265008.148
  19265013.594                          32.500          41.200
 111035582.493 7  86521197.71947                  21129354.250
  21129360.027                          43.300          45.800
 110129578.304 7  85656384.174 7                  20616494.766    20616494.094
  20616498.723                          44.100          43.500
 105792124.514 7  82435393.47746                  20131555.258
  20131560.297                          42.700          36.400
 119881838.815 6  93241326.988 6                  22489493.188    22489492.504
  22489498.281                          36.200          37.600
 111333688.477 7  86753597.62647  83138864.128 8  21186103.781
  21186112.770    21186111.395          43.500          45.900          50.200
 124297435.241 5  96855185.87843                  23653022.844
  23653029.215                          34.600          18.300
 121972471.209 7                  91083360.176 8  23210587.430
                  23210592.676          46.500                          50.200
 135763245.792 6                 101381670.978 7  25834886.336
                  25834891.762          39.800                          43.700
 114480496.048 7                  85488711.293 7  21784912.508
                  21784917.336          43.400                          46.000
 127797231.238 7                  95433021.879 7  24319002.867
                  24319008.492          44.300                          47.600
 128134619.731 6                  95684957.824 7  24383209.352
                  24383215.406          41.700                          44.200
 121906970.994 7                  91034453.725 8  23198123.461
                  23198129.828          46.700                          50.100
 20  7  6  0 45 10.0000000  0 18G08G27R24G30R23R13G07R12G11R14G01G16
                                E27E21E14E13E30E15
 109727095.884 7  85501680.86047  81939105.994 8  20880376.273
  20880384.391    20880383.711          44.300          47.900          51.100
 120133247.909 6  93610359.62344  89709923.160 7  22860599.680
  22860608.859    22860608.242          37.800          26.100          45.700
 112462008.371 7  87470473.294 6                  21030960.180    21030959.445
  21030964.355                          42.100          41.700
 118534009.245 6  92364183.83346  88515671.880 7  22556264.102
  22556271.969    22556272.152          38.300          36.500          46.300
 102818861.970 7  79970263.457 6                  19220899.148    19220898.008
  19220905.906                          45.300          40.900
 102873060.690 5  80012408.226 6                  19264822.180    19264821.234
  19264826.754                          32.600          40.900
 111035290.335 7  86520970.06247                  21129298.367
  21129304.418                          43.200          45.600
 110132465.482 7  85658629.747 7                  20617034.953    20617034.633
  20617039.070                          44.200          43.900
 105791494.592 7  82434902.62446                  20131435.422
  20131440.527                          42.800          36.900
 119877947.486 6  93238300.425 6                  22488762.883    22488762.422
  22488768.289                          36.100          37.900
 111330870.864 7  86751402.08447  83136760.063 8  21185567.742
  21185576.547    21185575.090          43.700          46.000          50.000
 124300089.450 5  96857254.08143                  23653528.430
  23653534.203                          33.400          19.000
 121972255.429 7                  91083199.048 8  23210546.406
                  23210551.621          46.400                          49.600
 135760939.407 6                 101379948.647 7  25834447.227
                  25834452.793          39.900                          43.900
 114474954.018 7                  85484572.788 7  21783858.156
                  21783862.789          43.400                          46.500
 127795272.282 7                  95431559.020 7  24318629.930
                  24318635.848          44.500                          47.300
 128136693.969 6                  95686506.787 7  24383604.094
                  24383610.219          41.900                          43.800
 121907679.477 7                  91034982.786 8  23198258.414
                  23198264.578          46.800                          49.700
 20  7  6  0 45 11.0000000  0 18G08G27R24G30R23R13G07R12G11R14G01G16
                                E27E21E14E13E30E15
 109728466.055 7  85502748.52048  81940129.158 8  20880636.883
  20880645.117    20880644.598          43.800          48.000          51.600
 120135930.150 6  93612449.67344  89711926.136 7  22861110.906
  22861119.277    22861118.695          37.600          24.800          45.800
 112459298.382 6  87468365.539 6                  21030453.141    21030452.664
  21030457.598                          41.900          41.600
 118531938.434 6  92362570.21046  88514125.483 7  22555870.180
  22555877.762    22555878.137          38.500          37.400          46.300
 102818768.724 7  79970190.913 6                  19220881.602    19220880.637
  19220888.523                          45.600          41.300
 102872063.885 5  80011632.919 6                  19264636.375    19264634.516
  19264640.043                          32.800          41.300
 111034998.788 7  86520742.87847                  21129243.031
  21129249.051                          43.100          45.700
 110135353.213 7  85660875.755 7                  20617574.781    20617575.121
  20617579.625                          44.500          43.900
 105790865.201 7  82434412.19746                  20131316.094
  20131320.594                          42.400          36.800
 119874056.323 5  93235273.944 6                  22488032.750    22488032.473
  22488038.293                          35.900          38.200
 111328053.697 7  86749206.89647  83134656.338 8  21185031.063
  21185040.488    21185038.996          43.500          45.800          50.000
 124302743.816 5  96859322.41843                  23654034.203
  23654039.262                          34.000          18.300
 121972039.933 7                  91083038.121 8  23210505.445
                  23210510.586          46.600                          49.900
 135758633.023 6                 101378226.387 7  25834008.594
                  25834014.004          40.100                          43.700
 114469412.278 7                  85480434.451 7  21782803.516
                  21782808.039          43.100                          47.000
 127793313.646 7                  95430096.401 7  24318257.438
                  24318263.086          44.700                          47.700
 128138768.421 6                  95688055.877 7  24383999.117
                  24384004.695          41.600                          43.800
 121908388.301 7                  91035512.100 8  23198393.328
                  23198399.426          47.100                          49.900
 20  7  6  0 45 12.0000000  0 18G08G27R24G30R23R13G07R12G11R14G01G16
                                E27E21E14E13E30E15
 109729836.464 7  85503816.38147  81941152.530 8  20880897.898
  20880905.801    20880905.316          44.100          47.800          51.100
 120138612.478 6  93614539.80144  89713929.162 7  22861621.539
  22861629.719    22861629.117          37.100          26.500          46.000
 112456588.966 7  87466258.224 6                  21029946.031    21029945.953
  21029950.828                          42.200          41.600
 118529868.135 6  92360956.99346  88512579.492 7  22555475.672
  22555483.734    22555484.086          38.600          36.500          46.300
 102818676.158 7  79970118.927 6                  19220864.563    19220863.168
  19220871.309                          45.800          41.700
 102871067.840 5  80010858.215 6                  19264450.734    19264447.996
  19264453.410                          33.100          41.800
 111034707.933 7  86520516.23647                  21129187.695
  21129193.492                          43.200          45.700
 110138241.560 7  85663122.261 7                  20618116.539    20618115.750
  20618120.324                          44.300          43.700
 105790236.374 6  82433922.20146                  20131196.281
  20131201.059                          41.600          36.800
 119870165.296 6  93232247.610 6                  22487303.063    22487302.445
  22487308.332                          36.000          38.000
 111325237.074 7  86747012.11847  83132553.021 8  21184495.094
  21184504.684    21184503.086          43.400          46.000          50.000
 124305398.369 5  96861390.89542                  23654538.289
  23654544.371                          33.700          17.800
 121971824.779 7                  91082877.460 8  23210464.297
                  23210469.727          46.400                          50.000
 135756326.775 6                 101376504.163 7  25833569.633
                  25833575.031          39.700                          43.500
 114463870.768 7                  85476296.314 7  21781748.922
                  21781753.715          43.300                          47.000
 127791355.337 7                  95428634.029 7  24317884.563
                  24317890.531          44.800                          47.900
 128140843.115 6                  95689605.189 7  24384393.820
                  24384399.605          41.500                          43.800
 121909097.523 7                  91036041.728 8  23198528.070
                  23198534.496          46.600                          49.800
 20  7  6  0 45 13.0000000  0 18G08G27R24G30R23R13G07R12G11R14G01G16
                                E27E21E14E13E30E15
 109731207.084 7  85504884.38847  81942176.042 8  20881158.703
  20881166.766    20881166.148          43.900          47.800          51.100
 120141294.821 6  93616629.92944  89715932.207 7  22862131.531
  22862140.000    22862139.785          38.000          26.000          46.000
 112453880.073 7  87464151.287 6                  21029439.859    21029439.305
  21029444.309                          42.300          41.700
 118527798.331 6  92359344.16046  88511033.851 7  22555082.055
  22555089.977    22555090.234          38.800          37.100          46.400
 102818584.243 7  79970047.438 6                  19220847.180    19220846.227
  19220854.047                          45.500          41.600
 102870072.483 5  80010084.051 6                  19264263.070    19264261.855
  19264267.078                          33.200          41.900
 111034417.743 7  86520290.11547                  21129132.047
  21129138.270                          43.400          45.600
 110141130.491 7  85665369.198 7                  20618656.539    20618656.539
  20618661.137                          44.200          43.800
 105789608.049 7  82433432.59846                  20131075.766
  20131081.422                          42.200          36.400
 119866274.495 5  93229221.404 6                  22486573.656    22486572.695
  22486578.336                          35.400          38.400
 111322420.927 7  86744817.71647  83130450.038 8  21183959.688
  21183968.527    21183967.020          43.500          46.100          50.100
 124308053.072 5  96863459.50742                  23655043.797
  23655049.539                          33.800          17.400
 121971609.934 7                  91082717.022 8  23210423.516
                  23210428.656          46.500                          50.100
 135754020.579 6                 101374782.023 7  25833130.773
                  25833136.137          39.600                          43.500
 114458329.514 7                  85472158.354 7  21780694.789
                  21780699.055          43.200                          46.800
 127789397.358 7                  95427171.901 8  24317511.953
                  24317517.797          44.900                          48.200
 128142918.050 6                  95691154.645 7  24384788.664
                  24384794.434          41.800                          43.900
 121909807.126 7                  91036571.617 8  23198663.219
                  23198669.395          46.600                          49.900
 20  7  6  0 45 14.0000000  0 18G08G27R24G30R23R13G07R12G11R14G01G16
                                E27E21E14E13E30E15
 109732577.983 7  85505952.61847  81943199.761 8  20881419.813
  20881427.668    20881427.012          44.500          47.900          51.000
 120143977.274 6  93618720.16044  89717935.344 7  22862642.453
  22862650.379    22862650.188          37.500          26.700          46.100
 112451171.700 7  87462044.788 6                  21028933.281    21028933.172
  21028937.953                          42.300          41.800
 118525729.093 6  92357731.76046  88509488.627 7  22554687.977
  22554696.152    22554696.453          39.200          36.500          46.300
 102818493.035 7  79969976.503 6                  19220829.805    19220828.727
  19220836.949                          45.000          41.400
 102869077.955 5  80009310.504 6                  19264077.250    19264076.102
  19264080.883                          33.100          41.700
 111034128.242 7  86520064.52947                  21129077.641
  21129083.207                          43.600          45.600
 110144019.969 7  85667616.574 7                  20619197.773    20619197.410
  20619202.008                          44.000          43.900
 105788980.330 7  82432943.46546                  20130957.039
  20130961.965                          42.400          36.400
 119862383.828 5  93226195.318 6                  22485844.766    22485842.355
  22485848.523                          35.100          37.900
 111319605.293 7  86742623.71647  83128347.469 8  21183423.641
  21183432.852    21183431.238          43.400          45.900          49.800
 124310708.088 5  96865528.34442                  23655548.781
  23655554.516                          34.000          17.400
 121971395.443 7                  91082556.840 8  23210382.633
                  23210387.910          46.500                          49.700
 135751714.518 6                 101373059.971 7  25832692.031
                  25832697.309          39.800                          43.400
 114452788.545 7                  85468020.623 7  21779640.320
                  21779644.898          43.100                          46.400
 127787439.725 7                  95425710.035 7  24317139.445
                  24317145.285          44.700                          47.700
 128144993.263 6                  95692704.316 7  24385183.711
                  24385189.266          41.600                          44.000
 121910517.141 7                  91037101.827 8  23198798.375
                  23198804.496          46.600                          49.700
 20  7  6  0 45 15.0000000  0 18G08G27R24G30R23R13G07R12G11R14G01G16
                                E27E21E14E13E30E15
 109733949.129 7  85507021.05147  81944223.651 8  20881681.070
  20881688.477    20881687.922          44.500          47.700          51.300
 120146659.783 6  93620810.42744  89719938.515 7  22863152.570
  22863160.809    22863160.570          37.800          26.400          46.100
 112448463.855 7  87459938.680 6                  21028427.000    21028426.742
  21028431.660                          42.500          41.700
 118523660.353 6  92356119.75346  88507943.803 7  22554294.555
  22554302.527    22554302.707          38.700          37.100          46.300
 102818402.511 7  79969906.090 6                  19220812.742    19220812.242
  19220820.094                          45.000          41.400
 102868084.124 5  80008537.567 6                  19263890.836    19263889.480
  19263894.781                          32.900          41.800
 111033839.413 7  86519839.46647                  21129022.695
  21129028.195                          43.900          45.600
 110146909.986 7  85669864.375 7                  20619738.742    20619738.242
  20619743.078                          43.600          44.200
 105788353.137 7  82432454.74446                  20130837.625
  20130842.527                          42.700          36.300
 119858493.281 5  93223169.366 6                  22485115.523    22485112.684
  22485118.684                          35.600          38.100
 111316790.202 7  86740430.14347  83126245.276 8  21182888.656
  21182897.188    21182895.465          43.400          45.900          50.200
 124313363.190 5  96867597.27942                  23656054.820
  23656059.945                          34.300          17.800
 121971181.244 7                  91082396.901 8  23210341.813
                  23210347.250          46.500                          49.900
 135749408.592 6                 101371337.987 7  25832253.438
                  25832258.602          39.500                          43.600
 114447247.811 7                  85463883.073 7  21778585.984
                  21778590.465          42.900                          46.600
 127785482.429 7                  95424248.424 8  24316766.945
                  24316772.914          44.800                          48.100
 128147068.735 6                  95694254.162 7  24385578.492
                  24385584.082          41.400                          44.200
 121911227.529 7                  91037632.311 8  23198933.484
                  23198939.727          46.400                          50.000
 20  7  6  0 45 16.0000000  0 18G08G27R24G30R23R13G07R12G11R14G01G16
                                E27E21E14E13E30E15
 109735320.460 7  85508089.61947  81945247.715 8  20881941.555
  20881949.520    20881948.895          44.500          47.800          51.000
 120149342.376 6  93622900.75944  89721941.743 7  22863663.203
  22863671.359    22863671.059          37.800          25.600          46.000
 112445756.516 7  87457832.967 6                  21027921.047    21027920.207
  21027925.422                          42.500          41.900
 118521592.143 6  92354508.16646  88506399.359 7  22553901.445
  22553908.930    22553909.137          38.300          36.600          46.200
 102818312.648 7  79969836.191 6                  19220796.594    19220795.152
  19220803.238                          44.900          41.100
 102867091.112 5  80007765.190 6                  19263704.438    19263703.457
  19263708.699                          32.900          41.900
 111033551.267 7  86519614.93247                  21128967.578
  21128973.348                          43.700          45.600
 110149800.641 7  85672112.655 7                  20620279.742    20620279.586
  20620284.148                          43.800          43.600
 105787726.556 7  82431966.50446                  20130717.891
  20130723.352                          42.700          36.600
 119854602.986 5  93220143.561 6                  22484385.023    22484382.656
  22484388.863                          35.400          37.500
 111313975.588 7  86738236.93647  83124143.462 8  21182352.102
  21182361.504    21182359.980          43.800          45.900          49.900
 124316018.532 5  96869666.33343                  23656559.992
  23656565.270                          34.400          19.000
 121970967.409 7                  91082237.213 8  23210301.195
                  23210306.551          46.300                          49.700
 135747102.737 6                 101369616.088 7  25831814.242
                  25831819.773          39.300                          43.400
 114441707.357 7                  85459745.730 7  21777531.250
                  21777536.195          42.800                          46.300
 127783525.458 7                  95422787.055 7  24316394.531
                  24316400.531          44.800                          47.700
 128149144.444 6                  95695804.210 7  24385973.344
                  24385979.234          41.900                          44.000
 121911938.304 7                  91038163.091 8  23199068.695
                  23199074.965          46.500                          49.900
 20  7  6  0 45 17.0000000  0 18G08G27R24G30R23R13G07R12G11R14G01G16
                                E27E21E14E13E30E15
 109736691.999 7  85509158.35147  81946271.914 8  20882202.883
  20882210.316    20882209.852          44.600          47.800          51.200
 120152024.966 6  93624991.08744  89723944.983 7  22864173.805
  22864181.867    22864181.535          37.700          25.600          46.400
 112443049.632 7  87455727.626 7                  21027414.563    21027413.887
  21027419.230                          42.600          42.400
 118519524.428 6  92352896.96246  88504855.286 7  22553507.406
  22553515.551    22553515.602          38.200          36.300          46.200
 102818223.412 7  79969766.793 6                  19220780.375    19220778.453
  19220786.645                          45.100          41.100
 102866098.753 5  80006993.360 6                  19263519.844    19263517.457
  19263522.949                          32.600          41.400
 111033263.732 7  86519390.87747                  21128912.750
  21128918.656                          43.500          45.600
 110152691.824 7  85674361.354 7                  20620820.859    20620820.563
  20620825.230                          43.900          43.300
 105787100.433 7  82431478.61146                  20130599.242
  20130604.191                          42.900          36.700
 119850712.789 5  93217117.858 6                  22483654.586    22483652.641
  22483659.055                          35.500          38.000
 111311161.434 7  86736044.08747  83122041.985 8  21181816.547
  21181826.188    21181824.395          43.600          45.900          50.000
 124318674.021 5  96871735.55943                  23657064.742
  23657070.598                          34.100          18.300
 121970753.833 7                  91082077.723 8  23210260.492
                  23210265.824          46.400                          49.900
 135744796.931 6                 101367894.207 7  25831375.570
                  25831380.824          39.300                          43.700
 114436167.132 7                  85455608.525 7  21776476.938
                  21776482.063          42.600                          46.500
 127781568.804 7                  95421325.908 7  24316022.336
                  24316028.094          44.700                          47.600
 128151220.311 6                  95697354.387 7  24386368.445
                  24386374.246          41.900                          44.000
 121912649.418 7                  91038694.114 8  23199203.813
                  23199210.324          46.100                          50.100
 20  7  6  0 45 18.0000000  0 18G08G27R24G30R23R13G07R12G11R14G01G16
                                E27E21E14E13E30E15
 109738063.765 7  85510227.26647  81947296.288 8  20882463.742
  20882471.609    20882470.852          44.300          47.700          51.200
 120154707.630 6  93627081.48244  89725948.255 7  22864683.383
  22864692.359    22864692.125          37.400          25.200          46.200
 112440343.317 7  87453622.684 7                  21026908.164    21026907.898
  21026913.254                          42.900          42.400
 118517457.230 6  92351286.15646  88503311.607 7  22553113.336
  22553122.234    22553122.281          38.100          37.100          46.100
 102818134.851 7  79969697.903 6                  19220763.203    19220761.988
  19220770.070                          45.300          40.900
 102865107.179 5  80006222.127 6                  19263332.773    19263332.074
  19263337.207                          32.800          41.100
 111032976.872 7  86519167.35347                  21128858.141
  21128864.055                          43.600          45.500
 110155583.638 7  85676610.532 7                  20621362.344    20621362.051
  20621366.707                          44.100          43.100
 105786474.900 7  82430991.18246                  20130480.500
  20130485.340                          42.700          36.800
 119846822.780 5  93214092.308 6                  22482924.430    22482922.949
  22482929.402                          35.700          38.300
 111308347.792 7  86733851.63747  83119940.892 8  21181281.430
  21181290.566    21181288.867          43.400          46.000          50.000
 124321329.658 5  96873804.87842                  23657569.656
  23657576.086                          34.300          17.400
 121970540.596 7                  91081918.478 8  23210220.063
                  23210225.180          46.800                          49.900
 135742491.231 6                 101366172.417 7  25830936.727
                  25830942.137          39.400                          43.700
 114430627.145 7                  85451471.554 7  21775422.711
                  21775427.773          42.300                          46.400
 127779612.478 7                  95419865.014 7  24315649.930
                  24315655.930          44.200                          47.400
 128153296.516 6                  95698904.771 7  24386763.750
                  24386769.344          41.400                          43.600
 121913360.938 7                  91039225.436 8  23199339.305
                  23199345.641          46.300                          50.000
 20  7  6  0 45 19.0000000  0 18G08G27R24G30R23R13G07R12G11R14G01G16
                                E27E21E14E13E30E15
 109739435.820 7  85511296.39447  81948320.865 8  20882724.766
  20882732.492    20882732.051          44.600          47.800          51.200
 120157390.385 6  93629171.93744  89727951.624 7  22865194.414
  22865202.754    22865202.641          37.200          25.300          46.200
 112437637.513 7  87451518.187 7                  21026402.258    21026402.121
  21026407.156                          43.200          42.300
 118515390.594 6  92349675.78846  88501768.344 7  22552721.047
  22552728.766    22552729.023          38.400          37.200          46.100
 102818047.027 7  79969629.605 6                  19220746.188    19220745.801
  19220753.641                          45.000          41.000
 102864116.364 5  80005451.512 6                  19263148.430    19263146.289
  19263151.715                          32.800          41.500
 111032690.709 7  86518944.37147                  21128803.727
  21128809.547                          43.700          45.800
 110158476.031 7  85678860.184 7                  20621903.180    20621903.711
  20621908.191                          44.100          43.500
 105785849.948 7  82430504.21346                  20130361.477
  20130366.410                          42.900          36.600
 119842932.996 5  93211066.883 6                  22482193.789    22482193.313
  22482199.801                          35.600          38.000
 111305534.705 7  86731659.62947  83117840.196 8  21180746.133
  21180755.148    21180753.590          43.800          45.900          50.400
 124323985.551 5  96875874.41042                  23658075.492
  23658081.602                          33.800          17.400
 121970327.702 7                  91081759.511 8  23210179.305
                  23210184.734          46.700                          50.200
 135740185.635 6                 101364450.718 7  25830498.047
                  25830503.113          39.300                          43.700
 114425087.473 7                  85447334.779 7  21774368.547
                  21774373.703          42.300                          46.600
 127777656.526 7                  95418404.383 7  24315277.891
                  24315283.750          44.500                          47.700
 128155372.936 6                  95700455.352 7  24387158.891
                  24387164.578          41.500                          43.900
 121914072.868 7                  91039757.086 8  23199474.750
                  23199481.082          46.400                          50.200
 20  7  6  0 45 20.0000000  0 18G08G27R24G30R23R13G07R12G11R14G01G16
                                E27E21E14E13E30E15
 109740808.062 7  85512365.66747  81949345.604 8  20882985.836
  20882993.707    20882993.066          44.700          47.700          51.000
 120160073.143 6  93631262.39444  89729954.986 7  22865705.352
  22865713.332    22865713.023          37.600          26.100          46.200
 112434932.202 7  87449414.050 7                  21025896.680    21025895.871
  21025901.293                          43.000          42.400
 118513324.485 6  92348065.83646  88500225.442 7  22552327.805
  22552335.648    22552335.793          38.600          37.100          46.100
 102817959.834 7  79969561.777 6                  19220730.148    19220729.289
  19220737.223                          45.300          41.000
 102863126.259 5  80004681.398 6                  19262963.398    19262961.090
  19262966.293                          32.700          41.200
 111032405.188 7  86518721.88347                  21128750.219
  21128755.242                          43.600          45.600
 110161368.991 7  85681110.256 7                  20622445.297    20622444.836
  20622449.797                          43.900          43.600
 105785225.509 7  82430017.63346                  20130242.992
  20130247.285                          42.400          36.700
 119839043.304 5  93208041.598 6                  22481464.680    22481463.695
  22481470.156                          35.300          38.100
 111302722.074 7  86729467.96147  83115739.856 8  21180210.750
  21180220.055    21180218.293          43.800          45.800          50.300
 124326641.596 5  96877944.05142                  23658581.391
  23658587.285                          33.400          17.400
 121970115.099 7                  91081600.753 8  23210139.070
                  23210144.254          46.000                          49.900
 135737880.131 6                 101362729.084 7  25830059.391
                  25830064.539          39.900                          43.800
 114419548.035 7                  85443198.172 7  21773314.477
                  21773319.469          42.800                          46.800
 127775700.855 7                  95416943.982 7  24314905.703
                  24314911.531          44.700                          47.500
 128157449.587 6                  95702006.103 7  24387553.945
                  24387559.453          41.400                          44.200
 121914785.157 7                  91040288.979 8  23199610.359
                  23199616.758          46.500                          50.000
 20  7  6  0 45 21.0000000  0 18G08G27R24G30R23R13G07R12G11R14G01G16
                                E27E21E14E13E30E15
 109742180.575 7  85513435.16747  81950370.525 8  20883246.844
  20883254.941    20883254.281          44.100          47.700          51.000
 120162756.024 6  93633352.95244  89731958.435 7  22866215.031
  22866223.758    22866223.656          37.200          26.800          46.400
 112432227.492 7  87447310.386 7                  21025391.305    21025390.477
  21025395.563                          43.000          42.400
 118511258.870 6  92346456.25646  88498682.962 7  22551934.602
  22551942.480    22551942.660          39.000          36.700          46.300
 102817873.372 7  79969494.532 6                  19220713.844    19220713.262
  19220721.074                          45.300          41.300
 102862136.955 5  80003911.960 6                  19262778.391    19262775.781
  19262780.988                          32.800          41.700
 111032120.379 7  86518499.95147                  21128694.906
  21128701.188                          43.600          45.800
 110164262.550 7  85683360.815 7                  20622987.359    20622986.688
  20622991.473                          44.100          43.600
 105784601.671 7  82429531.52746                  20130123.906
  20130128.734                          42.600          36.300
 119835153.826 5  93205016.437 6                  22480735.781    22480733.781
  22480740.605                          35.600          38.200
 111299909.968 7  86727276.71447  83113639.921 8  21179675.727
  21179684.883    21179683.254          43.500          46.000          50.000
 124329297.884 5  96880013.90942                  23659087.281
  23659092.680                          33.500          17.800
 121969902.869 7                  91081442.266 8  23210098.633
                  23210103.922          46.000                          49.700
 135735574.736 6                 101361007.542 7  25829620.727
                  25829625.871          39.700                          43.600
 114414008.876 7                  85439061.792 7  21772260.789
                  21772265.512          43.200                          46.900
 127773745.548 7                  95415483.868 7  24314533.672
                  24314539.406          44.600                          47.700
 128159526.527 6                  95703557.060 7  24387949.258
                  24387954.910          41.600                          44.500
 121915497.868 7                  91040821.190 8  23199746.094
                  23199752.328          46.500                          49.800
 20  7  6  0 45 22.0000000  0 18G08G27R24G30R23R13G07R12G11R14G01G16
                                E27E21E14E13E30E15
 109743553.266 7  85514504.78947  81951395.592 8  20883508.086
  20883516.113    20883515.496          44.200          47.600          51.000
 120165438.916 6  93635443.50344  89733961.880 7  22866726.195
  22866734.188    22866734.215          37.900          25.800          45.900
 112429523.220 7  87445207.082 7                  21024884.180    21024884.598
  21024889.980                          42.900          42.100
 118509193.763 6  92344847.08346  88497140.829 7  22551542.023
  22551549.633    22551549.699          38.700          36.600          46.100
 102817787.513 7  79969427.764 6                  19220698.844    19220697.273
  19220705.156                          45.700          41.500
 102861148.293 5  80003142.999 6                  19262591.547    19262590.496
  19262595.871                          33.100          41.900
 111031836.187 7  86518278.50647                  21128641.539
  21128646.895                          43.600          45.800
 110167156.644 7  85685611.766 7                  20623528.820    20623528.367
  20623533.363                          44.100          43.700
 105783978.308 7  82429045.78946                  20130005.836
  20130010.102                          42.500          36.700
 119831264.420 6  93201991.369 6                  22480005.797    22480004.391
  22480010.965                          36.000          38.200
 111297098.332 7  86725085.83547  83111540.311 8  21179140.680
  21179149.941    21179148.367          43.400          45.900          50.000
 124331954.240 5  96882083.78042                  23659592.242
  23659598.215                          33.900          17.800
 121969690.895 7                  91081283.963 8  23210058.281
                  23210063.465          46.000                          49.800
 135733269.389 6                 101359285.997 7  25829181.922
                  25829187.219          40.200                          43.600
 114408469.916 7                  85434925.559 7  21771206.742
                  21771211.699          43.600                          46.600
 127771790.542 7                  95414023.947 7  24314161.227
                  24314167.547          44.600                          47.600
 128161603.629 6                  95705108.139 7  24388344.609
                  24388350.121          41.500                          44.500
 121916210.898 7                  91041353.645 8  23199881.695
                  23199888.051          46.600                          49.800
 20  7  6  0 45 23.0000000  0 18G08G27R24G30R23R13G07R12G11R14G01G16
                                E27E21E14E13E30E15
 109744926.250 7  85515574.64847  81952420.865 8  20883769.406
  20883777.387    20883776.770          44.200          47.500          51.200
 120168121.907 6  93637534.13644  89735965.410 7  22867236.594
  22867244.672    22867244.898          38.000          26.200          45.900
 112426819.500 7  87443104.173 7                  21024378.961    21024379.203
  21024384.410                          42.800          42.400
 118507129.226 6  92343238.35246  88495599.096 7  22551148.734
  22551156.797    22551156.875          38.800          36.800          46.400
 102817702.364 7  79969361.542 6                  19220682.727    19220681.402
  19220689.203                          45.500          41.400
 102860160.495 5  80002374.716 6                  19262407.078    19262405.680
  19262410.797                          32.700          41.800
 111031552.683 7  86518057.58247                  21128587.258
  21128593.016                          43.500          45.600
 110170051.352 7  85687863.201 7                  20624070.680    20624070.254
  20624075.328                          43.900          44.000
 105783355.529 7  82428560.50546                  20129887.422
  20129891.699                          42.900          36.300
 119827375.271 5  93198966.500 6                  22479275.961    22479274.984
  22479281.508                          35.900          38.500
 111294287.209 7  86722895.34947  83109441.108 8  21178605.633
  21178615.043    21178613.332          43.300          45.800          50.200
 124334610.881 5  96884153.84643                  23660097.109
  23660103.699                          33.700          19.000
 121969479.272 7                  91081125.949 8  23210017.859
                  23210023.328          45.900                          50.300
 135730964.172 6                 101357564.562 7  25828743.195
                  25828748.457          40.300                          43.700
 114402931.286 7                  85430789.554 7  21770152.641
                  21770157.711          43.200                          46.700
 127769835.858 7                  95412564.307 7  24313789.445
                  24313795.430          44.900                          47.200
 128163681.013 6                  95706659.456 7  24388739.828
                  24388745.484          41.600                          44.000
 121916924.351 7                  91041886.420 8  23200017.656
                  23200023.813          46.300                          49.700
 20  7  6  0 45 24.0000000  0 18G08G27R24G30R23R13G07R12G11R14G01G16
                                E27E21E14E13E30E15
 109746299.482 7  85516644.70147  81953446.330 8  20884030.750
  20884038.719    20884038.090          43.900          47.600          51.000
 120170805.004 6  93639624.86544  89737968.998 7  22867747.406
  22867755.469    22867755.465          37.900          27.500          45.900
 112424116.307 7  87441001.689 7                  21023873.961    21023873.691
  21023878.988                          42.800          42.600
 118505065.213 6  92341630.03146  88494057.813 7  22550755.977
  22550763.945    22550763.938          39.200          36.800          46.100
 102817617.972 7  79969295.894 6                  19220666.867    19220665.598
  19220673.340                          45.500          41.500
 102859173.437 5  80001606.996 6                  19262222.172    19262220.887
  19262226.070                          32.800          41.800
 111031269.897 7  86517837.23947                  21128533.664
  21128539.184                          43.800          45.700
 110172946.659 7  85690115.113 7                  20624613.109    20624612.344
  20624617.270                          43.900          43.600
 105782733.392 7  82428075.72146                  20129768.547
  20129773.188                          42.400          36.400
 119823486.348 5  93195941.770 6                  22478546.797    22478545.426
  22478551.957                          35.900          38.100
 111291476.643 7  86720705.29647  83107342.320 8  21178071.039
  21178080.164    21178078.582          43.000          45.800          50.000
 124337267.696 5  96886224.13042                  23660603.258
  23660609.398                          33.000          17.400
 121969268.042 7                  91080968.201 8  23209977.836
                  23209983.066          46.100                          50.300
 135728659.095 6                 101355843.246 7  25828304.625
                  25828309.887          40.000                          43.800
 114397392.935 7                  85426653.771 7  21769098.750
                  21769103.695          43.600                          46.600
 127767881.598 7                  95411104.944 7  24313417.570
                  24313423.699          44.600                          47.500
 128165758.732 6                  95708210.992 7  24389135.039
                  24389140.723          41.800                          43.900
 121917638.235 7                  91042419.519 8  23200153.367
                  23200159.695          46.300                          49.800
 20  7  6  0 45 25.0000000  0 18G08G27R24G30R23R13G07R12G11R14G01G16
                                E27E21E14E13E30E15
 109747672.911 7  85517714.89547  81954471.923 8  20884292.070
  20884300.117    20884299.336          43.900          47.800          50.500
 120173488.092 6  93641715.58944  89739972.608 7  22868258.000
  22868266.133    22868266.008          37.500          26.400          45.400
 112421413.607 7  87438899.597 7                  21023368.328    21023368.281
  21023373.695                          42.600          42.600
 118503001.680 6  92340022.08746  88492516.873 7  22550362.945
  22550371.371    22550371.367          39.200          36.700          45.700
 102817534.200 7  79969230.727 6                  19220651.477    19220649.980
  19220657.809                          45.600          40.900
 102858187.061 5  80000839.807 6                  19262036.625    19262036.223
  19262041.410                          32.900          41.700
 111030987.724 7  86517617.35647                  21128479.969
  21128485.594                          43.700          45.700
 110175842.513 7  85692367.431 7                  20625154.969    20625154.297
  20625159.504                          44.000          43.900
 105782111.706 7  82427591.29846                  20129649.953
  20129654.914                          42.700          36.600
 119819597.543 6  93192917.156 6                  22477818.641    22477816.094
  22477822.641                          36.100          38.900
 111288666.541 7  86718515.60747  83105243.862 8  21177536.359
  21177545.383    21177543.762          43.000          45.800          49.400
 124339924.716 5  96888294.50443                  23661108.445
  23661114.945                          33.000          18.600
 121969057.066 7                  91080810.654 8  23209937.727
                  23209943.004          46.100                          49.600
 135726354.049 6                 101354121.972 7  25827865.813
                  25827871.227          39.600                          42.800
 114391854.782 7                  85422518.153 7  21768044.727
                  21768050.027          43.500                          45.900
 127765927.610 7                  95409645.794 7  24313045.914
                  24313051.734          44.800                          47.000
 128167836.625 6                  95709762.648 7  24389530.422
                  24389536.250          41.900                          43.700
 121918352.442 7                  91042952.850 8  23200289.266
                  23200295.555          46.500                          49.200
 20  7  6  0 45 26.0000000  0 18G08G27R24G30R23R13G07R12G11R14G01G16
                                E27E21E14E13E30E15
 109749046.538 7  85518785.25947  81955497.695 8  20884553.531
  20884561.410    20884560.738          44.000          47.600          50.300
 120176171.208 6  93643806.33144  89741976.254 7  22868768.797
  22868776.566    22868776.504          37.900          26.600          45.800
 112418711.484 7  87436797.953 7                  21022862.734    21022862.844
  21022868.398                          42.700          42.400
 118500938.684 6  92338414.55646  88490976.303 7  22549971.547
  22549978.801    22549978.863          38.800          37.300          45.900
 102817451.085 7  79969166.082 6                  19220635.453    19220634.605
  19220642.160                          45.600          41.100
 102857201.470 5  80000073.222 6                  19261851.953    19261851.605
  19261856.703                          33.500          41.900
 111030706.219 7  86517398.00347                  21128426.344
  21128431.832                          43.600          45.600
 110178738.920 7  85694620.189 7                  20625697.508    20625696.320
  20625701.793                          43.800          44.000
 105781490.612 7  82427107.32346                  20129531.508
  20129536.684                          42.900          36.900
 119815708.918 5  93189892.681 6                  22477087.906    22477086.289
  22477093.004                          35.600          39.300
 111285856.911 7  86716326.28947  83103145.776 8  21177001.750
  21177010.633    21177009.207          43.000          45.800          49.400
 124342581.887 5  96890365.04243                  23661613.383
  23661620.469                          33.800          18.300
 121968846.398 7                  91080653.342 8  23209897.430
                  23209902.871          46.400                          49.400
 135724049.132 6                 101352400.731 7  25827427.383
                  25827432.699          39.800                          42.800
 114386316.892 7                  85418382.706 7  21766990.898
                  21766996.043          44.000                          45.900
 127763973.933 7                  95408186.884 7  24312673.938
                  24312679.875          44.800                          47.300
 128169914.738 6                  95711314.491 7  24389926.094
                  24389931.715          41.600                          43.400
 121919067.018 7                  91043486.472 8  23200425.047
                  23200431.523          46.100                          49.500
 20  7  6  0 45 27.0000000  0 18G08G27R24G30R23R13G07R12G11R14G01G16
                                E27E21E14E13E30E15
 109750420.382 7  85519855.78347  81956523.619 8  20884815.078
  20884822.809    20884822.266          43.700          47.600          50.900
 120178854.382 6  93645897.11744  89743979.928 7  22869279.469
  22869287.367    22869287.234          38.300          26.400          45.700
 112416009.831 7  87434696.646 7                  21022357.656    21022357.824
  21022363.195                          42.700          42.100
 118498876.157 6  92336807.38646  88489436.120 7  22549578.641
  22549586.199    22549586.320          38.400          37.500          45.800
 102817368.616 7  79969101.937 6                  19220620.422    19220619.160
  19220626.914                          45.400          40.800
 102856216.556 5  79999307.215 6                  19261668.352    19261667.211
  19261672.363                          33.500          41.900
 111030425.355 7  86517179.15047                  21128372.813
  21128378.461                          43.600          45.700
 110181635.881 7  85696873.389 7                  20626239.383    20626238.594
  20626244.176                          43.300          43.800
 105780870.018 7  82426623.74746                  20129413.367
  20129418.539                          42.500          36.500
 119811820.435 5  93186868.235 6                  22476358.617    22476357.141
  22476363.672                          35.900          38.600
 111283047.790 7  86714137.36347  83101048.038 8  21176467.141
  21176476.055    21176474.754          43.100          45.800          49.800
 124345239.210 5  96892435.69443                  23662119.461
  23662125.941                          33.300          18.600
 121968636.039 7                  91080496.253 8  23209857.484
                  23209862.852          46.100                          49.300
 135721744.248 6                 101350679.568 7  25826988.719
                  25826993.926          39.700                          43.100
 114380779.235 7                  85414247.443 7  21765937.172
                  21765942.461          43.600                          46.800
 127762020.557 7                  95406728.199 7  24312302.133
                  24312308.102          45.100                          47.300
 128171993.075 7                  95712866.497 7  24390321.836
                  24390327.324          42.300                          43.700
 121919781.968 7                  91044020.357 8  23200561.211
                  23200567.563          46.400                          49.400
 20  7  6  0 45 28.0000000  0 18G08G27R24G30R23R13G07R12G11R14G01G16
                                E27E21E14E13E30E15
 109751794.442 7  85520926.48547  81957549.701 8  20885076.352
  20885084.406    20885083.727          43.400          47.600          51.100
 120181537.613 6  93647987.95544  89745983.620 7  22869789.820
  22869797.789    22869797.590          37.900          25.100          46.100
 112413308.631 7  87432595.733 6                  21021851.695    21021852.180
  21021857.992                          42.200          41.900
 118496814.150 6  92335200.62846  88487896.315 7  22549185.742
  22549193.809    22549193.828          38.400          37.300          46.200
 102817286.799 7  79969038.321 6                  19220604.977    19220603.816
  19220611.527                          45.400          41.400
 102855232.369 5  79998541.750 6                  19261483.883    19261483.004
  19261488.148                          33.700          41.600
 111030145.138 7  86516960.79747                  21128319.508
  21128325.125                          43.400          45.700
 110184533.413 7  85699127.029 7                  20626782.070    20626781.227
  20626786.551                          43.400          44.000
 105780249.990 7  82426140.60246                  20129295.695
  20129300.461                          42.700          36.800
 119807932.060 6  93183843.998 6                  22475629.070    22475627.984
  22475634.105                          36.000          39.100
 111280239.129 7  86711948.79347  83098950.664 8  21175932.305
  21175941.570    21175940.293          43.000          46.000          50.000
 124347896.676 5  96894506.42543                  23662625.234
  23662631.418                          33.600          18.300
 121968425.982 7                  91080339.381 8  23209817.500
                  23209822.746          46.100                          49.900
 135719439.427 6                 101348958.450 7  25826550.438
                  25826555.445          40.200                          43.100
 114375241.807 7                  85410112.358 7  21764883.578
                  21764888.777          44.000                          47.100
 127760067.514 7                  95405269.751 7  24311930.609
                  24311936.547          44.400                          47.300
 128174071.635 7                  95714418.664 7  24390717.023
                  24390722.777          42.300                          44.000
 121920497.262 7                  91044554.512 8  23200697.461
                  23200703.688          46.300                          49.900
 20  7  6  0 45 29.0000000  0 18G08G27R24G30R23R13G07R12G11R14G01G16
                                E27E21E14E13E30E15
 109753168.755 7  85521997.36947  81958575.985 8  20885337.695
  20885345.957    20885345.234          42.800          47.800          51.000
 120184220.932 6  93650078.83744  89747987.399 7  22870300.336
  22870308.305    22870308.348          37.300          25.300          46.200
 112410608.016 7  87430495.271 6                  21021347.266    21021347.418
  21021353.012                          42.500          41.600
 118494752.689 6  92333594.29646  88486356.917 7  22548793.750
  22548801.699    22548801.566          38.600          36.900          46.000
 102817205.712 7  79968975.247 6                  19220589.438    19220588.824
  19220596.367                          45.200          41.000
 102854248.986 5  79997776.895 6                  19261300.000    19261298.594
  19261304.020                          32.800          41.100
 111029865.623 7  86516742.99947                  21128266.367
  21128271.844                          43.600          46.000
 110187431.551 7  85701381.134 7                  20627323.852    20627323.781
  20627329.129                          43.300          44.000
 105779630.530 7  82425657.89946                  20129178.359
  20129182.629                          42.700          36.900
 119804043.919 6  93180819.855 6                  22474898.703    22474898.156
  22474904.785                          36.600          39.000
 111277431.044 7  86709760.67447  83096853.709 8  21175398.438
  21175407.184    21175405.988          43.100          45.900          50.000
 124350554.382 5  96896577.35942                  23663132.383
  23663137.086                          33.300          17.400
 121968216.286 7                  91080182.794 8  23209777.672
                  23209782.906          46.400                          49.600
 135717134.777 6                 101347237.428 7  25826111.734
                  25826116.867          39.900                          43.200
 114369704.686 7                  85405977.498 7  21763829.906
                  21763835.012          44.000                          46.600
 127758114.835 7                  95403811.572 7  24311559.086
                  24311564.953          44.800                          47.000
 128176150.494 7                  95715971.057 7  24391112.563
                  24391118.563          42.300                          44.000
 121921213.001 7                  91045088.989 8  23200833.609
                  23200839.875          46.600                          49.800
 20  7  6  0 45 30.0000000  0 18G08G27R24G30R23R13G07R12G11R14G01G16
                                E27E21E14E13E30E15
 109754543.281 7  85523068.43947  81959602.416 8  20885598.875
  20885607.555    20885606.805          43.400          47.700          51.200
 120186904.257 6  93652169.73744  89749991.190 7  22870811.164
  22870818.945    22870818.863          37.700          25.600          46.200
 112407907.924 7  87428395.182 6                  21020842.813    21020842.750
  21020848.129                          42.600          41.800
 118492691.729 6  92331988.35546  88484817.881 7  22548401.805
  22548409.551    22548409.613          38.400          37.000          46.100
 102817125.264 7  79968912.678 6                  19220575.438    19220573.777
  19220581.254                          45.300          40.800
 102853266.327 5  79997012.607 6                  19261114.617    19261114.508
  19261119.922                          32.600          41.100
 111029586.745 7  86516525.68347                  21128212.906
  21128218.797                          43.500          45.600
 110190330.236 7  85703635.671 7                  20627866.953    20627866.535
  20627871.789                          43.600          43.800
 105779011.579 7  82425175.61246                  20129060.258
  20129064.949                          43.000          37.200
 119800155.920 6  93177795.874 6                  22474169.023    22474168.809
  22474175.473                          36.500          38.800
 111274623.394 7  86707572.89547  83094757.094 8  21174864.508
  21174873.043    21174871.719          43.200          45.800          50.200
 124353212.218 5  96898648.40242                  23663637.656
  23663642.988                          34.100          17.400
 121968006.855 7                  91080026.403 8  23209737.711
                  23209743.047          46.300                          49.700
 135714830.172 6                 101345516.438 7  25825673.055
                  25825678.141          39.400                          43.400
 114364167.791 7                  85401842.808 7  21762776.086
                  21762781.551          43.600                          46.500
 127756162.434 7                  95402353.622 7  24311187.648
                  24311193.320          44.800                          47.400
 128178229.558 6                  95717523.603 7  24391508.438
                  24391514.035          41.900                          44.100
 121921929.087 7                  91045623.727 8  23200969.867
                  23200976.238          46.300                          50.200
 20  7  6  0 45 31.0000000  0 18G08G27R24G30R23R13G07R12G11R14G01G16
                                E27E21E14E13E30E15
 109755918.070 7  85524139.69747  81960629.035 8  20885860.977
  20885868.938    20885868.465          43.500          47.800          51.100
 120189587.703 6  93654260.73844  89751995.046 7  22871321.547
  22871329.707    22871329.512          37.900          26.000          46.200
 112405208.365 7  87426295.518 6                  21020337.844    21020337.941
  21020343.250                          42.400          41.900
 118490631.330 6  92330382.84346  88483279.269 7  22548008.867
  22548017.531    22548017.375          38.100          36.800          46.300
 102817045.535 7  79968850.654 6                  19220560.352    19220559.074
  19220566.363                          45.300          40.600
 102852284.459 5  79996248.895 6                  19260930.422    19260930.734
  19260936.035                          32.600          40.800
 111029308.578 7  86516308.93547                  21128160.430
  21128165.871                          43.900          45.600
 110193229.515 7  85705890.649 7                  20628409.727    20628409.152
  20628414.363                          43.900          44.000
 105778393.207 7  82424693.76046                  20128942.398
  20128947.199                          42.500          37.200
 119796268.142 6  93174772.042 6                  22473441.531    22473440.094
  22473446.082                          36.500          39.200
 111271816.284 7  86705385.53747  83092660.876 8  21174330.039
  21174339.004    21174337.637          43.300          45.900          50.300
 124355870.322 5  96900719.64742                  23664142.805
  23664148.504                          33.200          17.400
 121967797.806 7                  91079870.290 8  23209698.063
                  23209703.383          46.200                          49.800
 135712525.692 6                 101343795.578 7  25825234.516
                  25825239.934          39.200                          43.800
 114358631.221 7                  85397708.341 7  21761722.781
                  21761727.855          43.800                          46.700
 127754210.424 7                  95400895.949 7  24310816.047
                  24310821.813          44.900                          47.400
 128180308.878 6                  95719076.345 7  24391903.828
                  24391909.926          41.800                          44.300
 121922645.584 7                  91046158.769 8  23201106.219
                  23201112.559          46.300                          49.900
 20  7  6  0 45 32.0000000  0 18G08G27R24G30R23R13G07R12G11R14G01G16
                                E27E21E14E13E30E15
 109757293.047 7  85525211.10847  81961655.809 8  20886122.695
  20886130.723    20886130.059          43.500          47.700          51.100
 120192271.185 6  93656351.75144  89753998.926 7  22871832.047
  22871840.363    22871840.121          37.500          25.500          46.000
 112402509.247 7  87424196.209 7                  21019832.891    21019833.000
  21019838.504                          42.400          42.200
 118488571.418 6  92328777.72246  88481741.013 7  22547616.930
  22547625.531    22547625.539          38.400          36.400          46.500
 102816966.438 7  79968789.134 6                  19220545.148    19220543.926
  19220551.648                          45.400          40.900
 102851303.281 5  79995485.810 6                  19260748.063    19260747.109
  19260752.121                          33.000          41.400
 111029031.030 7  86516092.66347                  21128107.773
  21128113.047                          43.900          45.500
 110196129.359 7  85708146.084 7                  20628952.734    20628952.043
  20628957.273                          44.100          44.000
 105777775.377 7  82424212.33746                  20128825.102
  20128829.656                          42.600          36.700
 119792380.480 6  93171748.309 6                  22472711.203    22472711.266
  22472716.688                          36.100          39.000
 111269009.659 7  86703198.55547  83090565.021 8  21173795.945
  21173804.852    21173803.598          43.800          46.000          50.200
 124358528.607 5  96902791.06342                  23664648.578
  23664654.309                          33.400          17.800
 121967589.045 7                  91079714.401 8  23209658.102
                  23209663.539          46.000                          49.900
 135710221.249 6                 101342074.738 7  25824796.289
                  25824801.199          39.100                          43.800
 114353094.824 7                  85393574.038 7  21760668.961
                  21760674.406          43.800                          47.000
 127752258.699 7                  95399438.502 7  24310444.820
                  24310450.441          44.500                          47.600
 128182388.441 6                  95720629.259 7  24392299.680
                  24392305.566          41.800                          44.400
 121923362.421 7                  91046694.072 8  23201242.742
                  23201248.957          46.100                          49.900
 20  7  6  0 45 33.0000000  0 18G08G27R24G30R23R13G07R12G11R14G01G16
                                E27E21E14E13E30E15
 109758668.270 7  85526282.71047  81962682.760 8  20886384.281
  20886392.332    20886391.875          43.700          47.600          51.100
 120194954.693 6  93658442.80444  89756002.850 7  22872342.977
  22872351.164    22872350.883          37.700          26.000          45.700
 112399810.642 7  87422097.291 7                  21019328.219    21019328.398
  21019333.730                          42.400          42.100
 118486512.037 6  92327173.00946  88480203.166 7  22547225.281
  22547233.605    22547233.641          37.900          37.100          46.600
 102816888.033 7  79968728.156 6                  19220530.563    19220529.535
  19220536.801                          45.700          40.500
 102850322.916 5  79994723.252 6                  19260564.898    19260563.020
  19260568.504                          33.000          41.500
 111028754.198 7  86515876.95247                  21128055.039
  21128060.441                          44.000          45.600
 110199029.770 7  85710401.958 7                  20629494.836    20629495.129
  20629500.195                          43.700          44.200
 105777158.101 7  82423731.34446                  20128707.891
  20128712.215                          42.700          36.800
 119788492.970 6  93168724.713 6                  22471983.570    22471981.711
  22471987.559                          36.400          38.500
 111266203.527 7  86701011.95947  83088469.531 8  21173262.133
  21173270.863    21173269.594          43.900          46.100          50.100
 124361186.991 5  96904862.50842                  23665154.813
  23665160.180                          33.700          17.400
 121967380.596 7                  91079558.736 8  23209618.555
                  23209623.926          46.500                          49.500
 135707916.939 6                 101340353.990 7  25824357.766
                  25824362.809          39.300                          43.800
 114347558.732 7                  85389439.928 7  21759615.594
                  21759620.965          43.900                          47.000
 127750307.312 7                  95397981.296 7  24310073.516
                  24310079.090          44.300                          47.000
 128184468.237 6                  95722182.352 7  24392695.789
                  24392701.398          41.900                          44.100
 121924079.659 7                  91047229.668 8  23201379.258
                  23201385.430          46.300                          49.600
 20  7  6  0 45 34.0000000  0 18G08G27R24G30R23R13G07R12G11R14G01G16
                                E27E21E14E13E30E15
 109760043.723 7  85527354.49247  81963709.882 8  20886646.242
  20886654.051    20886653.559          43.800          47.600          51.100
 120197638.263 6  93660533.90044  89758006.826 7  22872854.141
  22872861.973    22872861.445          37.700          26.300          45.800
 112397112.587 7  87419998.822 7                  21018823.828    21018823.715
  21018829.270                          42.400          42.200
 118484453.174 6  92325568.69946  88478665.713 7  22546833.203
  22546841.797    22546841.754          38.100          36.200          46.600
 102816810.316 7  79968667.706 6                  19220515.766    19220514.949
  19220522.207                          45.900          40.900
 102849343.235 5  79993961.309 6                  19260380.375    19260379.348
  19260385.152                          33.100          41.400
 111028477.990 7  86515661.72147                  21128002.266
  21128007.840                          44.100          45.700
 110201930.774 7  85712658.287 7                  20630038.813    20630038.215
  20630043.422                          43.300          44.000
 105776541.360 7  82423250.76246                  20128590.523
  20128594.805                          42.800          36.700
 119784605.691 6  93165701.241 6                  22471254.727    22471252.516
  22471258.309                          36.800          38.500
 111263397.900 7  86698825.75847  83086374.427 8  21172728.102
  21172736.969    21172735.781          43.700          45.900          50.200
 124363845.616 5  96906934.14642                  23665660.992
  23665666.004                          33.100          16.900
 121967172.477 7                  91079403.332 8  23209578.992
                  23209584.340          46.200                          49.900
 135705612.725 6                 101338633.314 7  25823918.945
                  25823924.320          39.600                          44.200
 114342022.884 7                  85385306.012 7  21758562.148
                  21758567.707          43.400                          46.800
 127748356.251 7                  95396524.346 7  24309702.383
                  24309707.938          44.400                          47.300
 128186548.273 6                  95723735.636 7  24393091.508
                  24393097.145          41.900                          44.000
 121924797.280 7                  91047765.553 8  23201515.789
                  23201521.965          46.200                          49.900
 20  7  6  0 45 35.0000000  0 18G08G27R24G30R23R13G07R12G11R14G01G16
                                E27E21E14E13E30E15
 109761419.417 7  85528426.46047  81964737.190 8  20886908.016
  20886915.973    20886915.379          44.500          47.800          51.200
 120200321.902 6  93662625.03244  89760010.848 7  22873363.875
  22873372.633    22873372.078          37.700          26.900          46.000
 112394415.071 7  87417900.755 7                  21018319.469    21018319.367
  21018324.609                          42.300          42.500
 118482394.863 6  92323964.81346  88477128.650 7  22546441.992
  22546450.090    22546450.055          38.800          37.000          46.400
 102816733.294 7  79968607.800 6                  19220502.008    19220500.492
  19220507.781                          46.000          40.800
 102848364.340 5  79993199.962 6                  19260197.344    19260196.160
  19260201.871                          33.100          41.000
 111028202.478 7  86515447.03347                  21127949.953
  21127955.434                          44.200          45.800
 110204832.356 7  85714915.070 7                  20630581.891    20630581.570
  20630586.637                          43.700          44.100
 105775925.214 7  82422770.65446                  20128472.555
  20128477.504                          43.000          36.600
 119780718.519 6  93162677.949 6                  22470524.156    22470523.746
  22470529.027                          36.800          38.600
 111260592.796 7  86696639.96647  83084279.704 8  21172194.063
  21172203.125    21172201.926          43.700          46.100          50.300
 124366504.464 5  96909005.98642                  23666166.609
  23666171.914                          33.500          17.800
 121966964.690 7                  91079248.155 8  23209539.406
                  23209544.633          46.400                          50.000
 135703308.622 6                 101336912.694 7  25823480.461
                  25823485.871          40.000                          44.400
 114336487.315 7                  85381172.317 7  21757508.609
                  21757514.211          43.300                          46.600
 127746405.534 7                  95395067.631 7  24309331.031
                  24309336.578          44.700                          47.200
 128188628.560 6                  95725289.100 7  24393487.469
                  24393493.055          41.600                          44.200
 121925515.287 7                  91048301.743 8  23201652.469
                  23201658.633          46.500                          50.100
 20  7  6  0 45 36.0000000  0 18G08G27R24G30R23R13G07R12G11R14G01G16
                                E27E21E14E13E30E15
 109762795.330 7  85529498.60447  81965764.661 8  20887169.555
  20887177.715    20887177.172          44.100          47.500          51.100
 120203005.607 6  93664716.24544  89762014.904 7  22873874.703
  22873883.262    22873882.715          37.700          25.800          46.300
 112391718.052 7  87415803.059 7                  21017814.469    21017815.102
  21017820.305                          42.600          42.600
 118480337.044 6  92322361.31646  88475591.961 7  22546050.336
  22546058.457    22546058.496          38.700          36.800          46.300
 102816656.937 7  79968548.412 6                  19220487.125    19220486.031
  19220493.539                          46.100          40.800
 102847386.201 5  79992439.120 6                  19260014.719    19260012.961
  19260018.781                          32.400          41.700
 111027927.631 7  86515232.87747                  21127897.672
  21127903.156                          44.100          45.600
 110207734.500 7  85717172.290 7                  20631125.227    20631124.555
  20631129.977                          43.600          44.000
 105775309.589 7  82422290.94746                  20128356.039
  20128360.410                          43.400          36.600
 119776831.533 6  93159654.721 6                  22469794.273    22469794.250
  22469799.777                          36.800          38.700
 111257788.194 7  86694454.55947  83082185.357 8  21171660.617
  21171669.480    21171668.297          43.600          46.000          50.300
 124369163.431 5  96911077.89442                  23666673.242
  23666677.934                          33.700          16.900
 121966757.216 7                  91079093.228 8  23209500.125
                  23209505.250          46.200                          49.700
 135701004.565 6                 101335192.166 7  25823042.523
                  25823047.457          39.900                          44.200
 114330951.986 7                  85377038.784 7  21756455.117
                  21756460.867          43.300                          46.500
 127744455.153 7                  95393611.171 7  24308959.805
                  24308965.359          44.200                          47.100
 128190709.115 6                  95726842.744 7  24393883.297
                  24393889.031          41.700                          44.000
 121926233.663 7                  91048838.183 8  23201789.086
                  23201795.281          46.500                          50.000
 20  7  6  0 45 37.0000000  0 18G08G27R24G30R23R13G07R12G11R14G01G16
                                E27E21E14E13E30E15
 109764171.517 7  85530570.95147  81966792.325 8  20887431.594
  20887439.566    20887439.051          44.500          47.600          51.100
 120205689.376 6  93666807.48644  89764019.038 7  22874385.453
  22874393.977    22874393.410          37.700          25.400          45.900
 112389021.581 7  87413705.810 7                  21017311.172    21017310.988
  21017316.016                          42.500          42.100
 118478279.751 6  92320758.23746  88474055.687 7  22545658.750
  22545666.996    22545667.008          38.400          37.300          46.300
 102816581.285 7  79968489.582 6                  19220472.766    19220472.051
  19220479.434                          45.800          40.600
 102846408.753 5  79991678.958 6                  19259831.922    19259830.195
  19259835.652                          32.900          41.000
 111027653.469 7  86515019.23847                  21127845.219
  21127850.949                          44.100          45.700
 110210637.276 7  85719430.018 7                  20631668.406    20631668.043
  20631673.410                          43.700          43.100
 105774694.529 7  82421811.67646                  20128238.523
  20128243.391                          42.700          36.700
 119772944.833 6  93156631.685 6                  22469066.148    22469064.992
  22469070.695                          37.100          38.400
 111254984.115 7  86692269.55747  83080091.399 8  21171127.156
  21171135.793    21171134.789          43.700          46.100          50.500
 124371822.626 5  96913150.00842                  23667179.734
  23667184.105                          33.700          17.400
 121966550.090 7                  91078938.557 8  23209460.414
                  23209465.852          46.600                          49.700
 135698700.658 6                 101333471.706 7  25822604.133
                  25822609.023          39.200                          43.800
 114325416.941 7                  85372905.483 7  21755401.891
                  21755407.566          43.400                          46.500
 127742505.122 7                  95392154.979 7  24308588.742
                  24308594.336          44.300                          47.100
 128192789.889 6                  95728396.592 7  24394279.219
                  24394285.023          41.700                          44.200
 121926952.459 7                  91049374.948 8  23201925.820
                  23201932.125          45.800                          50.000
 20  7  6  0 45 38.0000000  0 18G08G27R24G30R23R13G07R12G11R14G01G16
                                E27E21E14E13E30E15
 109765547.880 7  85531643.44647  81967820.124 8  20887693.438
  20887701.496    20887700.988          44.400          47.700          51.000
 120208373.226 6  93668898.80444  89766023.184 7  22874896.086
  22874904.723    22874904.230          37.900          26.700          45.500
 112386325.621 7  87411608.948 7                  21016806.445    21016806.594
  21016811.809                          42.300          42.200
 118476222.982 6  92319155.56146  88472519.776 7  22545267.805
  22545275.547    22545275.793          38.600          36.900          46.300
 102816506.302 7  79968431.245 6                  19220459.234    19220457.867
  19220465.344                          45.800          40.600
 102845432.150 5  79990919.301 6                  19259649.141    19259647.215
  19259652.652                          32.700          40.800
 111027379.938 7  86514806.09747                  21127792.906
  21127798.875                          43.900          45.600
 110213540.622 7  85721688.170 7                  20632211.773    20632211.688
  20632216.906                          43.700          43.600
 105774080.015 7  82421332.82646                  20128121.578
  20128126.508                          42.700          36.800
 119769058.224 6  93153608.771 6                  22468336.359    22468335.832
  22468341.426                          36.800          39.000
 111252180.501 7  86690084.93247  83077997.807 8  21170593.414
  21170602.145    21170601.367          43.500          46.200          50.300
 124374482.006 5  96915222.21943                  23667685.953
  23667690.086                          33.800          18.600
 121966343.265 7                  91078784.109 8  23209421.258
                  23209426.570          46.600                          49.700
 135696396.850 6                 101331751.314 7  25822165.469
                  25822170.699          39.300                          43.700
 114319882.160 7                  85368772.347 7  21754348.531
                  21754354.363          43.300                          46.300
 127740555.394 7                  95390699.019 7  24308217.672
                  24308223.195          44.200                          47.000
 128194870.921 6                  95729950.602 7  24394675.383
                  24394681.004          41.800                          43.800
 121927671.599 7                  91049911.970 8  23202062.648
                  23202069.016          46.100                          49.700
 20  7  6  0 45 39.0000000  0 18G08G27R24G30R23R13G07R12G11R14G01G16
                                E27E21E14E13E30E15
 109766924.417 7  85532716.07247  81968848.069 8  20887955.359
  20887963.438    20887962.895          44.100          47.700          51.200
 120211057.051 6  93670990.08544  89768027.330 7  22875407.133
  22875415.414    22875414.727          37.100          25.200          45.800
 112383630.126 7  87409512.448 6                  21016302.367    21016302.281
  21016307.766                          42.400          41.900
 118474166.671 6  92317553.23746  88470984.236 7  22544876.422
  22544884.352    22544884.398          38.700          37.200          46.600
 102816431.910 7  79968373.398 6                  19220445.258    19220443.930
  19220451.453                          45.900          40.900
 102844456.130 5  79990160.213 6                  19259465.664    19259464.145
  19259469.746                          32.400          40.900
 111027107.064 7  86514593.46147                  21127741.594
  21127746.992                          43.500          45.600
 110216444.476 7  85723946.721 7                  20632755.391    20632755.148
  20632760.605                          43.900          43.500
 105773466.010 7  82420854.39146                  20128004.766
  20128009.656                          42.700          36.900
 119765171.730 6  93150585.955 6                  22467607.914    22467606.734
  22467612.344                          37.100          38.300
 111249377.356 7  86687900.66347  83075904.540 8  21170060.164
  21170068.781    21170067.910          43.700          46.100          50.600
 124377141.454 5  96917294.52643                  23668191.875
  23668196.078                          34.000          19.900
 121966136.707 7                  91078629.863 8  23209382.023
                  23209387.180          46.400                          49.900
 135694093.059 6                 101330030.934 7  25821727.242
                  25821732.203          39.800                          43.700
 114314347.568 7                  85364639.395 7  21753295.398
                  21753301.023          43.400                          46.700
 127738605.954 7                  95389243.261 7  24307846.883
                  24307852.219          44.200                          47.600
 128196952.140 7                  95731504.745 7  24395071.203
                  24395077.129          42.300                          44.100
 121928391.092 7                  91050449.248 8  23202199.648
                  23202205.926          46.200                          50.200
 20  7  6  0 45 40.0000000  0 18G08G27R24G30R23R13G07R12G11R14G01G16
                                E27E21E14E13E30E15
 109768301.227 7  85533788.91447  81969876.200 8  20888217.984
  20888225.402    20888224.953          44.600          47.700          51.200
 120213740.930 6  93673081.41844  89770031.544 7  22875918.016
  22875926.137    22875925.457          37.600          25.700          46.300
 112380935.164 7  87407416.386 6                  21015798.320    21015798.066
  21015803.648                          42.600          41.900
 118472110.919 6  92315951.35346  88469449.103 7  22544484.883
  22544493.191    22544493.281          38.600          37.200          46.400
 102816358.204 7  79968316.078 6                  19220431.547    19220430.180
  19220437.727                          45.800          40.900
 102843480.933 5  79989401.706 6                  19259284.656    19259281.777
  19259287.125                          32.600          41.400
 111026834.837 7  86514381.33847                  21127689.563
  21127695.262                          43.400          45.700
 110219348.925 7  85726205.725 7                  20633299.383    20633298.836
  20633304.281                          43.800          43.700
 105772852.570 7  82420376.38046                  20127888.016
  20127892.973                          42.800          36.900
 119761285.411 6  93147563.301 6                  22466878.883    22466877.734
  22466883.230                          37.300          38.600
 111246574.732 7  86685716.79747  83073811.674 8  21169526.164
  21169535.574    21169534.754          43.400          46.000          50.700
 124379801.180 5  96919367.08343                  23668696.828
  23668702.344                          34.400          18.300
 121965930.487 7                  91078475.862 8  23209342.750
                  23209347.941          46.100                          50.200
 135691789.348 6                 101328310.650 7  25821288.883
                  25821293.809          39.700                          44.200
 114308813.241 7                  85360506.619 7  21752242.258
                  21752247.914          43.400                          46.900
 127736656.843 7                  95387787.766 7  24307475.617
                  24307481.270          44.200                          47.700
 128199033.623 7                  95733059.099 7  24395467.359
                  24395473.250          42.300                          44.300
 121929110.972 7                  91050986.818 8  23202336.531
                  23202342.883          46.400                          50.500
 20  7  6  0 45 41.0000000  0 18G08G27R24G30R23R13G07R12G11R14G01G16
                                E27E21E14E13E30E15
 109769678.299 7  85534861.95647  81970904.543 8  20888479.609
  20888487.547    20888486.895          44.000          47.600          51.200
 120216424.969 6  93675172.87144  89772035.853 7  22876428.078
  22876436.887    22876436.309          37.700          26.500          45.700
 112378240.765 7  87405320.735 7                  21015295.680    21015294.082
  21015299.719                          42.500          42.000
 118470055.718 6  92314349.89746  88467914.383 7  22544094.047
  22544102.059    22544102.246          38.300          37.400          46.300
 102816285.271 7  79968259.337 6                  19220418.031    19220416.605
  19220424.164                          46.000          40.600
 102842506.488 5  79988643.817 6                  19259100.508    19259098.824
  19259104.695                          32.600          41.400
 111026563.363 7  86514169.80347                  21127638.297
  21127643.582                          43.400          45.700
 110222253.987 7  85728465.230 7                  20633843.055    20633842.629
  20633848.094                          44.300          44.200
 105772239.742 7  82419898.85346                  20127771.211
  20127776.133                          42.600          36.700
 119757399.338 6  93144540.778 6                  22466149.797    22466148.734
  22466154.047                          37.600          38.400
 111243772.692 7  86683533.39147  83071719.221 8  21168993.367
  21169002.297    21169001.391          43.400          46.000          50.500
 124382461.126 5  96921439.77043                  23669203.547
  23669208.543                          34.600          19.000
 121965724.652 7                  91078322.161 8  23209303.500
                  23209308.891          46.000                          49.500
 135689485.843 6                 101326590.489 7  25820850.234
                  25820855.516          39.600                          43.900
 114303279.281 7                  85356374.109 7  21751189.313
                  21751194.934          43.500                          46.900
 127734708.148 7                  95386332.567 7  24307105.102
                  24307110.418          44.800                          47.600
 128201115.394 7                  95734613.673 7  24395863.219
                  24395869.430          42.100                          44.400
 121929831.295 7                  91051524.724 8  23202473.695
                  23202479.879          46.400                          49.800
 20  7  6  0 45 42.0000000  0 18G08G27R24G30R23R13G07R12G11R14G01G16
                                E27E21E14E13E30E15
 109771055.589 7  85535935.16947  81971933.044 8  20888742.008
  20888749.527    20888749.141          44.300          47.600          51.100
 120219109.050 6  93677264.37044  89774040.179 7  22876939.320
  22876947.492    22876946.988          37.600          25.600          45.600
 112375546.872 7  87403225.471 7                  21014790.805    21014790.344
  21014795.801                          42.800          42.200
 118468001.100 6  92312748.89946  88466380.057 7  22543703.133
  22543710.887    22543711.012          38.600          37.300          46.100
 102816212.967 7  79968203.116 6                  19220404.875    19220402.832
  19220410.586                          46.000          40.900
 102841532.842 5  79987886.509 6                  19258918.328    19258916.664
  19258922.359                          32.600          41.000
 111026292.531 7  86513958.76547                  21127586.547
  21127592.039                          43.600          45.600
 110225159.639 7  85730725.173 7                  20634387.711    20634386.457
  20634392.086                          44.300          44.200
 105771627.431 7  82419421.72846                  20127654.805
  20127659.688                          42.600          36.600
 119753513.381 6  93141518.369 6                  22465420.234    22465420.184
  22465425.094                          37.500          38.900
 111240971.093 7  86681350.32747  83069627.136 8  21168460.633
  21168469.285    21168468.277          43.700          46.100          50.300
 124385121.209 5  96923512.54243                  23669709.430
  23669714.863                          34.300          19.000
 121965519.115 7                  91078168.670 8  23209264.281
                  23209269.664          46.100                          49.600
 135687182.375 6                 101324870.382 7  25820411.773
                  25820417.039          40.100                          44.000
 114297745.509 7                  85352241.764 7  21750136.125
                  21750141.820          43.700                          47.000
 127732759.745 7                  95384877.592 7  24306734.273
                  24306739.750          44.500                          47.500
 128203197.408 6                  95736168.421 7  24396259.664
                  24396265.629          41.800                          44.400
 121930551.974 7                  91052062.898 8  23202610.727
                  23202617.066          46.400                          49.800
 20  7  6  0 45 43.0000000  0 18G08G27R24G30R23R13G07R12G11R14G01G16
                                E27E21E14E13E30E15
 109772433.113 7  85537008.56747  81972961.687 8  20889004.289
  20889011.719    20889011.129          44.300          47.700          51.100
 120221793.107 6  93679355.84744  89776044.517 7  22877449.898
  22877458.281    22877457.969          37.500          26.100          45.600
 112372853.466 7  87401130.607 7                  21014286.461    21014286.488
  21014292.148                          42.800          42.000
 118465946.884 6  92311148.21246  88464846.071 7  22543311.930
  22543320.137    22543320.090          38.400          37.000          46.200
 102816141.294 7  79968147.368 6                  19220390.250    19220389.820
  19220397.176                          45.700          40.400
 102840559.836 5  79987129.771 6                  19258736.352    19258734.797
  19258740.117                          32.800          41.300
 111026022.321 7  86513748.21147                  21127535.195
  21127540.559                          43.900          45.600
 110228065.798 7  85732985.524 7                  20634931.008    20634930.703
  20634936.156                          43.900          44.100
 105771015.628 7  82418944.99746                  20127538.344
  20127543.293                          42.500          36.900
 119749627.584 6  93138496.074 6                  22464692.617    22464691.098
  22464696.195                          37.500          38.600
 111238169.965 7  86679167.63447  83067535.393 8  21167926.586
  21167936.113    21167935.277          43.500          45.900          50.400
 124387781.481 5  96925585.49843                  23670216.445
  23670221.105                          34.000          19.600
 121965313.865 7                  91078015.397 8  23209225.484
                  23209230.629          46.200                          49.800
 135684878.965 6                 101323150.306 7  25819973.656
                  25819978.832          39.900                          43.900
 114292212.000 7                  85348109.584 7  21749083.219
                  21749088.805          43.600                          46.800
 127730811.642 7                  95383422.845 7  24306363.680
                  24306368.867          44.400                          47.300
 128205279.608 6                  95737723.319 7  24396655.625
                  24396661.922          41.800                          43.500
 121931272.997 7                  91052601.315 8  23202747.891
                  23202754.113          46.500                          49.800
 20  7  6  0 45 44.0000000  0 18G08G27R24G30R23R13G07R12G11R14G01G16
                                E27E21E14E13E30E15
 109773810.873 7  85538082.14247  81973990.557 8  20889266.516
  20889273.891    20889273.438          44.300          47.600          51.000
 120224477.327 6  93681447.43344  89778048.936 7  22877960.797
  22877969.113    22877968.570          37.900          25.200          45.600
 112370160.609 7  87399036.174 6                  21013783.430    21013783.160
  21013788.480                          42.200          41.800
 118463893.276 6  92309548.00346  88463312.533 7  22542920.766
  22542929.293    22542929.469          38.500          37.300          46.100
 102816070.363 7  79968092.193 6                  19220377.922    19220376.488
  19220383.844                          45.900          41.200
 102839587.661 5  79986373.638 6                  19258556.133    19258552.488
  19258557.941                          33.100          41.400
 111025752.831 7  86513538.21547                  21127484.023
  21127489.336                          44.000          45.600
 110230972.576 7  85735246.350 7                  20635475.016    20635474.852
  20635480.328                          43.400          44.400
 105770404.457 7  82418468.76246                  20127422.281
  20127427.133                          43.000          37.100
 119745742.019 6  93135473.966 6                  22463963.320    22463962.102
  22463967.324                          37.600          38.000
 111235369.423 7  86676985.39447  83065444.071 8  21167394.648
  21167403.293    21167402.207          43.200          46.100          50.300
 124390441.981 5  96927658.62143                  23670722.227
  23670727.406                          34.600          19.600
 121965108.985 7                  91077862.402 8  23209186.367
                  23209191.680          46.200                          49.600
 135682575.707 6                 101321430.338 7  25819535.398
                  25819540.672          40.100                          43.600
 114286678.787 7                  85343977.644 7  21748030.344
                  21748035.844          43.500                          46.300
 127728863.932 7                  95381968.376 7  24305993.117
                  24305998.297          44.300                          46.900
 128207362.121 6                  95739278.428 7  24397052.328
                  24397058.313          41.900                          43.700
 121931994.455 7                  91053140.078 8  23202885.117
                  23202891.516          46.600                          49.700
 20  7  6  0 45 45.0000000  0 18G08G27R24G30R23R13G07R12G11R14G01G16
                                E27E21E14E13E30E15
 109775188.830 7  85539155.87547  81975019.543 8  20889528.430
  20889536.102    20889535.590          43.900          47.600          51.200
 120227161.488 6  93683538.99344  89780053.375 7  22878471.758
  22878480.059    22878479.371          37.600          26.400          45.500
 112367468.226 7  87396942.085 6                  21013280.188    21013279.742
  21013285.035                          42.400          41.800
 118461840.123 6  92307948.13546  88461779.344 7  22542530.727
  22542538.672    22542538.680          38.200          37.600          46.300
 102816000.045 7  79968037.503 6                  19220364.391    19220363.191
  19220370.781                          46.100          41.100
 102838616.145 5  79985618.031 6                  19258373.289    19258370.570
  19258376.168                          32.400          41.400
 111025483.955 7  86513328.70447                  21127432.570
  21127438.242                          44.200          45.600
 110233879.872 7  85737507.566 7                  20636019.836    20636019.223
  20636024.570                          43.500          44.300
 105769793.775 7  82417992.90346                  20127305.688
  20127310.691                          42.800          36.800
 119741856.586 6  93132451.951 6                  22463234.242    22463233.520
  22463238.410                          37.300          38.300
 111232569.281 7  86674803.46247  83063353.081 8  21166860.680
  21166870.363    21166869.520          43.400          46.000          50.500
 124393102.579 5  96929731.78743                  23671228.250
  23671233.809                          34.400          20.100
 121964904.373 7                  91077709.606 8  23209147.422
                  23209152.703          45.900                          49.600
 135680272.509 6                 101319710.418 7  25819096.891
                  25819102.086          40.400                          43.700
 114281145.787 7                  85339845.860 7  21746977.359
                  21746982.754          43.500                          46.800
 127726916.480 7                  95380514.118 7  24305622.539
                  24305627.695          44.600                          47.500
 128209444.789 6                  95740833.690 7  24397448.586
                  24397454.559          41.800                          43.800
 121932716.251 7                  91053679.074 8  23203022.523
                  23203028.781          46.600                          50.100
 20  7  6  0 45 46.0000000  0 18G08G27R24G30R23R13G07R12G11R14G01G16
                                E27E21E14E13E30E15
 109776567.018 7  85540229.78947  81976048.709 8  20889790.773
  20889798.375    20889797.832          43.900          47.700          51.300
 120229845.726 6  93685630.60844  89782057.851 7  22878982.469
  22878990.770    22878990.391          37.400          26.400          45.800
 112364776.371 7  87394848.423 6                  21012776.648    21012776.215
  21012781.703                          42.800          41.600
 118459787.523 6  92306348.71746  88460246.548 7  22542140.094
  22542148.141    22542148.078          38.700          37.700          46.600
 102815930.439 7  79967983.357 6                  19220351.453    19220349.953
  19220357.871                          45.400          41.200
 102837645.448 5  79984862.983 6                  19258191.445    19258189.313
  19258194.445                          32.700          41.400
 111025215.759 7  86513119.71747                  21127381.406
  21127387.094                          43.700          45.500
 110236787.747 7  85739769.268 7                  20636564.109    20636563.555
  20636568.809                          43.700          44.200
 105769183.627 7  82417517.46946                  20127189.430
  20127194.621                          42.800          36.800
 119737971.348 6  93129430.104 6                  22462504.703    22462504.586
  22462509.527                          37.300          38.500
 111229769.712 7  86672621.97947  83061262.472 8  21166328.531
  21166337.629    21166336.730          43.000          46.000          50.800
 124395763.415 5  96931805.17843                  23671734.531
  23671740.230                          34.800          19.300
 121964700.105 7                  91077557.063 8  23209108.688
                  23209113.848          46.200                          50.100
 135677969.423 6                 101317990.570 7  25818658.742
                  25818664.004          41.000                          44.000
 114275613.041 7                  85335714.275 7  21745924.477
                  21745929.926          43.700                          47.200
 127724969.396 7                  95379060.116 7  24305251.852
                  24305257.148          44.600                          47.400
 128211527.761 6                  95742389.131 7  24397844.547
                  24397850.906          41.600                          44.200
 121933438.425 7                  91054218.360 8  23203160.047
                  23203166.336          46.300                          50.500
 20  7  6  0 45 47.0000000  0 18G08G27R24G30R23R13G07R12G11R14G01G16
                                E27E21E14E13E30E15
 109777945.463 7  85541303.89947  81977078.068 8  20890053.086
  20890060.613    20890060.082          44.100          47.600          51.100
 120232530.083 6  93687722.30544  89784062.380 7  22879493.164
  22879501.539    22879500.934          37.400          27.200          45.400
 112362085.095 7  87392755.202 6                  21012273.820    21012272.746
  21012278.480                          42.300          41.900
 118457735.454 6  92304749.70046  88458714.153 7  22541749.422
  22541757.492    22541757.629          38.800          37.400          46.600
 102815861.501 7  79967929.753 6                  19220338.297    19220337.246
  19220344.953                          45.600          40.900
 102836675.462 5  79984108.564 6                  19258008.781    19258008.172
  19258012.797                          32.800          41.100
 111024948.251 7  86512911.26947                  21127330.500
  21127336.141                          43.900          45.400
 110239696.246 7  85742031.420 7                  20637108.461    20637107.930
  20637113.293                          43.900          44.000
 105768574.094 7  82417042.50646                  20127073.875
  20127078.645                          42.800          36.600
 119734086.259 6  93126408.401 6                  22461775.805    22461775.773
  22461780.777                          37.100          37.900
 111226970.638 7  86670440.88547  83059172.251 8  21165795.734
  21165805.031    21165804.105          43.400          45.900          50.300
 124398424.414 5  96933878.65243                  23672240.766
  23672246.816                          34.100          19.000
 121964496.157 7                  91077404.774 8  23209069.711
                  23209075.031          46.800                          49.700
 135675666.401 6                 101316270.787 7  25818220.336
                  25818225.758          40.500                          43.900
 114270080.610 7                  85331582.901 7  21744871.859
                  21744877.035          43.600                          47.000
 127723022.632 7                  95377606.377 7  24304881.266
                  24304886.621          44.800                          47.000
 128213610.983 6                  95743944.769 7  24398241.242
                  24398247.621          41.400                          44.000
 121934161.006 7                  91054757.949 8  23203297.813
                  23203303.852          45.900                          49.700
 20  7  6  0 45 48.0000000  0 18G08G27R24G30R23R13G07R12G11R14G01G16
                                E27E21E14E13E30E15
 109779324.119 7  85542378.17847  81978107.582 8  20890315.398
  20890323.027    20890322.520          44.100          47.500          51.200
 120235214.454 6  93689814.03444  89786066.972 7  22880003.516
  22880012.188    22880011.793          37.600          26.500          45.500
 112359394.304 7  87390662.374 6                  21011770.180    21011770.086
  21011775.359                          42.100          41.900
 118455683.880 6  92303151.06646  88457182.169 7  22541359.055
  22541367.117    22541367.160          38.500          37.700          46.100
 102815793.252 7  79967876.671 6                  19220325.969    19220324.637
  19220332.262                          45.600          40.700
 102835706.216 5  79983354.717 6                  19257828.414    19257826.066
  19257831.344                          32.400          41.400
 111024681.415 7  86512703.34647                  21127279.641
  21127285.500                          43.900          45.600
 110242605.349 7  85744294.037 7                  20637653.047    20637652.402
  20637657.930                          44.000          44.000
 105767965.085 7  82416567.95246                  20126957.766
  20126962.938                          43.000          36.900
 119730201.353 6  93123386.763 6                  22461047.516    22461046.582
  22461051.969                          37.200          38.200
 111224172.043 7  86668260.16047  83057082.400 8  21165263.461
  21165272.500    21165271.570          43.000          46.000          50.400
 124401085.672 5  96935952.35943                  23672747.523
  23672753.273                          34.100          19.300
 121964292.548 7                  91077252.727 8  23209031.070
                  23209036.219          46.400                          49.800
 135673363.510 6                 101314551.089 7  25817782.000
                  25817787.219          40.500                          43.700
 114264548.405 7                  85327451.725 7  21743819.063
                  21743824.273          43.800                          47.100
 127721076.212 7                  95376152.881 7  24304511.078
                  24304516.336          44.300                          47.400
 128215694.433 6                  95745500.600 7  24398637.805
                  24398644.055          41.300                          43.900
 121934883.966 7                  91055297.816 8  23203435.164
                  23203441.410          46.400                          50.000
 20  7  6  0 45 49.0000000  0 18G08G27R24G30R23R13G07R12G11R14G01G16
                                E27E21E14E13E30E15
 109780702.994 7  85543452.62547  81979137.259 8  20890577.625
  20890585.316    20890584.910          43.800          47.600          51.100
 120237898.916 6  93691905.80944  89788071.565 7  22880515.148
  22880522.914    22880522.457          37.200          26.300          45.600
 112356704.037 6  87388569.938 6                  21011267.078    21011267.102
  21011272.145                          41.800          41.500
 118453632.856 6  92301552.86246  88455650.536 7  22540969.164
  22540976.816    22540977.031          38.300          37.400          46.200
 102815725.676 7  79967824.103 6                  19220312.984    19220311.895
  19220319.590                          45.200          41.400
 102834737.701 5  79982601.460 6                  19257646.586    19257644.582
  19257649.949                          32.800          41.400
 111024415.223 7  86512495.92147                  21127228.844
  21127234.953                          43.700          45.400
 110245514.985 7  85746557.100 7                  20638197.758    20638197.039
  20638202.590                          43.600          43.800
 105767356.594 7  82416093.79946                  20126841.891
  20126847.230                          43.200          36.300
 119726316.579 6  93120365.276 6                  22460319.781    22460318.074
  22460323.145                          37.500          38.500
 111221373.973 7  86666079.84447  83054992.921 8  21164730.414
  21164740.012    21164739.098          43.000          46.000          50.800
 124403747.038 5  96938026.16843                  23673253.953
  23673259.797                          34.600          19.900
 121964089.228 7                  91077100.892 8  23208992.109
                  23208997.566          46.500                          50.600
 135671060.682 6                 101312831.443 7  25817344.117
                  25817349.125          40.400                          43.600
 114259016.486 7                  85323320.728 7  21742766.445
                  21742771.555          43.900                          47.300
 127719130.103 7                  95374699.615 7  24304140.820
                  24304145.941          44.400                          47.800
 128217778.085 6                  95747056.590 7  24399034.242
                  24399040.449          41.700                          44.300
 121935607.282 7                  91055837.968 8  23203572.891
                  23203579.027          46.300                          50.200
 20  7  6  0 45 50.0000000  0 18G08G27R24G30R23R13G07R12G11R14G01G16
                                E27E21E14E13E30E15
 109782082.081 7  85544527.23747  81980167.093 8  20890839.813
  20890847.938    20890847.258          43.800          47.600          51.000
 120240583.412 6  93693997.62744  89790076.235 7  22881026.055
  22881033.652    22881033.449          37.000          25.600          46.200
 112354014.267 7  87386477.898 6                  21010765.594    21010763.980
  21010769.078                          42.100          41.800
 118451582.316 6  92299955.05046  88454119.303 7  22540578.578
  22540586.766    22540586.781          38.600          36.800          46.000
 102815658.789 7  79967772.078 6                  19220300.602    19220299.363
  19220306.992                          45.400          40.800
 102833769.981 5  79981848.737 6                  19257466.070    19257463.504
  19257468.719                          32.600          41.300
 111024149.690 7  86512289.01047                  21127178.617
  21127184.316                          43.600          45.400
 110248425.182 7  85748820.603 7                  20638742.625    20638741.676
  20638747.273                          43.500          44.200
 105766748.673 7  82415620.10046                  20126726.844
  20126731.363                          42.700          36.400
 119722431.978 6  93117343.953 6                  22459589.719    22459589.238
  22459594.453                          36.900          38.700
 111218576.390 7  86663899.90747  83052903.822 8  21164198.898
  21164207.508    21164206.727          42.800          46.000          50.400
 124406408.582 5  96940100.07943                  23673760.289
  23673766.332                          34.800          19.000
 121963886.235 7                  91076949.315 8  23208953.906
                  23208958.969          46.900                          49.900
 135668757.935 6                 101311111.885 7  25816905.648
                  25816910.809          40.100                          43.300
 114253484.780 7                  85319189.917 7  21741713.688
                  21741719.008          43.900                          46.800
 127717184.323 7                  95373246.606 7  24303770.242
                  24303775.641          44.300                          47.700
 128219862.004 6                  95748612.759 7  24399430.906
                  24399437.129          41.600                          44.700
 121936330.976 7                  91056378.386 8  23203710.492
                  23203716.789          46.300                          49.800
 20  7  6  0 45 51.0000000  0 18G08G27R24G30R23R13G07R12G11R14G01G16
                                E27E21E14E13E30E15
 109783461.428 7  85545602.05147  81981197.128 8  20891102.281
  20891110.199    20891109.730          43.900          47.600          51.000
 120243267.975 6  93696089.49544  89792080.940 7  22881536.453
  22881544.484    22881544.375          36.800          25.200          45.500
 112351325.039 7  87384386.291 6                  21010261.305    21010261.129
  21010266.168                          42.400          41.400
 118449532.364 6  92298357.68146  88452588.474 7  22540188.977
  22540196.512    22540196.473          38.700          37.300          46.000
 102815592.587 7  79967720.594 6                  19220287.719    19220287.055
  19220294.574                          45.400          41.000
 102832803.014 5  79981096.638 6                  19257284.656    19257282.313
  19257287.527                          32.900          41.600
 111023884.865 7  86512082.65847                  21127127.813
  21127133.699                          43.900          45.500
 110251335.983 7  85751084.553 7                  20639287.320    20639286.695
  20639292.168                          43.900          44.000
 105766141.315 7  82415146.83846                  20126611.234
  20126615.844                          42.500          36.400
 119718547.616 6  93114322.779 6                  22458862.414    22458860.371
  22458865.738                          37.100          38.600
 111215779.328 7  86661720.38247  83050815.111 8  21163666.039
  21163675.305    21163674.387          42.600          46.000          50.200
 124409070.368 5  96942174.21343                  23674267.133
  23674272.887                          35.400          19.300
 121963683.589 7                  91076797.983 8  23208915.188
                  23208920.422          46.400                          49.600
 135666455.323 6                 101309392.401 7  25816467.719
                  25816472.859          39.800                          43.400
 114247953.385 7                  85315059.345 7  21740661.047
                  21740666.238          43.400                          46.600
 127715238.908 7                  95371793.850 7  24303400.164
                  24303405.449          44.200                          47.200
 128221946.191 6                  95750169.137 7  24399827.445
                  24399833.773          41.600                          44.500
 121937055.090 7                  91056919.116 8  23203848.234
                  23203854.648          46.100                          49.800
 20  7  6  0 45 52.0000000  0 18G08G27R24G30R23R13G07R12G11R14G01G16
                                E27E21E14E13E30E15
 109784841.033 7  85546677.06747  81982227.334 8  20891365.375
  20891372.816    20891372.270          44.100          47.800          51.200
 120245952.607 6  93698181.40344  89794085.694 7  22882047.664
  22882055.496    22882055.105          37.100          26.400          45.600
 112348636.332 7  87382295.057 6                  21009758.078    21009758.559
  21009763.313                          42.700          41.800
 118447482.906 6  92296760.69346  88451058.042 7  22539798.516
  22539806.676    22539806.535          38.300          36.900          45.900
 102815527.077 7  79967669.652 6                  19220275.516    19220274.750
  19220282.441                          45.600          41.000
 102831836.762 5  79980345.127 6                  19257102.461    19257101.734
  19257106.566                          33.000          41.200
 111023620.693 7  86511876.80747                  21127077.930
  21127083.680                          43.600          45.600
 110254247.401 7  85753348.982 7                  20639832.328    20639831.777
  20639837.199                          43.900          43.700
 105765534.530 7  82414674.02046                  20126495.203
  20126500.441                          42.500          36.700
 119714663.459 6  93111301.761 6                  22458134.086    22458131.551
  22458137.047                          37.300          38.800
 111212982.786 7  86659541.25947  83048726.793 8  21163133.820
  21163143.055    21163142.133          42.600          46.000          50.200
 124411732.335 5  96944248.47543                  23674774.070
  23674779.520                          35.500          18.600
 121963481.280 7                  91076646.907 8  23208876.602
                  23208881.863          46.800                          49.800
 135664152.845 6                 101307672.997 7  25816029.094
                  25816034.508          39.900                          43.600
 114242422.271 7                  85310928.958 7  21739608.500
                  21739613.715          43.700                          46.700
 127713293.823 7                  95370341.355 7  24303029.969
                  24303035.242          44.300                          47.600
 128224030.640 6                  95751725.693 7  24400223.836
                  24400230.410          41.200                          44.400
 121937779.598 7                  91057460.137 8  23203986.289
                  23203992.449          46.500                          50.100
 20  7  6  0 45 53.0000000  0 18G08G27R24G30R23R13G07R12G11R14G01G16
                                E27E21E14E13E30E15
 109786220.780 7  85547752.19547  81983257.676 8  20891627.531
  20891635.293    20891634.824          43.900          47.700          51.100
 120248637.269 6  93700273.36644  89796090.471 7  22882558.352
  22882566.324    22882566.184          36.900          25.800          45.700
 112345948.099 7  87380204.211 7                  21009255.719    21009255.688
  21009260.832                          42.600          42.100
 118445433.947 6  92295164.10346  88449527.981 7  22539408.148
  22539416.723    22539416.719          38.600          37.300          46.200
 102815462.191 7  79967619.188 6                  19220264.148    19220262.656
  19220270.203                          45.900          41.300
 102830871.270 5  79979594.166 6                  19256922.656    19256920.359
  19256925.836                          32.400          41.700
 111023357.154 7  86511671.45547                  21127027.602
  21127033.469                          43.700          45.500
 110257159.317 7  85755613.805 7                  20640377.242    20640376.816
  20640382.375                          44.000          43.700
 105764928.259 7  82414201.59646                  20126380.344
  20126385.004                          42.500          37.100
 119710779.425 6  93108280.820 6                  22457403.844    22457403.168
  22457408.488                          36.500          38.300
 111210186.690 7  86657362.48747  83046638.799 8  21162602.109
  21162611.000    21162610.027          42.600          45.800          50.500
 124414394.398 5  96946322.81243                  23675281.227
  23675286.070                          35.000          19.600
 121963279.237 7                  91076496.032 8  23208838.125
                  23208843.547          46.800                          49.700
 135661850.373 6                 101305953.621 7  25815591.375
                  25815596.254          39.300                          43.200
 114236891.366 7                  85306798.737 7  21738556.195
                  21738561.289          43.600                          46.500
 127711349.028 7                  95368889.063 7  24302659.703
                  24302665.160          44.700                          47.600
 128226115.268 6                  95753282.403 7  24400620.773
                  24400627.309          41.300                          43.800
 121938504.437 7                  91058001.414 8  23204124.320
                  23204130.324          46.600                          50.000
 20  7  6  0 45 54.0000000  0 18G08G27R24G30R23R13G07R12G11R14G01G16
                                E27E21E14E13E30E15
 109787600.784 7  85548827.52347  81984288.203 8  20891890.102
  20891898.180    20891897.531          43.800          47.600          51.100
 120251321.981 6  93702365.33144  89798095.285 7  22883068.852
  22883077.090    22883077.082          36.800          26.700          45.800
 112343260.392 7  87378113.773 6                  21008753.289    21008752.777
  21008758.262                          42.600          41.700
 118443385.525 6  92293567.93346  88447998.302 7  22539018.211
  22539026.992    22539026.762          38.700          37.300          46.000
 102815397.977 7  79967569.243 6                  19220251.656    19220250.563
  19220258.270                          45.800          41.000
 102829906.492 5  79978843.849 6                  19256743.477    19256739.355
  19256745.219                          32.600          41.500
 111023094.304 7  86511466.63247                  21126977.578
  21126983.402                          43.700          45.700
 110260071.802 7  85757879.066 7                  20640922.883    20640922.102
  20640927.387                          43.800          44.200
 105764322.542 7  82413729.61146                  20126265.086
  20126269.816                          42.400          37.000
 119706895.505 6  93105260.020 6                  22456675.109    22456674.609
  22456679.758                          36.400          38.300
 111207391.120 7  86655184.12447  83044551.198 8  21162070.078
  21162079.223    21162078.195          42.900          46.000          50.400
 124417056.706 5  96948397.32243                  23675787.930
  23675792.613                          35.000          19.000
 121963077.520 7                  91076345.409 8  23208799.813
                  23208805.031          46.500                          49.800
 135659548.007 6                 101304234.324 7  25815153.242
                  25815158.270          39.500                          43.200
 114231360.710 7                  85302668.701 7  21737503.883
                  21737508.672          43.700                          46.700
 127709404.565 7                  95367437.038 7  24302289.695
                  24302295.293          44.600                          47.000
 128228200.153 6                  95754839.295 7  24401017.453
                  24401023.891          41.300                          44.100
 121939229.639 7                  91058542.972 8  23204262.125
                  23204268.383          46.600                          50.500
 20  7  6  0 45 55.0000000  0 18G08G27R24G30R23R13G07R12G11R14G01G16
                                E27E21E14E13E30E15
 109788981.052 7  85549903.06247  81985318.912 8  20892152.914
  20892160.762    20892160.152          43.900          47.700          51.000
 120254006.762 6  93704457.36844  89800100.158 7  22883579.781
  22883587.930    22883587.758          37.000          26.400          45.700
 112340573.262 7  87376023.777 7                  21008250.781    21008250.512
  21008255.641                          42.500          42.300
 118441337.650 6  92291972.18446  88446469.041 7  22538628.820
  22538637.121    22538637.074          38.600          37.300          45.900
 102815334.469 7  79967519.830 6                  19220240.125    19220238.758
  19220246.270                          45.800          41.300
 102828942.540 5  79978094.081 6                  19256562.156    19256559.309
  19256564.668                          33.300          41.500
 111022832.120 7  86511262.33247                  21126928.305
  21126933.500                          43.900          45.600
 110262984.909 7  85760144.814 7                  20641468.656    20641467.430
  20641472.676                          43.800          43.900
 105763717.373 7  82413258.03846                  20126149.656
  20126154.551                          42.300          36.600
 119703011.781 6  93102239.351 6                  22455946.430    22455945.836
  22455951.211                          36.400          38.400
 111204596.089 7  86653006.17247  83042463.987 8  21161538.156
  21161547.191    21161546.160          42.800          46.200          50.300
 124419719.192 5  96950471.97743                  23676293.945
  23676299.281                          35.500          19.000
 121962876.162 7                  91076195.037 8  23208761.523
                  23208766.762          46.300                          49.500
 135657245.770 6                 101302515.117 7  25814715.055
                  25814720.156          39.800                          43.300
 114225830.370 7                  85298538.899 7  21736451.172
                  21736456.289          43.600                          46.300
 127707460.461 7                  95365985.276 7  24301919.922
                  24301925.133          44.700                          46.800
 128230285.301 6                  95756396.395 7  24401414.367
                  24401420.840          41.100                          44.100
 121939955.257 7                  91059084.831 8  23204400.188
                  23204406.457          46.800                          49.700
 20  7  6  0 45 56.0000000  0 18G08G27R24G30R23R13G07R12G11R14G01G16
                                E27E21E14E13E30E15
 109790361.500 7  85550978.73047  81986349.781 8  20892415.695
  20892423.348    20892422.750          44.100          47.800          51.300
 120256691.577 6  93706549.43344  89802105.049 7  22884090.602
  22884098.797    22884098.797          36.900          26.800          45.900
 112337886.594 7  87373934.156 7                  21007748.047    21007747.879
  21007753.344                          42.700          42.300
 118439290.237 6  92290376.80146  88444940.135 7  22538239.375
  22538247.641    22538247.441          38.300          37.500          46.000
 102815271.568 7  79967470.922 6                  19220228.523    19220226.957
  19220234.770                          45.800          41.200
 102827979.256 5  79977344.887 6                  19256381.242    19256378.570
  19256384.234                          32.900          41.800
 111022570.564 7  86511058.51947                  21126877.836
  21126883.871                          44.100          45.500
 110265898.522 7  85762410.960 7                  20642014.000    20642013.164
  20642018.160                          43.700          44.000
 105763112.762 7  82412786.92146                  20126034.922
  20126039.453                          42.600          36.500
 119699128.238 6  93099218.801 6                  22455218.766    22455216.652
  22455222.684                          36.700          37.600
 111201801.514 7  86650828.58347  83040377.137 8  21161006.188
  21161015.379    21161014.465          42.400          46.000          50.400
 124422381.829 5  96952546.78743                  23676801.094
  23676805.957                          35.700          19.300
 121962675.086 7                  91076044.875 8  23208723.219
                  23208728.410          46.600                          49.800
 135654943.577 6                 101300795.966 7  25814277.000
                  25814282.141          39.800                          43.400
 114220300.240 7                  85294409.258 7  21735398.969
                  21735403.770          44.200                          46.300
 127705516.646 7                  95364533.717 7  24301549.930
                  24301555.371          45.300                          47.200
 128232370.663 6                  95757953.622 7  24401811.258
                  24401817.816          41.500                          44.200
 121940681.236 7                  91059626.949 8  23204538.461
                  23204544.609          46.900                          49.700
 20  7  6  0 45 57.0000000  0 18G08G27R24G30R23R13G07R12G11R14G01G16
                                E27E21E14E13E30E15
 109791742.229 7  85552054.62747  81987380.853 8  20892678.398
  20892686.125    20892685.504          44.000          47.600          51.100
 120259376.491 6  93708641.56244  89804110.009 7  22884601.969
  22884609.648    22884609.563          36.900          26.800          46.000
 112335200.470 7  87371844.950 7                  21007245.953    21007246.176
  21007250.945                          42.600          42.200
 118437243.369 6  92288781.83946  88443411.644 7  22537849.758
  22537858.109    22537857.934          38.400          37.100          46.200
 102815209.418 7  79967422.563 6                  19220216.219    19220215.324
  19220222.961                          45.800          40.800
 102827016.768 5  79976596.284 6                  19256200.805    19256198.590
  19256204.016                          32.900          41.400
 111022309.766 7  86510855.29947                  21126828.789
  21126834.230                          43.700          45.600
 110268812.777 7  85764677.602 7                  20642559.547    20642559.023
  20642563.703                          43.800          43.600
 105762508.696 7  82412316.22046                  20125919.211
  20125924.523                          42.500          36.100
 119695244.912 6  93096198.408 6                  22454490.000    22454488.320
  22454494.074                          36.300          37.700
 111199007.489 7  86648651.42047  83038290.678 8  21160474.297
  21160483.781    21160482.801          42.600          46.200          50.400
 124425044.707 5  96954621.75343                  23677306.914
  23677312.789                          35.100          19.900
 121962474.367 7                  91075894.991 8  23208685.117
                  23208690.340          46.300                          49.800
 135652641.535 6                 101299076.890 7  25813838.672
                  25813843.789          39.900                          43.400
 114214770.399 7                  85290279.842 7  21734346.641
                  21734351.543          43.600                          46.900
 127703573.206 7                  95363082.460 7  24301179.961
                  24301185.445          45.000                          47.400
 128234456.300 6                  95759511.096 7  24402208.234
                  24402214.543          41.700                          44.700
 121941407.631 7                  91060169.394 8  23204676.656
                  23204682.770          46.500                          49.800
 20  7  6  0 45 58.0000000  0 18G08G27R24G30R23R13G07R12G11R14G01G16
                                E27E21E14E13E30E15
 109793123.177 7  85553130.68647  81988412.058 8  20892941.016
  20892948.867    20892948.363          43.800          47.600          51.100
 120262061.442 6  93710733.74544  89806115.014 7  22885113.586
  22885120.648    22885120.453          36.900          26.200          45.500
 112332514.834 7  87369756.094 7                  21006744.000    21006743.695
  21006748.746                          42.400          42.700
 118435197.072 6  92287187.31346  88441883.545 7  22537460.008
  22537468.676    22537468.551          38.500          37.000          45.900
 102815147.917 7  79967374.730 6                  19220204.008    19220203.723
  19220211.629                          45.900          40.800
 102826055.080 5  79975848.292 6                  19256022.055    19256018.582
  19256024.137                          32.700          41.600
 111022049.566 7  86510652.54047                  21126779.289
  21126784.617                          43.800          45.800
 110271727.601 7  85766944.683 7                  20643105.719    20643104.488
  20643109.285                          44.000          43.800
 105761905.199 7  82411845.95746                  20125805.117
  20125809.699                          42.600          36.200
 119691361.687 6  93093178.176 6                  22453761.828    22453759.855
  22453765.695                          36.600          37.800
 111196213.935 7  86646474.62247  83036204.597 8  21159942.672
  21159952.113    21159951.152          42.700          46.000          50.100
 124427707.737 5  96956696.81743                  23677814.555
  23677819.508                          35.000          19.600
 121962273.951 7                  91075745.331 8  23208646.914
                  23208652.176          46.500                          49.500
 135650339.586 6                 101297357.883 7  25813401.141
                  25813405.762          40.200                          43.100
 114209240.816 7                  85286150.596 7  21733294.320
                  21733299.172          43.700                          46.200
 127701630.078 7                  95361631.415 7  24300810.398
                  24300815.777          44.900                          47.200
 128236542.196 6                  95761068.723 7  24402604.875
                  24402611.332          41.600                          44.600
 121942134.372 7                  91060712.093 8  23204814.805
                  23204821.043          46.600                          49.700
 20  7  6  0 45 59.0000000  0 18G08G27R24G30R23R13G07R12G11R14G01G16
                                E27E21E14E13E30E15
 109794504.377 7  85554206.94347  81989443.475 8  20893204.102
  20893211.734    20893211.074          44.000          47.600          51.100
 120264746.492 6  93712825.98844  89808120.076 7  22885623.531
  22885631.551    22885631.566          36.300          25.600          45.700
 112329829.732 7  87367667.701 7                  21006242.102    21006241.352
  21006246.738                          42.900          42.400
 118433151.290 6  92285593.20246  88440355.862 7  22537071.031
  22537079.422    22537079.262          38.300          36.800          46.100
 102815087.119 7  79967327.465 6                  19220192.734    19220192.344
  19220200.273                          46.000          41.100
 102825094.080 5  79975100.883 6                  19255842.063    19255838.648
  19255844.148                          33.100          41.500
 111021790.087 7  86510450.35147                  21126730.086
  21126735.273                          44.300          45.500
 110274643.012 7  85769212.237 7                  20643651.258    20643650.555
  20643655.141                          44.000          44.100
 105761302.282 7  82411376.15246                  20125690.266
  20125694.957                          42.600          36.800
 119687478.669 6  93090158.054 6                  22453031.906    22453031.563
  22453037.285                          36.300          37.800
 111193420.954 7  86644298.27547  83034118.914 8  21159411.625
  21159420.688    21159419.551          43.100          46.100          50.300
 124430370.984 5  96958772.09643                  23678320.789
  23678326.324                          35.400          19.000
 121962073.897 7                  91075595.935 8  23208608.922
                  23208614.180          46.900                          49.700
 135648037.737 6                 101295638.999 7  25812962.984
                  25812967.711          40.000                          43.400
 114203711.564 7                  85282021.600 7  21732242.344
                  21732247.039          43.500                          46.700
 127699687.321 7                  95360180.663 7  24300440.695
                  24300446.074          44.900                          47.700
 128238628.336 6                  95762626.560 7  24403002.039
                  24403008.422          41.800                          44.900
 121942861.542 7                  91061255.102 8  23204953.266
                  23204959.402          46.500                          49.800
 20  7  6  0 46  0.0000000  0 18G08G27R24G30R23R13G07R12G11R14G01G16
                                E27E21E14E13E30E15
 109795885.777 7  85555283.36447  81990475.049 8  20893466.875
  20893474.512    20893474.023          43.700          47.600          51.100
 120267431.619 6  93714918.29344  89810125.180 7  22886134.258
  22886142.500    22886142.426          36.500          26.200          45.600
 112327145.180 7  87365579.736 7                  21005740.258    21005739.633
  21005744.715                          43.200          42.300
 118431106.043 6  92283999.50146  88438828.564 7  22536681.781
  22536690.313    22536690.020          38.300          36.800          45.900
 102815027.012 7  79967280.702 6                  19220182.203    19220181.410
  19220189.027                          45.800          40.700
 102824133.975 5  79974354.076 6                  19255661.867    19255658.645
  19255664.223                          33.100          41.500
 111021531.278 7  86510248.68347                  21126680.328
  21126686.051                          44.000          45.500
 110277559.010 7  85771480.216 7                  20644197.500    20644196.395
  20644200.977                          43.700          43.800
 105760699.911 7  82410906.77146                  20125576.031
  20125580.281                          43.100          36.900
 119683595.866 6  93087138.059 6                  22452304.055    22452303.141
  22452308.738                          36.600          37.700
 111190628.441 7  86642122.29447  83032033.604 8  21158879.992
  21158889.254    21158888.133          43.300          46.000          50.200
 124433034.442 5  96960847.52543                  23678827.695
  23678833.125                          35.200          18.600
 121961874.154 7                  91075446.781 8  23208570.953
                  23208576.156          46.300                          49.800
 135645735.976 6                 101293920.140 7  25812525.203
                  25812529.668          39.500                          43.100
 114198182.520 7                  85277892.782 7  21731190.328
                  21731194.934          43.800                          47.300
 127697744.889 7                  95358730.133 7  24300071.273
                  24300076.547          44.800                          47.800
 128240714.702 6                  95764184.573 7  24403398.922
                  24403405.508          41.600                          44.900
 121943589.099 7                  91061798.406 8  23205091.664
                  23205097.957          46.500                          50.100
 20  7  6  0 46  1.0000000  0 18G08G27R24G30R23R13G07R12G11R14G01G16
                                E27E21E14E13E30E15
 109797267.369 7  85556359.93047  81991506.755 8  20893729.734
  20893737.457    20893736.957          43.900          47.600          50.900
 120270116.678 6  93717010.55944  89812130.276 7  22886646.094
  22886653.504    22886653.582          36.900          25.000          45.400
 112324461.111 7  87363492.109 7                  21005237.906    21005237.238
  21005242.828                          43.400          42.600
 118429061.254 6  92282406.16246  88437301.597 7  22536293.297
  22536301.215    22536300.961          38.500          37.400          45.800
 102814967.487 7  79967234.406 6                  19220171.180    19220169.934
  19220177.816                          46.000          40.900
 102823174.446 5  79973607.765 6                  19255481.156    19255478.910
  19255484.535                          33.200          41.600
 111021273.064 7  86510047.47547                  21126631.125
  21126636.824                          44.300          45.600
 110280475.475 7  85773748.601 7                  20644743.531    20644742.371
  20644746.965                          43.900          44.000
 105760098.026 7  82410437.77546                  20125460.602
  20125465.773                          43.300          36.500
 119679713.134 6  93084118.180 6                  22451575.492    22451574.758
  22451580.242                          36.200          38.100
 111187836.367 7  86639946.65247  83029948.620 8  21158348.516
  21158357.887    21158356.828          43.400          45.900          50.000
 124435697.989 5  96962923.00943                  23679334.477
  23679340.188                          35.100          18.300
 121961674.674 7                  91075297.814 8  23208532.867
                  23208538.227          46.100                          49.500
 135643434.279 6                 101292201.317 7  25812087.039
                  25812091.801          39.500                          43.200
 114192653.713 7                  85273764.134 7  21730138.242
                  21730142.957          43.700                          46.500
 127695802.715 7                  95357279.816 7  24299701.438
                  24299706.863          45.100                          46.900
 128242801.281 6                  95765742.715 7  24403795.938
                  24403802.563          41.900                          44.400
 121944316.951 7                  91062341.932 8  23205230.195
                  23205236.426          46.800                          49.600
 20  7  6  0 46  2.0000000  0 18G08G27R24G30R23R13G07R12G11R14G01G16
                                E27E21E14E13E30E15
 109798649.251 7  85557436.72047  81992538.690 8  20893993.086
  20894000.539    20893999.875          43.900          47.600          51.100
 120272801.887 6  93719102.93144  89814135.467 7  22887156.742
  22887164.371    22887164.449          36.500          24.100          45.700
 112321777.600 7  87361404.951 7                  21004735.438    21004735.695
  21004741.012                          43.000          42.500
 118427017.043 6  92280813.26846  88435775.102 7  22535904.617
  22535912.227    22535911.770          38.700          37.300          46.100
 102814908.703 7  79967188.692 6                  19220159.961    19220159.301
  19220166.883                          46.400          40.700
 102822215.751 5  79972862.136 6                  19255301.289    19255299.715
  19255304.996                          33.200          41.500
 111021015.601 7  86509846.85447                  21126582.055
  21126587.902                          44.400          45.900
 110283392.612 7  85776017.479 7                  20645288.844    20645288.152
  20645292.988                          43.600          43.700
 105759496.767 7  82409969.25846                  20125346.531
  20125351.383                          43.100          36.800
 119675830.699 6  93081098.513 6                  22450848.602    22450846.695
  22450851.848                          37.100          38.200
 111185044.895 7  86637771.47947  83027864.080 8  21157817.586
  21157826.840    21157825.699          43.100          46.000          50.100
 124438361.825 5  96964998.69543                  23679841.336
  23679847.156                          35.000          18.300
 121961475.587 7                  91075149.152 8  23208495.047
                  23208500.262          46.100                          50.100
 135641132.713 6                 101290482.646 7  25811648.805
                  25811653.766          39.800                          43.800
 114187125.227 7                  85269635.714 7  21729085.844
                  21729090.848          43.900                          46.600
 127693860.960 7                  95355829.809 7  24299331.953
                  24299337.301          45.500                          47.400
 128244888.151 6                  95767301.112 7  24404193.227
                  24404199.625          41.800                          44.600
 121945045.268 7                  91062885.805 8  23205368.695
                  23205375.027          46.600                          50.100
 20  7  6  0 46  3.0000000  0 18G08G27R24G30R23R13G07R12G11R14G01G16
                                E27E21E14E13E30E15
 109800031.327 7  85558513.66047  81993570.762 8  20894255.820
  20894263.570    20894262.879          44.100          47.800          51.100
 120275487.115 6  93721195.30344  89816140.682 7  22887667.953
  22887675.438    22887675.367          36.900          25.000          45.900
 112319094.551 7  87359318.115 7                  21004234.625    21004233.863
  21004239.230                          43.400          42.400
 118424973.338 6  92279220.77346  88434248.954 7  22535515.789
  22535523.336    22535522.867          38.700          37.300          46.200
 102814850.557 7  79967143.465 6                  19220149.375    19220148.258
  19220155.945                          45.600          41.200
 102821257.782 5  79972117.047 6                  19255122.477    19255120.078
  19255125.688                          33.100          41.600
 111020758.742 7  86509646.70447                  21126533.016
  21126539.016                          44.200          45.500
 110286310.291 7  85778286.781 7                  20645834.500    20645834.516
  20645839.172                          43.800          43.700
 105758896.014 7  82409501.14146                  20125232.406
  20125237.176                          43.300          36.800
 119671948.370 6  93078078.903 6                  22450119.805    22450118.250
  22450123.492                          37.000          38.000
 111182253.871 7  86635596.65747  83025779.872 8  21157286.641
  21157295.598    21157294.531          42.900          46.100          50.200
 124441025.797 5  96967074.50443                  23680348.594
  23680354.207                          34.600          18.600
 121961276.788 7                  91075000.693 8  23208457.133
                  23208462.406          46.500                          50.100
 135638831.191 6                 101288763.994 7  25811210.922
                  25811215.871          39.700                          43.500
 114181596.978 7                  85265507.462 7  21728033.781
                  21728038.852          43.600                          46.900
 127691919.497 7                  95354380.005 7  24298962.758
                  24298967.914          45.600                          47.700
 128246975.254 6                  95768859.638 7  24404590.188
                  24404596.773          41.300                          44.700
 121945773.916 7                  91063429.936 8  23205507.469
                  23205513.668          46.200                          50.300
 20  7  6  0 46  4.0000000  0 18G08G27R24G30R23R13G07R12G11R14G01G16
                                E27E21E14E13E30E15
 109801413.659 7  85559590.80247  81994603.028 8  20894518.813
  20894526.668    20894525.984          44.100          47.500          51.000
 120278172.460 6  93723287.78044  89818145.951 7  22888178.148
  22888186.461    22888186.363          37.200          25.300          45.400
 112316412.092 7  87357231.764 7                  21003732.688    21003732.328
  21003737.508                          43.100          42.500
 118422930.164 6  92277628.68446  88432723.210 7  22535127.023
  22535134.602    22535134.039          38.400          37.300          46.000
 102814793.137 7  79967098.793 6                  19220138.406    19220137.594
  19220145.234                          45.700          41.100
 102820300.570 5  79971372.583 6                  19254943.922    19254940.973
  19254946.492                          33.400          41.400
 111020502.594 7  86509447.10747                  21126484.547
  21126490.414                          44.000          45.700
 110289228.577 7  85780556.569 7                  20646381.391    20646380.875
  20646385.484                          44.000          43.700
 105758295.844 7  82409033.47346                  20125118.320
  20125122.875                          43.000          36.600
 119668066.263 6  93075059.490 6                  22449390.469    22449390.082
  22449395.191                          37.100          38.300
 111179463.379 7  86633422.24647  83023696.075 8  21156754.992
  21156764.711    21156763.434          43.000          46.300          50.200
 124443689.961 5  96969150.49043                  23680855.500
  23680861.109                          35.300          19.000
 121961078.340 7                  91074852.491 8  23208419.383
                  23208424.789          46.500                          49.600
 135636529.819 6                 101287045.442 7  25810772.914
                  25810778.012          39.600                          43.300
 114176069.001 7                  85261379.440 7  21726981.883
                  21726986.871          43.800                          47.000
 127689978.378 7                  95352930.478 7  24298593.352
                  24298598.508          45.300                          47.300
 128249062.585 6                  95770418.370 7  24404987.406
                  24404994.004          41.700                          44.200
 121946502.989 7                  91063974.358 8  23205646.258
                  23205652.492          46.100                          50.100
 20  7  6  0 46  5.0000000  0 18G08G27R24G30R23R13G07R12G11R14G01G16
                                E27E21E14E13E30E15
 109802796.210 7  85560668.11247  81995635.439 8  20894781.281
  20894789.539    20894789.102          43.800          47.500          51.200
 120280857.795 6  93725380.24444  89820151.210 7  22888689.750
  22888697.570    22888697.355          37.100          26.600          45.700
 112313730.100 7  87355145.790 7                  21003230.766    21003230.836
  21003236.016                          42.700          42.300
 118420887.487 6  92276036.99146  88431197.842 7  22534737.828
  22534745.770    22534745.496          38.200          37.300          46.000
 102814736.328 7  79967054.621 6                  19220127.469    19220126.980
  19220134.566                          45.800          40.700
 102819344.081 5  79970628.626 6                  19254764.320    19254761.398
  19254767.391                          33.300          41.400
 111020247.074 7  86509247.99747                  21126436.023
  21126441.664                          44.100          45.700
 110292147.387 7  85782826.741 7                  20646927.398    20646927.148
  20646931.863                          44.000          43.700
 105757696.168 7  82408566.19646                  20125004.523
  20125008.758                          42.600          36.300
 119664184.256 6  93072040.168 6                  22448662.188    22448661.238
  22448666.992                          36.600          38.600
 111176673.364 7  86631248.20447  83021612.608 8  21156224.594
  21156233.770    21156232.332          43.100          46.200          50.200
 124446354.265 5  96971226.58743                  23681361.617
  23681368.152                          35.200          18.300
 121960880.168 7                  91074704.511 8  23208381.555
                  23208386.938          46.300                          49.800
 135634228.539 6                 101285326.913 7  25810334.992
                  25810340.125          39.500                          43.500
 114170541.235 7                  85257251.573 7  21725929.914
                  21725935.008          43.700                          46.900
 127688037.545 7                  95351481.157 7  24298224.031
                  24298229.191          44.900                          47.300
 128251150.132 6                  95771977.259 7  24405384.711
                  24405391.285          41.400                          44.600
 121947232.374 7                  91064519.047 8  23205785.000
                  23205791.262          46.300                          49.700
 20  7  6  0 46  6.0000000  0 18G08G27R24G30R23R13G07R12G11R14G01G16
                                E27E21E14E13E30E15
 109804179.001 7  85561745.61247  81996668.039 8  20895044.617
  20895052.777    20895052.184          44.100          47.500          51.100
 120283543.199 6  93727472.76744  89822156.569 7  22889201.477
  22889208.637    22889208.551          37.300          26.500          45.800
 112311048.699 7  87353060.237 7                  21002729.508    21002729.348
  21002734.516                          42.600          42.100
 118418845.355 6  92274445.72046  88429672.865 7  22534349.281
  22534357.211    22534356.855          38.300          37.400          46.100
 102814680.226 7  79967010.992 6                  19220116.844    19220116.699
  19220124.082                          45.500          40.700
 102818388.347 5  79969885.291 6                  19254584.930    19254582.707
  19254588.355                          32.800          41.300
 111019992.243 7  86509049.42847                  21126387.430
  21126393.129                          44.000          45.600
 110295066.775 7  85785097.378 7                  20647473.773    20647473.977
  20647478.461                          43.900          43.900
 105757097.071 7  82408099.36446                  20124889.875
  20124894.727                          42.500          36.700
 119660302.429 6  93069020.963 6                  22447933.781    22447933.445
  22447938.797                          36.200          38.600
 111173883.846 7  86629074.56047  83019529.539 8  21155693.375
  21155702.840    21155701.598          42.600          46.100          50.200
 124449018.813 5  96973302.84943                  23681869.320
  23681875.141                          35.100          19.000
 121960682.332 7                  91074556.774 8  23208344.141
                  23208349.379          46.500                          49.800
 135631927.291 6                 101283608.476 7  25809897.063
                  25809902.223          39.700                          43.600
 114165013.784 7                  85253123.930 7  21724877.969
                  21724883.266          43.600                          46.900
 127686097.069 7                  95350032.099 7  24297854.797
                  24297859.902          44.400                          47.300
 128253237.958 6                  95773536.334 7  24405781.820
                  24405788.516          41.500                          44.800
 121947962.173 7                  91065064.024 8  23205923.813
                  23205930.066          46.300                          49.900
 20  7  6  0 46  7.0000000  0 18G08G27R24G30R23R13G07R12G11R14G01G16
                                E27E21E14E13E30E15
 109805562.047 7  85562823.30747  81997700.819 8  20895308.148
  20895315.969    20895315.293          44.300          47.700          51.200
 120286228.673 6  93729565.34844  89824161.964 7  22889712.000
  22889719.551    22889719.422          36.600          27.100          45.700
 112308367.768 7  87350975.073 7                  21002227.953    21002228.137
  21002233.023                          42.900          42.200
 118416803.778 6  92272854.87946  88428148.302 7  22533960.672
  22533968.926    22533968.250          38.700          37.300          46.000
 102814624.834 7  79966967.903 6                  19220106.750    19220106.172
  19220113.691                          45.300          40.700
 102817433.430 5  79969142.541 6                  19254406.797    19254403.977
  19254409.504                          32.900          41.200
 111019738.082 7  86508851.38347                  21126338.773
  21126344.973                          43.900          45.500
 110297986.774 7  85787368.488 7                  20648021.086    20648020.402
  20648025.152                          44.300          43.800
 105756498.554 7  82407632.98146                  20124775.859
  20124780.848                          42.500          36.700
 119656420.824 6  93066001.925 6                  22447205.922    22447205.199
  22447210.598                          36.700          38.900
 111171094.871 7  86626901.32947  83017446.865 8  21155163.375
  21155172.195    21155170.762          43.000          46.200          50.100
 124451683.535 5  96975379.25843                  23682377.039
  23682382.195                          35.500          18.600
 121960484.840 7                  91074409.300 8  23208306.570
                  23208311.715          46.400                          50.000
 135629626.224 6                 101281890.156 7  25809459.250
                  25809464.414          39.700                          43.600
 114159486.624 7                  85248996.505 7  21723826.453
                  21723831.352          43.600                          47.200
 127684156.962 7                  95348583.310 7  24297485.719
                  24297490.824          44.600                          47.500
 128255326.049 6                  95775095.617 7  24406179.406
                  24406185.871          41.900                          44.800
 121948692.386 7                  91065609.303 8  23206062.750
                  23206069.164          46.300                          50.000
 20  7  6  0 46  8.0000000  0 18G08G27R24G30R23R13G07R12G11R14G01G16
                                E27E21E14E13E30E15
 109806945.267 7  85563901.14547  81998733.760 8  20895571.586
  20895579.227    20895578.508          44.200          47.700          51.000
 120288914.199 6  93731657.97044  89826167.380 7  22890222.328
  22890230.625    22890230.406          36.600          25.700          46.000
 112305687.307 7  87348890.275 7                  21001726.320    21001726.996
  21001731.793                          43.000          42.100
 118414762.681 6  92271264.41146  88426624.095 7  22533572.102
  22533580.652    22533580.008          38.700          37.400          46.100
 102814570.079 7  79966925.313 6                  19220096.375    19220095.844
  19220103.504                          45.600          40.500
 102816479.205 5  79968400.361 6                  19254228.414    19254225.070
  19254230.738                          32.600          41.500
 111019484.564 7  86508653.83747                  21126290.680
  21126296.488                          43.800          45.600
 110300907.310 7  85789640.030 7                  20648566.938    20648567.234
  20648571.914                          43.900          43.700
 105755900.532 7  82407166.99246                  20124662.734
  20124667.145                          42.700          36.600
 119652539.347 6  93062983.021 6                  22446478.445    22446476.785
  22446482.328                          36.700          38.700
 111168306.368 7  86624728.47047  83015364.539 8  21154632.453
  21154641.570    21154640.215          42.800          46.200          50.200
 124454348.380 5  96977455.76443                  23682883.773
  23682889.402                          35.700          19.600
 121960287.642 7                  91074262.037 8  23208269.008
                  23208274.188          46.400                          50.100
 135627325.215 6                 101280171.846 7  25809021.633
                  25809026.301          39.900                          43.700
 114153959.661 7                  85244869.218 7  21722774.719
                  21722779.695          43.400                          47.300
 127682217.141 7                  95347134.750 7  24297116.398
                  24297121.586          44.600                          47.600
 128257414.331 7                  95776655.062 7  24406576.594
                  24406583.320          42.100                          44.800
 121949422.925 7                  91066154.850 8  23206201.648
                  23206208.055          46.100                          50.100
 20  7  6  0 46  9.0000000  0 18G08G27R24G30R23R13G07R12G11R14G01G16
                                E27E21E14E13E30E15
 109808328.735 7  85564979.17147  81999766.872 8  20895834.844
  20895842.445    20895841.809          44.500          47.900          51.100
 120291599.793 6  93733750.64644  89828172.865 7  22890733.477
  22890741.711    22890741.512          37.300          26.400          45.700
 112303007.461 7  87346805.955 6                  21001225.391    21001226.043
  21001230.613                          42.600          41.700
 118412722.168 6  92269674.40046  88425100.320 7  22533183.727
  22533192.281    22533191.734          38.300          37.900          46.000
 102814516.023 7  79966883.274 6                  19220086.727    19220085.816
  19220093.344                          45.400          40.200
 102815525.723 5  79967658.803 6                  19254047.414    19254046.660
  19254052.293                          33.100          41.800
 111019231.743 7  86508456.82947                  21126242.578
  21126248.367                          43.700          45.500
 110303828.461 7  85791912.028 7                  20649113.633    20649114.094
  20649118.750                          44.100          43.600
 105755303.143 7  82406701.50446                  20124548.844
  20124553.281                          42.900          36.700
 119648658.108 6  93059964.264 6                  22445750.367    22445748.781
  22445754.250                          36.500          38.800
 111165518.412 7  86622556.04647  83013282.623 8  21154101.953
  21154110.965    21154109.531          42.700          46.100          50.200
 124457013.486 5  96979532.46943                  23683391.844
  23683396.563                          35.200          19.600
 121960090.802 7                  91074115.052 8  23208231.414
                  23208236.766          46.400                          49.700
 135625024.318 6                 101278453.647 7  25808583.602
                  25808588.582          39.300                          43.200
 114148433.014 7                  85240742.206 7  21721722.805
                  21721728.012          43.500                          46.900
 127680277.680 7                  95345686.454 7  24296747.500
                  24296752.684          45.000                          47.200
 128259502.904 7                  95778214.703 7  24406974.484
                  24406980.531          42.200                          44.700
 121950153.907 7                  91066700.694 8  23206340.875
                  23206347.250          46.200                          49.800
 20  7  6  0 46 10.0000000  0 18G08G27R24G30R23R13G07R12G11R14G01G16
                                E27E21E14E13E30E15
 109809712.473 7  85566057.40347  82000800.174 8  20896098.281
  20896105.660    20896105.230          44.300          47.800          51.400
 120294285.509 6  93735843.39744  89830178.411 7  22891244.266
  22891252.973    22891252.543          37.200          24.300          45.800
 112300328.154 7  87344722.035 6                  21000724.703    21000725.074
  21000729.352                          42.300          41.700
 118410682.143 6  92268084.77046  88423576.953 7  22532795.039
  22532803.855    22532803.520          38.200          37.700          46.200
 102814462.678 7  79966841.779 6                  19220077.125    19220076.039
  19220083.363                          45.800          40.400
 102814573.081 5  79966917.816 6                  19253869.664    19253868.703
  19253873.859                          32.700          41.900
 111018979.616 7  86508260.37147                  21126194.813
  21126200.316                          43.500          45.500
 110306750.226 7  85794184.501 7                  20649661.109    20649660.934
  20649665.754                          44.000          43.700
 105754706.296 7  82406236.42346                  20124435.086
  20124439.852                          43.200          36.800
 119644777.057 6  93056945.658 6                  22445022.938    22445020.809
  22445026.090                          36.800          38.600
 111162730.995 7  86620384.02947  83011201.105 8  21153571.703
  21153580.637    21153579.102          42.800          46.200          50.300
 124459678.796 5  96981609.31443                  23683897.680
  23683903.887                          35.600          18.600
 121959894.311 7                  91073968.322 8  23208193.984
                  23208199.398          46.700                          49.900
 135622723.560 6                 101276735.545 7  25808145.375
                  25808150.910          39.700                          43.600
 114142906.659 7                  85236615.365 7  21720671.305
                  21720676.535          43.900                          47.100
 127678338.594 7                  95344238.426 7  24296378.195
                  24296383.699          45.100                          47.700
 128261591.736 7                  95779774.552 7  24407371.945
                  24407378.164          42.200                          44.400
 121950885.273 7                  91067246.851 8  23206480.086
                  23206486.418          46.300                          50.300
 20  7  6  0 46 11.0000000  0 18G08G27R24G30R23R13G07R12G11R14G01G16
                                E27E21E14E13E30E15
 109811096.362 7  85567135.75947  82001833.602 8  20896361.359
  20896369.195    20896368.578          44.100          47.700          51.000
 120296971.180 6  93737936.12244  89832183.948 7  22891755.906
  22891764.027    22891763.629          37.200          24.400          45.800
 112297649.287 7  87342638.478 7                  21000223.992    21000224.105
  21000228.242                          42.200          42.100
 118408642.653 6  92266495.55746  88422053.932 7  22532406.555
  22532415.871    22532415.484          38.300          37.900          46.000
 102814409.956 7  79966800.777 6                  19220066.891    19220066.059
  19220073.477                          46.100          40.600
 102813621.068 5  79966177.355 6                  19253692.375    19253690.277
  19253695.523                          32.300          41.900
 111018728.095 7  86508064.37147                  21126146.734
  21126152.563                          43.800          45.500
 110309672.475 7  85796457.365 7                  20650208.555    20650207.617
  20650212.777                          44.300          43.600
 105754109.941 7  82405771.73446                  20124321.578
  20124326.414                          43.100          36.700
 119640896.104 6  93053927.158 6                  22444294.258    22444292.500
  22444298.219                          36.800          38.600
 111159944.003 7  86618212.35247  83009119.921 8  21153041.180
  21153050.113    21153048.723          42.800          46.200          50.000
 124462344.247 5  96983686.29843                  23684404.914
  23684411.156                          35.100          18.300
 121959698.095 7                  91073821.784 8  23208156.727
                  23208161.914          46.500                          49.800
 135620422.795 6                 101275017.454 7  25807708.023
                  25807713.004          39.700                          43.400
 114137380.528 7                  85232488.720 7  21719619.594
                  21719624.871          44.000                          47.000
 127676399.754 7                  95342790.594 7  24296009.367
                  24296014.715          45.300                          47.400
 128263680.750 7                  95781334.531 7  24407769.203
                  24407775.563          42.600                          44.400
 121951616.965 7                  91067793.249 8  23206619.453
                  23206625.730          46.700                          50.200
 20  7  6  0 46 12.0000000  0 18G08G27R24G30R23R13G07R12G11R14G01G16
                                E27E21E14E13E30E15
 109812480.515 7  85568214.32247  82002867.213 8  20896624.797
  20896632.539    20896631.977          44.300          47.600          51.000
 120299656.927 6  93740028.90944  89834189.539 7  22892267.727
  22892275.234    22892274.605          37.700          26.400          45.300
 112294970.931 7  87340555.313 7                  20999723.273    20999723.129
  20999727.477                          42.600          42.300
 118406603.630 6  92264906.71446  88420531.326 7  22532019.094
  22532027.871    22532027.363          38.200          37.600          45.800
 102814357.925 7  79966760.303 6                  19220057.070    19220056.309
  19220063.656                          45.600          41.100
 102812669.842 5  79965437.552 6                  19253513.852    19253511.992
  19253517.336                          33.100          41.800
 111018477.268 7  86507868.92847                  21126099.086
  21126104.703                          43.100          45.600
 110312595.323 7  85798730.689 7                  20650755.672    20650754.852
  20650759.867                          44.100          43.700
 105753514.169 7  82405307.49146                  20124207.617
  20124213.039                          42.900          36.300
 119637015.365 6  93050908.813 6                  22443565.336    22443564.230
  22443570.125                          37.300          38.900
 111157157.543 7  86616041.08947  83007039.113 8  21152510.977
  21152520.051    21152518.504          43.000          46.200          50.000
 124465009.866 5  96985763.42043                  23684911.883
  23684918.512                          34.600          18.600
 121959502.188 7                  91073675.496 8  23208119.406
                  23208124.789          46.800                          49.500
 135618122.166 6                 101273299.458 7  25807269.969
                  25807275.234          39.300                          43.200
 114131854.648 7                  85228362.245 7  21718568.094
                  21718573.234          43.800                          47.000
 127674461.283 7                  95341343.031 7  24295640.492
                  24295645.926          44.300                          47.200
 128265770.011 7                  95782894.689 7  24408166.891
                  24408173.207          42.700                          44.300
 121952349.055 7                  91068339.930 8  23206758.617
                  23206764.992          46.500                          49.700
 20  7  6  0 46 13.0000000  0 18G08G27R24G30R23R13G07R12G11R14G01G16
                                E27E21E14E13E30E15
 109813864.874 7  85569293.04147  82003900.989 8  20896888.016
  20896895.797    20896895.449          44.200          47.900          51.100
 120302342.714 6  93742121.73944  89836195.151 7  22892778.219
  22892786.496    22892785.883          37.400          25.800          45.700
 112292293.116 7  87338472.551 6                  20999221.391    20999222.215
  20999226.707                          42.300          41.900
 118404565.174 6  92263318.30246  88419009.073 7  22531631.672
  22531639.977    22531639.484          38.300          37.400          46.000
 102814306.557 7  79966720.339 6                  19220048.086    19220046.691
  19220054.082                          45.800          41.100
 102811719.328 5  79964698.252 7                  19253336.297    19253333.531
  19253339.371                          33.000          42.000
 111018227.081 7  86507673.97847                  21126051.297
  21126057.215                          43.600          45.600
 110315518.722 7  85801004.453 7                  20651302.172    20651302.203
  20651307.039                          43.500          44.000
 105752918.912 7  82404843.65246                  20124095.234
  20124099.672                          42.800          36.700
 119633134.784 6  93047890.575 6                  22442838.445    22442836.863
  22442842.199                          37.000          38.200
 111154371.566 7  86613870.19347  83004958.687 8  21151980.641
  21151989.891    21151988.285          43.200          46.400          50.200
 124467675.659 5  96987840.66043                  23685419.258
  23685425.641                          34.600          18.600
 121959306.598 7                  91073529.442 8  23208081.992
                  23208087.570          46.800                          49.800
 135615821.641 6                 101271581.527 7  25806831.977
                  25806837.387          39.400                          43.100
 114126329.047 7                  85224235.978 7  21717516.703
                  21717521.793          43.500                          47.200
 127672523.120 7                  95339895.696 7  24295271.680
                  24295277.074          44.900                          47.700
 128267859.520 7                  95784455.035 7  24408564.414
                  24408570.715          42.200                          44.600
 121953081.492 7                  91068886.891 8  23206898.055
                  23206904.344          46.400                          49.900
 20  7  6  0 46 14.0000000  0 18G08G27R24G30R23R13G07R12G11R14G01G16
                                E27E21E14E13E30E15
 109815249.476 7  85570371.94947  82004934.938 8  20897151.523
  20897159.457    20897158.805          44.200          47.700          51.000
 120305028.585 6  93744214.62144  89838200.826 7  22893289.516
  22893297.473    22893296.918          37.700          26.900          45.700
 112289615.835 7  87336390.232 7                  20998721.609    20998721.766
  20998726.039                          42.500          42.100
 118402527.255 6  92261730.31946  88417487.254 7  22531243.438
  22531251.992    22531251.773          38.100          37.600          46.200
 102814255.848 7  79966680.919 6                  19220038.961    19220037.238
  19220044.605                          45.600          40.900
 102810769.596 5  79963959.568 6                  19253158.445    19253155.910
  19253161.539                          32.600          41.500
 111017977.585 7  86507479.56747                  21126004.242
  21126009.738                          43.800          45.600
 110318442.698 7  85803278.653 7                  20651850.172    20651849.535
  20651854.648                          43.600          44.100
 105752324.238 7  82404380.26946                  20123981.891
  20123986.563                          42.800          36.900
 119629254.434 6  93044872.515 6                  22442109.539    22442108.590
  22442114.199                          36.800          38.700
 111151586.130 7  86611699.72447  83002878.645 8  21151451.234
  21151459.836    21151458.160          43.000          46.300          50.000
 124470341.627 5  96989918.02843                  23685927.102
  23685932.906                          34.600          18.300
 121959111.355 7                  91073383.635 8  23208044.820
                  23208050.422          46.800                          49.700
 135613521.202 6                 101269863.654 7  25806394.625
                  25806399.867          39.700                          43.600
 114120803.691 7                  85220109.917 7  21716465.281
                  21716470.469          43.500                          47.100
 127670585.304 7                  95338448.625 7  24294902.859
                  24294908.289          44.500                          47.400
 128269949.283 7                  95786015.576 7  24408962.242
                  24408968.379          42.400                          44.200
 121953814.352 7                  91069434.152 8  23207037.352
                  23207043.773          46.400                          49.900
 20  7  6  0 46 15.0000000  0 18G08G27R24G30R23R13G07R12G11R14G01G16
                                E27E21E14E13E30E15
 109816634.273 7  85571451.01747  82005969.047 8  20897415.445
  20897422.801    20897422.313          44.400          47.800          51.200
 120307714.474 6  93746307.52044  89840206.542 7  22893800.094
  22893808.461    22893807.867          37.700          26.500          45.700
 112286939.047 7  87334308.303 7                  20998221.141    20998221.191
  20998225.539                          42.500          42.100
 118400489.837 6  92260142.71246  88415965.791 7  22530855.906
  22530864.445    22530864.078          38.600          37.800          46.000
 102814205.801 7  79966641.993 6                  19220028.859    19220027.645
  19220035.340                          45.800          41.000
 102809820.590 5  79963221.469 6                  19252980.594    19252978.480
  19252983.816                          32.900          41.500
 111017728.736 7  86507285.65047                  21125956.570
  21125962.355                          43.700          45.300
 110321367.257 7  85805553.309 7                  20652398.406    20652396.977
  20652402.148                          43.600          43.500
 105751730.088 7  82403917.29746                  20123868.469
  20123873.551                          43.000          36.300
 119625374.177 6  93041854.570 6                  22441381.992    22441380.883
  22441386.387                          36.300          38.500
 111148801.156 7  86609529.61547  83000798.969 8  21150921.094
  21150929.883    21150928.172          43.400          46.100          50.000
 124473007.808 5  96991995.57043                  23686434.633
  23686440.082                          34.700          18.600
 121958916.410 7                  91073238.062 8  23208007.891
                  23208013.316          47.000                          49.700
 135611220.836 6                 101268145.877 7  25805956.773
                  25805962.031          39.800                          43.700
 114115278.619 7                  85215984.037 7  21715413.984
                  21715419.086          43.500                          47.300
 127668647.798 7                  95337001.799 7  24294534.258
                  24294539.641          44.600                          47.600
 128272039.274 7                  95787576.281 7  24409359.805
                  24409365.957          42.300                          44.600
 121954547.544 7                  91069981.671 8  23207176.930
                  23207183.359          46.500                          50.000
 20  7  6  0 46 16.0000000  0 18G08G27R24G30R23R13G07R12G11R14G01G16
                                E27E21E14E13E30E15
 109818019.332 7  85572530.28147  82007003.337 8  20897678.797
  20897686.488    20897685.828          44.300          47.600          51.000
 120310400.474 6  93748400.49844  89842212.318 7  22894311.227
  22894319.648    22894319.094          37.600          25.600          45.300
 112284262.832 7  87332226.786 6                  20997720.313    20997720.699
  20997725.105                          42.400          41.900
 118398452.958 6  92258555.53446  88414444.751 7  22530468.508
  22530476.949    22530476.508          38.400          37.500          45.800
 102814156.444 7  79966603.601 6                  19220019.383    19220018.660
  19220026.129                          45.600          40.800
 102808872.369 5  79962483.974 6                  19252801.820    19252800.863
  19252806.191                          32.900          41.900
 111017480.589 7  86507092.29447                  21125909.977
  21125915.000                          43.700          45.500
 110324292.420 7  85807828.424 7                  20652944.852    20652944.555
  20652949.672                          43.900          43.600
 105751136.503 7  82403454.76146                  20123755.391
  20123760.625                          42.500          36.200
 119621494.173 6  93038836.758 6                  22440653.742    22440653.359
  22440658.563                          36.600          38.200
 111146016.727 7  86607359.92647  82998719.683 8  21150391.039
  21150399.969    21150398.438          43.600          46.300          50.000
 124475674.173 5  96994073.26443                  23686940.953
  23686947.367                          34.500          18.600
 121958721.809 7                  91073092.739 8  23207970.984
                  23207976.402          47.000                          49.700
 135608920.587 6                 101266428.148 7  25805519.297
                  25805524.332          39.800                          43.900
 114109753.807 7                  85211858.375 7  21714362.438
                  21714367.832          43.300                          46.900
 127666710.641 7                  95335555.220 7  24294165.336
                  24294171.004          44.400                          47.900
 128274129.540 7                  95789137.174 7  24409757.469
                  24409763.887          42.500                          44.600
 121955281.166 7                  91070529.496 8  23207316.578
                  23207322.840          46.600                          49.800
 20  7  6  0 46 17.0000000  0 18G08G27R24G30R23R13G07R12G11R14G01G16
                                E27E21E14E13E30E15
 109819404.597 7  85573609.70947  82008037.792 8  20897942.492
  20897950.098    20897949.461          44.300          47.700          51.200
 120313086.485 6  93750493.49544  89844218.108 7  22894822.039
  22894830.906    22894830.168          37.200          26.000          45.600
 112281587.124 7  87330145.674 6                  20997220.273    20997220.203
  20997224.563                          42.300          41.900
 118396416.552 6  92256968.72646  88412924.074 7  22530081.367
  22530089.379    22530088.887          38.600          37.600          46.200
 102814107.755 7  79966565.728 6                  19220010.906    19220009.586
  19220017.082                          45.500          40.600
 102807924.897 5  79961747.047 6                  19252624.305    19252623.438
  19252628.668                          32.900          41.400
 111017233.089 7  86506899.43147                  21125862.742
  21125868.168                          43.700          45.400
 110327218.140 7  85810103.994 7                  20653492.695    20653492.316
  20653497.371                          43.700          43.300
 105750543.492 7  82402992.67446                  20123642.953
  20123647.891                          42.000          36.100
 119617614.302 6  93035819.091 6                  22439926.477    22439925.336
  22439930.734                          36.700          38.500
 111143232.811 7  86605190.64747  82996640.777 8  21149861.063
  21149870.176    21149868.641          43.200          46.200          50.300
 124478340.723 5  96996151.10842                  23687448.391
  23687454.777                          34.400          16.900
 121958527.529 7                  91072947.660 8  23207933.859
                  23207939.313          46.600                          49.700
 135606620.458 6                 101264710.509 7  25805081.352
                  25805086.508          39.900                          43.500
 114104229.277 7                  85207732.908 7  21713311.266
                  21713316.512          43.400                          46.800
 127664773.821 7                  95334108.893 8  24293797.000
                  24293802.563          44.600                          48.200
 128276220.033 7                  95790698.255 7  24410155.195
                  24410161.680          42.300                          45.000
 121956015.150 7                  91071077.604 8  23207456.211
                  23207462.535          46.700                          49.900
 20  7  6  0 46 18.0000000  0 18G08G27R24G30R23R13G07R12G11R14G01G16
                                E27E21E14E13E30E15
 109820790.095 7  85574689.31247  82009072.413 8  20898206.023
  20898213.746    20898213.184          44.400          47.800          51.100
 120315772.576 6  93752586.56944  89846223.958 7  22895333.219
  22895342.109    22895341.348          37.500          27.000          45.700
 112278911.908 7  87328064.956 6                  20996720.469    20996720.008
  20996724.367                          42.600          41.700
 118394380.714 6  92255382.36446  88411403.805 7  22529693.789
  22529701.875    22529701.602          38.200          37.300          45.900
 102814059.735 7  79966528.376 6                  19220001.680    19220000.316
  19220008.023                          45.500          40.700
 102806978.159 5  79961010.713 6                  19252447.336    19252446.465
  19252451.434                          32.700          41.800
 111016986.275 7  86506707.11547                  21125815.523
  21125821.117                          43.900          45.800
 110330144.391 7  85812379.967 7                  20654040.500    20654039.914
  20654045.172                          43.700          43.300
 105749951.005 7  82402531.00546                  20123530.156
  20123535.117                          42.300          36.200
 119613734.616 6  93032801.544 6                  22439199.000    22439197.516
  22439202.855                          36.800          38.300
 111140449.367 7  86603021.72947  82994562.234 8  21149331.133
  21149340.598    21149338.891          43.100          46.300          50.100
 124481007.449 5  96998229.06942                  23687955.844
  23687962.320                          34.300          16.900
 121958333.552 7                  91072802.815 8  23207897.219
                  23207902.371          46.300                          49.900
 135604320.405 6                 101262992.922 7  25804643.781
                  25804649.066          40.200                          43.200
 114098704.979 7                  85203607.637 7  21712259.969
                  21712265.289          43.600                          46.700
 127662837.318 7                  95332662.795 8  24293428.477
                  24293433.965          44.700                          48.000
 128278310.751 6                  95792259.517 7  24410553.094
                  24410559.336          41.900                          44.100
 121956749.509 7                  91071625.986 8  23207595.945
                  23207602.230          46.300                          50.000
 20  7  6  0 46 19.0000000  0 18G08G27R24G30R23R13G07R12G11R14G01G16
                                E27E21E14E13E30E15
 109822175.797 7  85575769.08447  82010107.192 8  20898469.664
  20898477.461    20898476.910          44.400          47.900          51.000
 120318458.706 6  93754679.64844  89848229.820 7  22895844.008
  22895853.215    22895852.539          37.500          26.200          45.400
 112276237.163 7  87325984.610 6                  20996220.477    20996219.914
  20996224.219                          42.900          41.600
 118392345.398 6  92253796.39846  88409883.925 7  22529306.938
  22529314.742    22529314.199          38.300          38.000          45.800
 102814012.382 7  79966491.540 6                  19219993.195    19219991.664
  19219999.172                          45.600          40.800
 102806032.208 5  79960274.914 6                  19252270.383    19252269.152
  19252274.309                          32.900          41.600
 111016740.076 7  86506515.27447                  21125768.766
  21125774.000                          44.000          45.700
 110333071.223 7  85814656.401 7                  20654588.398    20654588.023
  20654593.066                          43.600          43.800
 105749359.039 7  82402069.73046                  20123417.180
  20123422.379                          42.100          36.300
 119609855.008 6  93029784.092 6                  22438472.586    22438469.684
  22438475.070                          36.400          38.400
 111137666.423 7  86600853.20547  82992484.076 8  21148802.180
  21148811.070    21148809.477          43.000          46.400          49.900
 124483674.311 5  97000307.15742                  23688461.891
  23688469.688                          33.700          16.300
 121958139.896 7                  91072658.194 8  23207860.180
                  23207865.613          46.600                          49.600
 135602020.427 6                 101261275.411 7  25804206.195
                  25804211.480          39.900                          43.200
 114093180.945 7                  85199482.553 7  21711209.094
                  21711214.066          43.500                          46.800
 127660901.117 7                  95331216.947 7  24293059.875
                  24293065.625          44.700                          47.100
 128280401.691 6                  95793820.944 7  24410951.203
                  24410957.207          41.900                          43.800
 121957484.222 7                  91072174.639 8  23207735.734
                  23207742.121          46.800                          49.700
 20  7  6  0 46 20.0000000  0 18G08G27R24G30R23R13G07R12G11R14G01G16
                                E27E21E14E13E30E15
 109823561.765 7  85576849.05747  82011142.175 8  20898732.789
  20898741.277    20898740.563          44.300          47.800          51.000
 120321144.943 6  93756772.82444  89850235.790 7  22896356.219
  22896364.117    22896363.707          37.800          26.300          45.600
 112273563.029 7  87323904.727 7                  20995719.648    20995719.570
  20995724.059                          43.000          42.100
 118390310.646 6  92252210.87946  88408364.476 7  22528918.820
  22528927.355    22528927.090          38.300          37.300          45.900
 102813965.781 7  79966455.309 6                  19219984.336    19219982.852
  19219990.531                          45.700          41.100
 102805087.021 5  79959539.764 6                  19252093.078    19252092.145
  19252097.422                          32.900          41.600
 111016494.648 7  86506324.02147                  21125722.156
  21125727.535                          44.000          45.800
 110335998.742 7  85816933.327 7                  20655136.336    20655136.016
  20655141.051                          43.500          43.700
 105748767.714 7  82401608.95446                  20123304.594
  20123309.770                          42.300          37.100
 119605975.689 6  93026766.863 6                  22437744.586    22437741.770
  22437747.328                          36.300          38.200
 111134884.044 7  86598685.11247  82990406.328 8  21148272.102
  21148281.637    21148279.855          42.700          46.300          50.200
 124486341.475 5  97002385.45242                  23688971.391
  23688977.227                          32.900          17.400
 121957946.630 7                  91072513.878 8  23207823.602
                  23207828.781          46.600                          50.000
 135599720.607 6                 101259558.018 7  25803768.570
                  25803773.641          39.600                          43.300
 114087657.274 7                  85195357.711 7  21710157.750
                  21710162.984          43.400                          47.300
 127658965.327 7                  95329771.390 7  24292691.508
                  24292697.297          44.600                          47.400
 128282492.943 6                  95795382.591 7  24411348.852
                  24411355.207          41.600                          44.300
 121958219.391 7                  91072723.629 8  23207875.578
                  23207882.000          46.500                          49.800
 20  7  6  0 46 21.0000000  0 18G08G27R24G30R23R13G07R12G11R14G01G16
                                E27E21E14E13E30E15
 109824947.972 7  85577929.22147  82012177.329 8  20898997.508
  20899005.094    20899004.469          44.100          47.800          51.000
 120323831.204 6  93758866.01044  89852241.760 7  22896867.570
  22896875.395    22896874.906          37.300          24.900          46.000
 112270889.378 7  87321825.226 7                  20995219.953    20995219.785
  20995224.023                          43.400          42.300
 118388276.389 6  92250625.75046  88406845.374 7  22528531.617
  22528540.234    22528539.898          38.400          37.500          45.900
 102813919.848 7  79966419.566 6                  19219975.758    19219974.344
  19219981.906                          45.600          40.600
 102804142.533 5  79958805.186 6                  19251916.211    19251915.488
  19251920.559                          33.600          41.300
 111016249.833 7  86506133.26347                  21125675.555
  21125680.930                          43.800          45.600
 110338926.758 7  85819210.688 7                  20655684.445    20655683.848
  20655689.160                          43.600          44.000
 105748176.910 7  82401148.59046                  20123192.453
  20123197.352                          42.600          36.500
 119602096.555 6  93023749.734 6                  22437015.695    22437014.109
  22437019.531                          36.200          38.200
 111132102.179 7  86596517.42447  82988328.948 8  21147743.078
  21147751.980    21147750.527          43.000          46.400          50.100
 124489008.782 5  97004463.88143                  23689478.148
  23689484.637                          33.600          19.000
 121957753.642 7                  91072369.766 8  23207786.555
                  23207792.113          46.400                          49.900
 135597420.814 6                 101257840.653 7  25803330.742
                  25803336.270          39.600                          43.200
 114082133.804 7                  85191233.054 7  21709106.688
                  21709111.879          43.500                          46.800
 127657029.864 7                  95328326.063 7  24292323.344
                  24292328.891          44.600                          47.600
 128284584.433 6                  95796944.406 7  24411746.859
                  24411753.246          41.800                          44.400
 121958954.910 7                  91073272.876 8  23208015.594
                  23208021.969          46.900                          50.100
 20  7  6  0 46 22.0000000  0 18G08G27R24G30R23R13G07R12G11R14G01G16
                                E27E21E14E13E30E15
 109826334.364 7  85579009.52747  82013212.625 8  20899260.727
  20899268.879    20899268.195          44.200          47.900          51.100
 120326517.489 6  93760959.22244  89854247.755 7  22897378.227
  22897386.602    22897385.953          37.400          26.200          45.800
 112268216.227 7  87319746.107 7                  20994720.469    20994719.750
  20994724.121                          43.000          42.100
 118386242.646 6  92249041.01546  88405326.661 7  22528144.664
  22528153.027    22528152.793          38.500          37.100          46.000
 102813874.512 7  79966384.322 6                  19219967.031    19219966.023
  19219973.523                          45.800          40.700
 102803198.838 5  79958071.195 6                  19251738.719    19251738.695
  19251743.848                          33.500          41.400
 111016005.657 7  86505942.99147                  21125629.180
  21125634.480                          44.100          45.700
 110341855.288 7  85821488.437 7                  20656232.859    20656232.152
  20656237.441                          43.700          43.700
 105747586.614 7  82400688.61846                  20123080.234
  20123084.988                          42.600          36.400
 119598217.539 6  93020732.763 6                  22436288.039    22436286.344
  22436291.980                          36.100          37.700
 111129320.738 7  86594350.07447  82986251.905 8  21147213.750
  21147222.879    21147221.313          42.800          46.500          50.200
 124491676.247 5  97006542.38243                  23689985.828
  23689992.164                          33.300          18.600
 121957560.946 7                  91072225.874 8  23207750.055
                  23207755.398          46.500                          50.100
 135595121.145 6                 101256123.353 7  25802893.125
                  25802898.531          39.900                          43.600
 114076610.559 7                  85187108.562 7  21708055.617
                  21708060.754          43.700                          46.900
 127655094.650 7                  95326880.945 7  24291955.148
                  24291960.664          44.800                          47.900
 128286676.104 6                  95798506.362 7  24412144.953
                  24412151.207          41.700                          44.300
 121959690.755 7                  91073822.369 8  23208155.547
                  23208161.957          46.600                          50.500
 20  7  6  0 46 23.0000000  0 18G08G27R24G30R23R13G07R12G11R14G01G16
                                E27E21E14E13E30E15
 109827721.060 7  85580090.06947  82014248.142 8  20899524.594
  20899532.820    20899532.043          44.100          47.800          51.200
 120329203.882 6  93763052.51844  89856253.845 7  22897889.922
  22897897.781    22897897.117          37.600          26.200          45.300
 112265543.683 7  87317667.442 7                  20994219.961    20994220.063
  20994224.469                          42.900          42.500
 118384209.467 6  92247456.71746  88403808.402 7  22527758.031
  22527766.266    22527766.059          38.400          37.400          46.100
 102813829.931 7  79966349.644 6                  19219958.352    19219957.598
  19219965.211                          45.600          41.000
 102802255.874 5  79957337.792 6                  19251564.008    19251561.988
  19251567.227                          33.300          41.300
 111015762.225 7  86505753.30647                  21125582.734
  21125588.070                          44.200          45.600
 110344784.473 7  85823766.679 7                  20656781.344    20656780.688
  20656785.824                          43.700          43.600
 105746996.940 7  82400229.13446                  20122967.836
  20122972.832                          42.600          36.800
 119594338.813 5  93017715.948 6                  22435559.484    22435558.770
  22435564.109                          35.900          37.600
 111126539.899 7  86592183.18547  82984175.299 8  21146684.164
  21146693.746    21146692.004          43.000          46.100          50.200
 124494343.925 5  97008621.10243                  23690493.422
  23690499.859                          33.500          18.600
 121957368.653 7                  91072082.267 8  23207713.547
                  23207718.813          46.300                          49.800
 135592821.605 6                 101254406.158 7  25802455.273
                  25802460.895          40.400                          43.000
 114071087.683 7                  85182984.328 7  21707004.930
                  21707009.898          43.600                          46.500
 127653159.877 7                  95325436.130 7  24291586.656
                  24291592.508          45.000                          47.300
 128288768.106 6                  95800068.571 7  24412543.336
                  24412549.258          41.600                          44.100
 121960427.062 7                  91074372.220 8  23208295.828
                  23208302.129          46.200                          49.700
 20  7  6  0 46 24.0000000  0 18G08G27R24G30R23R13G07R12G11R14G01G16
                                E27E21E14E13E30E15
 109829107.923 7  85581170.73947  82015283.779 8  20899788.563
  20899796.645    20899796.035          44.200          47.700          51.000
 120331890.303 6  93765145.83344  89858259.918 7  22898401.586
  22898409.082    22898408.313          38.400          25.600          45.500
 112262871.545 7  87315589.133 7                  20993720.359    20993720.129
  20993724.781                          42.900          42.500
 118382176.773 6  92245872.79846  88402290.453 7  22527371.289
  22527379.477    22527379.055          38.100          37.200          46.400
 102813785.919 7  79966315.428 6                  19219950.695    19219949.379
  19219956.980                          45.800          41.100
 102801313.708 5  79956604.959 6                  19251388.063    19251385.703
  19251390.707                          33.400          41.700
 111015519.384 7  86505564.07747                  21125536.195
  21125541.836                          43.900          45.500
 110347714.159 7  85826045.342 7                  20657330.109    20657329.078
  20657334.215                          43.600          43.600
 105746407.760 7  82399770.02946                  20122856.109
  20122860.633                          42.800          36.500
 119590460.187 6  93014699.224 6                  22434832.242    22434831.645
  22434836.383                          36.400          37.700
 111123759.503 7  86590016.64447  82982099.022 8  21146156.031
  21146164.746    21146162.941          43.500          46.300          50.200
 124497011.729 5  97010699.93443                  23691001.250
  23691007.387                          33.500          19.000
 121957176.602 7                  91071938.857 8  23207676.844
                  23207682.270          46.400                          49.900
 135590522.115 6                 101252689.015 7  25802017.664
                  25802023.422          40.300                          43.700
 114065564.967 7                  85178860.238 7  21705954.063
                  21705958.965          43.800                          46.800
 127651225.338 7                  95323991.514 7  24291218.805
                  24291224.426          45.100                          47.600
 128290860.247 6                  95801630.888 7  24412941.477
                  24412947.336          41.900                          44.000
 121961163.673 7                  91074922.279 8  23208435.930
                  23208442.293          46.600                          50.100
 20  7  6  0 46 25.0000000  0 18G08G27R24G30R23R13G07R12G11R14G01G16
                                E27E21E14E13E30E15
 109830495.001 7  85582251.57747  82016319.585 8  20900052.961
  20900060.605    20900059.941          44.000          47.800          51.000
 120334576.785 6  93767239.17844  89860266.061 7  22898912.523
  22898920.238    22898919.574          38.000          26.700          45.300
 112260199.974 7  87313511.239 7                  20993220.516    20993220.961
  20993225.129                          43.000          42.500
 118380144.592 6  92244289.29246  88400772.926 7  22526984.289
  22526992.805    22526992.465          38.100          37.300          46.100
 102813742.641 7  79966281.754 6                  19219942.258    19219941.090
  19219948.930                          45.700          41.200
 102800372.186 5  79955872.717 6                  19251211.383    19251208.719
  19251214.414                          33.400          41.800
 111015277.244 7  86505375.40247                  21125490.398
  21125495.684                          44.200          45.800
 110350644.486 7  85828324.466 7                  20657879.078    20657877.465
  20657882.801                          43.500          43.600
 105745819.132 7  82399311.35546                  20122744.023
  20122748.742                          42.400          36.300
 119586581.706 5  93011682.637 6                  22434105.367    22434104.004
  22434108.758                          35.600          37.900
 111120979.620 7  86587850.50447  82980023.144 8  21145626.367
  21145635.703    21145634.027          43.400          46.200          50.100
 124499679.753 5  97012778.88942                  23691509.445
  23691514.898                          33.400          17.800
 121956984.905 7                  91071795.703 8  23207640.563
                  23207645.789          46.000                          49.700
 135588222.732 6                 101250971.937 7  25801580.656
                  25801585.879          39.800                          43.300
 114060042.571 7                  85174736.367 7  21704903.055
                  21704908.191          43.800                          46.500
 127649291.168 7                  95322547.168 7  24290850.828
                  24290856.445          44.900                          47.300
 128292952.685 6                  95803193.423 7  24413339.820
                  24413345.516          41.800                          43.500
 121961900.690 7                  91075472.655 8  23208576.219
                  23208582.621          46.300                          49.700
 20  7  6  0 46 26.0000000  0 18G08G27R24G30R23R13G07R12G11R14G01G16
                                E27E21E14E13E30E15
 109831882.325 7  85583332.60947  82017355.567 8  20900316.266
  20900324.543    20900323.934          44.000          47.800          51.000
 120337263.345 6  93769332.59244  89862272.252 7  22899423.242
  22899431.566    22899430.699          37.600          26.000          45.400
 112257528.967 7  87311433.777 7                  20992721.266    20992721.148
  20992725.719                          42.600          42.200
 118378112.960 6  92242706.20246  88399255.808 7  22526598.000
  22526606.156    22526605.648          38.600          37.300          45.800
 102813700.047 7  79966248.621 6                  19219934.492    19219933.352
  19219940.969                          45.800          40.500
 102799431.518 5  79955141.061 6                  19251034.250    19251033.215
  19251038.258                          32.900          41.600
 111015035.779 7  86505187.24147                  21125444.375
  21125449.895                          43.800          45.500
 110353575.400 7  85830604.060 7                  20658427.719    20658426.379
  20658431.480                          43.200          43.500
 105745231.084 7  82398853.14246                  20122631.422
  20122636.789                          42.100          36.100
 119582703.441 5  93008666.228 6                  22433376.898    22433376.551
  22433381.309                          35.900          38.100
 111118200.265 7  86585684.76647  82977947.653 8  21145097.539
  21145106.629    21145105.070          43.400          46.200          50.000
 124502348.016 5  97014858.06843                  23692016.859
  23692022.672                          33.700          18.300
 121956793.542 7                  91071652.809 8  23207604.047
                  23207609.391          46.400                          49.700
 135585923.463 6                 101249254.951 7  25801142.648
                  25801148.496          39.900                          43.500
 114054520.456 7                  85170612.704 7  21703852.359
                  21703857.336          43.600                          46.800
 127647357.346 7                  95321103.087 7  24290482.844
                  24290488.332          44.700                          47.200
 128295045.364 7                  95804756.150 7  24413737.859
                  24413743.711          42.100                          43.600
 121962638.125 7                  91076023.334 8  23208716.539
                  23208722.840          46.400                          49.800
 20  7  6  0 46 27.0000000  0 18G08G27R24G30R23R13G07R12G11R14G01G16
                                E27E21E14E13E30E15
 109833269.840 7  85584413.79047  82018391.702 8  20900580.680
  20900588.605    20900588.012          43.800          47.600          51.300
 120339949.949 6  93771426.06044  89864278.462 7  22899934.922
  22899942.949    22899941.996          38.000          25.600          45.600
 112254858.428 7  87309356.703 6                  20992221.906    20992222.020
  20992226.457                          43.000          41.800
 118376081.871 6  92241123.53146  88397739.061 7  22526211.148
  22526219.539    22526219.324          38.500          36.900          46.000
 102813658.075 7  79966215.969 6                  19219926.930    19219925.645
  19219933.184                          45.800          40.400
 102798491.607 5  79954409.987 6                  19250860.117    19250857.566
  19250862.258                          32.500          41.800
 111014794.969 7  86504999.59547                  21125398.242
  21125404.125                          44.200          45.700
 110356506.827 7  85832884.057 7                  20658976.414    20658975.254
  20658980.262                          43.900          42.700
 105744643.571 7  82398395.33346                  20122520.281
  20122525.070                          42.200          36.200
 119578825.327 5  93005649.901 6                  22432650.852    22432648.527
  22432653.824                          35.900          37.700
 111115421.386 7  86583519.41647  82975872.520 8  21144568.852
  21144578.000    21144576.211          43.000          46.200          50.200
 124505016.335 5  97016937.29643                  23692524.461
  23692530.660                          33.800          18.300
 121956602.471 7                  91071510.119 8  23207567.445
                  23207572.988          46.800                          49.600
 135583624.267 6                 101247538.014 7  25800705.117
                  25800710.848          39.800                          43.500
 114048998.570 7                  85166489.230 7  21702801.469
                  21702806.621          43.000                          47.000
 127645423.821 7                  95319659.206 7  24290114.906
                  24290120.441          44.700                          47.600
 128297138.283 7                  95806319.023 7  24414135.938
                  24414141.836          42.100                          43.800
 121963375.875 7                  91076574.255 8  23208856.867
                  23208863.191          46.000                          50.000
 20  7  6  0 46 28.0000000  0 18G08G27R24G30R23R13G07R12G11R14G01G16
                                E27E21E14E13E30E15
 109834657.584 7  85585495.14447  82019428.008 8  20900844.961
  20900852.781    20900852.242          43.600          47.800          51.300
 120342636.579 6  93773519.53544  89866284.711 7  22900446.031
  22900454.242    22900453.320          38.400          26.600          45.600
 112252188.393 7  87307280.018 7                  20991722.656    20991722.633
  20991727.109                          42.600          42.100
 118374051.260 6  92239541.23546  88396222.707 7  22525824.594
  22525833.246    22525832.859          38.300          36.800          46.300
 102813616.796 7  79966183.874 6                  19219920.102    19219917.770
  19219925.289                          45.800          40.700
 102797552.395 5  79953679.501 6                  19250684.633    19250681.383
  19250686.391                          33.300          41.900
 111014554.812 7  86504812.46447                  21125353.055
  21125358.406                          44.400          45.500
 110359438.810 7  85835164.494 7                  20659524.422    20659523.797
  20659529.039                          43.400          43.300
 105744056.586 6  82397937.94346                  20122408.406
  20122413.352                          41.700          36.400
 119574947.389 6  93002633.711 6                  22431921.711    22431921.094
  22431926.344                          36.200          37.900
 111112643.031 7  86581354.46247  82973797.777 8  21144040.000
  21144049.266    21144047.504          43.000          46.300          50.200
 124507684.965 5  97019016.70643                  23693032.313
  23693038.348                          32.900          18.600
 121956411.737 7                  91071367.690 8  23207531.422
                  23207536.758          46.800                          50.200
 135581325.173 6                 101245821.159 7  25800267.719
                  25800273.402          39.700                          43.500
 114043476.973 7                  85162365.941 7  21701750.453
                  21701755.750          43.800                          47.000
 127643490.644 7                  95318215.609 7  24289747.078
                  24289752.613          44.800                          47.500
 128299231.432 6                  95807882.085 7  24414534.461
                  24414540.094          41.900                          44.000
 121964114.031 7                  91077125.476 8  23208997.320
                  23209003.719          46.200                          50.500
 20  7  6  0 46 29.0000000  0 18G08G27R24G30R23R13G07R12G11R14G01G16
                                E27E21E14E13E30E15
 109836045.576 7  85586576.69347  82020464.495 8  20901109.320
  20901117.047    20901116.184          43.700          47.800          51.400
 120345323.278 6  93775613.06144  89868291.028 7  22900956.883
  22900965.543    22900964.707          38.200          25.800          45.400
 112249518.898 7  87305203.736 6                  20991223.906    20991223.250
  20991227.770                          42.400          41.600
 118372021.206 6  92237959.37246  88394706.762 7  22525438.516
  22525446.984    22525446.492          38.600          37.500          46.300
 102813576.205 7  79966152.310 6                  19219911.523    19219909.969
  19219917.758                          45.800          41.100
 102796613.948 5  79952949.598 6                  19250507.328    19250505.527
  19250510.684                          33.000          41.900
 111014315.366 7  86504625.87347                  21125306.750
  21125312.699                          44.300          45.600
 110362371.376 7  85837445.380 7                  20660072.969    20660072.969
  20660078.031                          43.700          43.400
 105743470.196 6  82397481.01446                  20122297.023
  20122301.840                          41.900          36.900
 119571069.614 6  92999617.694 6                  22431193.875    22431193.707
  22431198.867                          36.200          38.200
 111109865.180 7  86579189.90547  82971723.408 8  21143511.375
  21143520.762    21143518.949          43.000          46.300          50.200
 124510353.715 5  97021096.23542                  23693540.352
  23693546.273                          33.700          17.800
 121956221.344 7                  91071225.507 8  23207495.273
                  23207500.406          46.200                          50.700
 135579026.171 6                 101244104.381 7  25799830.352
                  25799835.879          39.800                          43.700
 114037955.638 7                  85158242.879 7  21700699.711
                  21700705.203          44.100                          47.400
 127641557.793 7                  95316772.252 7  24289378.930
                  24289384.770          44.800                          47.700
 128301324.809 6                  95809445.350 7  24414932.641
                  24414938.453          41.500                          44.100
 121964852.567 7                  91077676.987 8  23209138.023
                  23209144.285          46.500                          50.600
 20  7  6  0 46 30.0000000  0 18G08G27R24G30R23R13G07R12G11R14G01G16
                                E27E21E14E13E30E15
 109837433.819 7  85587658.44247  82021501.159 8  20901373.461
  20901381.074    20901380.422          43.700          47.700          51.100
 120348010.058 6  93777706.65744  89870297.391 7  22901468.773
  22901476.773    22901475.980          37.700          25.500          45.600
 112246849.959 7  87303127.894 7                  20990724.453    20990724.180
  20990728.750                          42.400          42.000
 118369991.715 6  92236377.95546  88393191.215 7  22525052.523
  22525060.719    22525060.285          38.300          36.900          46.300
 102813536.308 7  79966121.282 6                  19219903.992    19219902.719
  19219910.309                          45.300          41.200
 102795676.276 5  79952220.285 6                  19250331.969    19250330.121
  19250335.000                          32.900          41.900
 111014076.574 7  86504439.80847                  21125261.820
  21125267.445                          44.200          45.700
 110365304.544 7  85839726.733 7                  20660622.070    20660622.059
  20660627.199                          43.700          43.600
 105742884.344 7  82397024.50446                  20122185.797
  20122190.445                          42.000          36.100
 119567192.103 6  92996601.825 6                  22430465.820    22430466.223
  22430471.398                          36.100          37.200
 111107087.864 7  86577025.76447  82969649.439 8  21142982.641
  21142992.180    21142990.512          43.400          46.200          50.500
 124513022.673 5  97023175.96143                  23694047.953
  23694054.102                          33.700          18.300
 121956031.271 7                  91071083.577 8  23207459.047
                  23207464.254          46.300                          50.600
 135576727.296 6                 101242387.676 7  25799392.844
                  25799398.395          40.000                          43.700
 114032434.580 7                  85154120.016 7  21699649.094
                  21699654.488          43.500                          47.400
 127639625.295 7                  95315329.158 8  24289011.273
                  24289016.980          44.800                          48.000
 128303418.485 6                  95811008.793 7  24415331.109
                  24415337.066          41.600                          44.600
 121965591.527 7                  91078228.788 8  23209278.539
                  23209284.918          46.800                          51.200
 20  7  6  0 46 31.0000000  0 18G08G27R24G30R23R13G07R12G11R14G01G16
                                E27E21E14E13E30E15
 109838822.225 7  85588740.32447  82022537.956 8  20901637.586
  20901645.172    20901644.648          43.800          47.800          51.000
 120350696.823 6  93779800.24044  89872303.739 7  22901980.297
  22901987.973    22901987.129          37.600          26.700          45.300
 112244181.502 7  87301052.428 7                  20990224.984    20990225.063
  20990229.797                          42.200          42.100
 118367962.633 6  92234796.85446  88391676.035 7  22524666.789
  22524674.578    22524674.188          38.400          37.100          45.900
 102813497.004 7  79966090.713 6                  19219897.391    19219895.383
  19219903.078                          45.500          40.900
 102794739.218 5  79951491.490 6                  19250155.484    19250154.391
  19250159.547                          33.500          41.600
 111013838.398 7  86504254.21847                  21125216.625
  21125221.965                          44.200          45.400
 110368238.253 7  85842008.487 7                  20661171.680    20661171.172
  20661176.344                          44.000          43.600
 105742298.993 7  82396568.39146                  20122074.047
  20122079.078                          42.100          36.800
 119563314.659 6  92993586.052 6                  22429737.414    22429738.879
  22429744.047                          36.400          37.800
 111104310.969 7  86574861.95447  82967575.782 8  21142454.594
  21142463.633    21142462.082          43.000          46.400          50.000
 124515691.706 5  97025255.72343                  23694555.875
  23694561.922                          33.400          18.300
 121955841.463 7                  91070941.838 8  23207423.023
                  23207428.160          46.500                          49.700
 135574428.448 6                 101240671.009 7  25798955.602
                  25798960.871          40.000                          43.000
 114026913.756 7                  85149997.315 7  21698598.750
                  21698603.902          43.300                          46.400
 127637693.065 7                  95313886.264 7  24288643.453
                  24288649.281          45.100                          47.600
 128305512.337 6                  95812572.368 7  24415729.563
                  24415735.641          41.600                          44.400
 121966330.768 7                  91078780.821 8  23209419.250
                  23209425.477          46.800                          50.000
 20  7  6  0 46 32.0000000  0 18G08G27R24G30R23R13G07R12G11R14G01G16
                                E27E21E14E13E30E15
 109840210.894 7  85589822.39947  82023574.952 8  20901901.727
  20901909.492    20901908.922          43.800          47.800          50.900
 120353383.688 6  93781893.89244  89874310.153 7  22902491.227
  22902499.379    22902498.484          37.300          26.000          45.600
 112241513.563 7  87298977.373 7                  20989726.148    20989726.109
  20989730.949                          42.300          42.300
 118365934.204 6  92233216.26246  88390161.264 7  22524280.656
  22524288.594    22524288.211          38.300          37.300          45.900
 102813458.415 7  79966060.697 6                  19219889.484    19219888.305
  19219895.742                          45.300          41.100
 102793803.043 5  79950763.363 6                  19249979.438    19249978.770
  19249984.383                          32.900          41.700
 111013600.925 7  86504069.17247                  21125171.227
  21125176.797                          44.300          45.600
 110371172.564 7  85844290.749 7                  20661720.570    20661720.781
  20661725.578                          44.200          44.000
 105741714.200 7  82396112.70446                  20121962.625
  20121967.617                          42.100          37.000
 119559437.438 6  92990570.454 6                  22429011.117    22429011.586
  22429016.547                          36.400          37.900
 111101534.643 7  86572698.57947  82965502.555 8  21141926.461
  21141935.355    21141933.680          42.900          46.200          50.000
 124518361.075 5  97027335.76342                  23695063.445
  23695069.863                          33.100          17.400
 121955652.023 7                  91070800.369 8  23207386.734
                  23207392.172          46.300                          49.600
 135572129.741 6                 101238954.443 7  25798517.961
                  25798523.469          40.000                          43.200
 114021393.203 7                  85145874.836 7  21697548.086
                  21697553.371          43.700                          46.600
 127635761.224 7                  95312443.640 7  24288275.930
                  24288281.586          44.800                          47.700
 128307606.446 7                  95814136.162 7  24416127.852
                  24416134.016          42.100                          44.400
 121967070.440 7                  91079333.169 8  23209559.844
                  23209566.285          46.500                          49.900
 20  7  6  0 46 33.0000000  0 18G08G27R24G30R23R13G07R12G11R14G01G16
                                E27E21E14E13E30E15
 109841599.801 7  85590904.65947  82024612.126 8  20902166.320
  20902173.789    20902173.172          43.900          47.800          51.100
 120356070.624 6  93783987.61144  89876316.630 7  22903002.430
  22903010.594    22903009.746          37.100          26.500          45.500
 112238846.181 7  87296902.733 7                  20989227.141    20989226.977
  20989232.164                          42.100          42.300
 118363906.252 6  92231636.03546  88388646.880 7  22523894.445
  22523902.664    22523902.234          38.100          37.500          46.000
 102813420.506 7  79966031.224 6                  19219882.945    19219881.355
  19219888.605                          44.900          41.200
 102792867.555 5  79950035.774 6                  19249806.148    19249803.867
  19249809.133                          32.800          41.900
 111013364.150 7  86503884.67647                  21125126.594
  21125131.664                          44.400          45.700
 110374107.475 7  85846573.462 7                  20662270.578    20662270.070
  20662275.102                          44.100          43.600
 105741130.005 7  82395657.48546                  20121851.211
  20121856.402                          42.300          36.500
 119555560.395 6  92987554.980 6                  22428283.758    22428284.160
  22428289.258                          36.500          37.800
 111098758.840 7  86570535.61247  82963429.715 8  21141398.047
  21141406.910    21141405.434          43.000          46.500          50.500
 124521030.576 5  97029415.90942                  23695571.133
  23695577.949                          33.700          17.400
 121955462.929 7                  91070659.153 8  23207350.867
                  23207356.145          46.500                          49.800
 135569831.112 6                 101237237.941 7  25798080.820
                  25798086.105          39.600                          43.200
 114015872.984 7                  85141752.572 7  21696497.703
                  21696502.754          43.700                          46.700
 127633829.704 7                  95311001.279 8  24287908.320
                  24287914.051          44.600                          48.000
 128309700.833 6                  95815700.151 7  24416526.453
                  24416532.691          41.600                          44.900
 121967810.501 7                  91079885.823 8  23209700.766
                  23209707.012          46.300                          50.000
 20  7  6  0 46 34.0000000  0 18G08G27R24G30R23R13G07R12G11R14G01G16
                                E27E21E14E13E30E15
 109842988.889 7  85591987.07147  82025649.433 8  20902430.031
  20902438.094    20902437.457          43.900          47.900          51.000
 120358757.584 6  93786081.34344  89878323.126 7  22903513.680
  22903522.051    22903521.188          37.500          26.500          45.700
 112236179.255 6  87294828.470 7                  20988728.398    20988728.160
  20988733.488                          41.800          42.300
 118361878.784 6  92230056.18846  88387132.877 7  22523508.969
  22523516.813    22523516.500          38.400          37.500          46.300
 102813383.250 7  79966002.230 6                  19219874.813    19219874.289
  19219881.625                          45.100          40.900
 102791932.789 5  79949308.737 7                  19249631.656    19249628.656
  19249634.094                          32.400          42.000
 111013127.998 7  86503700.65347                  21125081.289
  21125086.754                          44.100          45.500
 110377042.888 7  85848856.552 7                  20662820.297    20662819.754
  20662824.668                          44.400          44.100
 105740546.315 7  82395202.66546                  20121740.250
  20121745.168                          42.000          36.700
 119551683.513 6  92984539.605 6                  22427557.313    22427556.980
  22427561.941                          37.000          38.200
 111095983.506 7  86568373.02747  82961357.223 8  21140870.063
  21140879.063    21140877.371          43.000          46.200          50.000
 124523700.243 5  97031496.16342                  23696079.828
  23696085.980                          33.600          17.800
 121955274.093 7                  91070518.153 8  23207314.852
                  23207320.180          46.400                          49.600
 135567532.572 6                 101235521.502 7  25797643.156
                  25797648.754          39.900                          43.500
 114010352.933 7                  85137630.479 7  21695447.188
                  21695452.363          43.300                          47.000
 127631898.494 7                  95309559.141 7  24287540.938
                  24287546.551          44.500                          47.700
 128311795.427 6                  95817264.285 7  24416925.211
                  24416931.270          41.600                          44.700
 121968550.902 7                  91080438.713 8  23209841.805
                  23209848.078          46.200                          49.700
 20  7  6  0 46 35.0000000  0 18G08G27R24G30R23R13G07R12G11R14G01G16
                                E27E21E14E13E30E15
 109844378.258 7  85593069.69947  82026686.940 8  20902694.914
  20902702.441    20902701.992          44.300          47.900          51.200
 120361444.626 6  93788175.15844  89880329.683 7  22904024.508
  22904033.344    22904032.398          37.400          26.800          45.600
 112233512.926 7  87292754.654 7                  20988229.734    20988229.707
  20988235.055                          42.200          42.100
 118359851.922 6  92228476.81046  88385619.311 7  22523122.156
  22523130.953    22523130.773          37.600          37.300          46.100
 102813346.718 7  79965973.810 6                  19219868.227    19219867.613
  19219874.699                          45.300          41.100
 102790998.809 5  79948582.287 6                  19249457.164    19249454.133
  19249459.063                          32.600          41.800
 111012892.544 7  86503517.18247                  21125036.469
  21125042.059                          44.100          45.600
 110379978.903 7  85851140.119 7                  20663369.773    20663369.449
  20663374.352                          44.400          44.000
 105739963.213 6  82394748.29446                  20121629.305
  20121634.246                          41.900          37.300
 119547806.837 6  92981524.414 6                  22426830.273    22426829.859
  22426834.734                          36.400          38.200
 111093208.731 7  86566210.86047  82959285.141 8  21140341.906
  21140350.855    21140349.387          43.400          46.500          50.300
 124526370.092 5  97033576.54843                  23696587.164
  23696594.035                          33.700          19.300
 121955085.639 7                  91070377.417 8  23207279.203
                  23207284.289          46.300                          49.800
 135565234.161 6                 101233805.155 7  25797205.867
                  25797211.258          39.800                          43.900
 114004833.230 7                  85133508.615 7  21694396.711
                  21694402.063          43.200                          47.300
 127629967.635 7                  95308117.277 8  24287173.469
                  24287179.156          44.500                          48.100
 128313890.285 6                  95818828.645 7  24417324.000
                  24417329.902          41.800                          44.200
 121969291.723 7                  91080991.932 8  23209982.641
                  23209988.957          45.900                          49.800
 20  7  6  0 46 36.0000000  0 18G08G27R24G30R23R13G07R12G11R14G01G16
                                E27E21E14E13E30E15
 109845767.788 7  85594152.44647  82027724.581 8  20902959.039
  20902966.988    20902966.410          44.400          47.800          51.200
 120364131.710 6  93790268.98044  89882336.271 7  22904536.406
  22904544.586    22904543.828          36.900          25.600          45.700
 112230847.091 7  87290681.225 7                  20987730.836    20987730.828
  20987736.496                          42.000          42.200
 118357825.518 6  92226897.80046  88384106.099 7  22522736.461
  22522745.375    22522745.109          37.500          37.300          46.200
 102813310.814 7  79965945.908 6                  19219861.406    19219860.773
  19219868.047                          45.100          41.000
 102790065.599 5  79947856.449 6                  19249280.836    19249278.836
  19249284.383                          33.000          41.700
 111012657.751 7  86503334.22447                  21124991.680
  21124997.391                          44.100          45.700
 110382915.473 7  85853424.109 7                  20663919.453    20663919.020
  20663924.074                          44.500          44.000
 105739380.628 6  82394294.34346                  20121518.859
  20121523.516                          41.900          37.000
 119543930.296 6  92978509.329 6                  22426102.492    22426102.688
  22426107.441                          36.300          37.900
 111090434.406 7  86564049.05047  82957213.415 8  21139814.203
  21139823.016    21139821.465          43.200          46.300          50.200
 124529040.151 5  97035657.10943                  23697095.766
  23697102.223                          34.200          19.600
 121954897.472 7                  91070236.903 8  23207243.219
                  23207248.500          46.200                          49.900
 135562935.835 6                 101232088.873 7  25796768.742
                  25796773.961          40.100                          43.900
 113999313.755 7                  85129386.930 7  21693346.484
                  21693351.637          43.600                          47.200
 127628037.105 7                  95306675.644 8  24286806.328
                  24286811.801          44.500                          48.100
 128315985.356 6                  95820393.149 7  24417722.773
                  24417728.785          41.500                          44.700
 121970032.910 7                  91081545.394 8  23210123.680
                  23210130.102          45.800                          50.000
 20  7  6  0 46 37.0000000  0 18G08G27R24G30R23R13G07R12G11R14G01G16
                                E27E21E14E13E30E15
 109847157.539 7  85595235.37147  82028762.385 8  20903223.445
  20903231.406    20903230.758          43.900          47.800          51.100
 120366818.824 6  93792362.82944  89884342.875 7  22905048.008
  22905055.863    22905055.230          37.100          24.800          46.000
 112228181.760 7  87288608.195 7                  20987232.305    20987232.699
  20987237.902                          42.300          42.200
 118355799.619 6  92225319.17146  88382593.252 7  22522351.734
  22522359.871    22522359.777          37.800          37.300          46.000
 102813275.586 7  79965918.499 6                  19219855.016    19219854.176
  19219861.465                          45.400          40.700
 102789133.065 5  79947131.121 6                  19249106.820    19249104.012
  19249109.695                          32.600          41.900
 111012423.587 7  86503151.76347                  21124947.359
  21124952.777                          43.900          45.500
 110385852.629 7  85855708.561 7                  20664469.609    20664468.871
  20664473.949                          44.000          43.800
 105738798.560 7  82393840.77946                  20121407.961
  20121412.793                          42.200          37.100
 119540053.947 6  92975494.411 6                  22425375.008    22425375.227
  22425380.191                          36.200          38.600
 111087660.580 7  86561887.62047  82955142.062 8  21139286.219
  21139295.258    21139293.727          43.400          46.300          50.300
 124531710.329 5  97037737.77543                  23697603.867
  23697610.441                          34.300          19.300
 121954709.612 7                  91070096.622 8  23207207.531
                  23207212.773          46.100                          50.200
 135560637.585 6                 101230372.632 7  25796331.516
                  25796336.605          40.200                          43.700
 113993794.523 7                  85125265.422 7  21692296.086
                  21692301.328          42.800                          47.200
 127626106.885 7                  95305234.231 8  24286438.750
                  24286444.477          44.900                          48.000
 128318080.684 6                  95821957.818 7  24418121.516
                  24418127.449          41.400                          44.500
 121970774.423 7                  91082099.139 8  23210264.766
                  23210271.086          46.000                          50.500
 20  7  6  0 46 38.0000000  0 18G08G27R24G30R23R13G07R12G11R14G01G16
                                E27E21E14E13E30E15
 109848547.573 7  85596318.51547  82029800.391 8  20903488.133
  20903495.996    20903495.332          44.100          47.800          51.200
 120369506.025 6  93794456.75744  89886349.561 7  22905558.844
  22905567.328    22905566.539          37.300          25.600          45.500
 112225516.987 7  87286535.596 7                  20986734.422    20986734.039
  20986739.633                          42.400          42.700
 118353774.337 6  92223741.02846  88381080.845 7  22521966.406
  22521974.250    22521974.301          37.800          36.900          46.000
 102813241.060 7  79965891.654 6                  19219848.859    19219847.563
  19219855.059                          45.800          41.100
 102788201.326 5  79946406.471 7                  19248931.469    19248929.789
  19248935.258                          33.100          42.000
 111012190.153 7  86502969.86547                  21124902.672
  21124908.406                          44.100          45.500
 110388790.410 7  85857993.500 7                  20665019.438    20665018.859
  20665023.988                          43.900          43.500
 105738217.120 7  82393387.70646                  20121297.063
  20121302.199                          42.200          36.900
 119536177.856 5  92972479.664 6                  22424648.773    22424648.184
  22424653.031                          35.900          38.100
 111084887.331 7  86559726.65447  82953071.111 8  21138758.008
  21138767.406    21138765.879          43.300          46.200          50.400
 124534380.759 5  97039818.61243                  23698112.617
  23698118.695                          34.300          19.300
 121954522.126 7                  91069956.609 8  23207171.938
                  23207177.035          46.400                          49.700
 135558339.461 6                 101228656.516 7  25795893.898
                  25795899.207          39.900                          43.400
 113988275.617 7                  85121144.184 7  21691246.078
                  21691251.215          43.100                          46.700
 127624177.040 7                  95303793.119 7  24286071.617
                  24286077.313          44.900                          47.500
 128320176.262 6                  95823522.700 7  24418520.039
                  24418526.246          41.700                          44.200
 121971516.387 7                  91082653.208 8  23210405.992
                  23210412.262          46.300                          49.800
 20  7  6  0 46 39.0000000  0 18G08G27R24G30R23R13G07R12G11R14G01G16
                                E27E21E14E13E30E15
 109849937.846 7  85597401.84547  82030838.583 8  20903753.016
  20903760.500    20903759.922          44.100          47.600          51.100
 120372193.320 6  93796550.74344  89888356.289 7  22906070.352
  22906078.594    22906077.820          37.100          26.100          45.500
 112222852.708 7  87284463.367 7                  20986236.688    20986235.754
  20986241.344                          42.600          42.700
 118351749.556 6  92222163.27746  88379568.823 7  22521580.203
  22521588.988    22521589.012          37.700          37.100          46.000
 102813207.213 7  79965865.312 6                  19219842.984    19219841.512
  19219848.809                          45.700          41.500
 102787270.325 5  79945682.403 6                  19248758.445    19248755.371
  19248760.926                          32.500          41.600
 111011957.368 7  86502788.46547                  21124858.547
  21124864.102                          43.900          45.700
 110391728.738 7  85860278.863 7                  20665569.016    20665568.699
  20665573.910                          43.600          43.700
 105737636.225 7  82392935.06946                  20121186.773
  20121191.574                          42.300          36.900
 119532301.897 5  92969464.999 6                  22423920.234    22423920.988
  22423925.828                          35.900          38.300
 111082114.555 7  86557566.04547  82951000.549 8  21138231.172
  21138239.691    21138238.246          43.000          46.400          50.100
 124537051.374 5  97041899.60143                  23698620.773
  23698627.020                          34.300          19.300
 121954334.956 7                  91069816.839 8  23207136.070
                  23207141.480          46.200                          49.800
 135556041.409 6                 101226940.454 7  25795456.758
                  25795461.941          40.000                          43.600
 113982756.982 7                  85117023.118 7  21690196.078
                  21690201.059          43.400                          47.100
 127622247.510 7                  95302352.246 7  24285704.664
                  24285710.090          44.500                          47.400
 128322272.090 6                  95825087.767 7  24418919.000
                  24418925.195          40.900                          44.100
 121972258.724 7                  91083207.540 8  23210547.227
                  23210553.563          46.200                          50.000
 20  7  6  0 46 40.0000000  0 18G08G27R24G30R23R13G07R12G11R14G01G16
                                E27E21E14E13E30E15
 109851328.284 7  85598485.29847  82031876.907 8  20904017.344
  20904024.883    20904024.469          44.000          47.900          51.100
 120374880.553 6  93798644.69144  89890363.005 7  22906582.125
  22906590.086    22906589.180          37.100          25.600          45.800
 112220188.885 7  87282391.500 7                  20985737.523    20985737.750
  20985743.293                          42.600          42.300
 118349725.217 6  92220585.86946  88378057.163 7  22521195.703
  22521203.930    22521203.898          37.900          37.400          46.000
 102813173.960 7  79965839.453 6                  19219835.977    19219835.121
  19219842.523                          46.100          41.500
 102786340.126 5  79944958.865 6                  19248583.438    19248581.305
  19248586.680                          33.100          41.600
 111011725.203 7  86502607.56247                  21124814.258
  21124819.676                          43.400          45.400
 110394667.527 7  85862564.595 7                  20666118.734    20666119.328
  20666124.160                          43.900          44.200
 105737055.806 6  82392482.78846                  20121076.219
  20121081.078                          41.900          36.600
 119528426.035 6  92966450.449 6                  22423193.102    22423193.328
  22423198.758                          36.000          38.600
 111079342.249 7  86555405.80647  82948930.312 8  21137703.094
  21137712.285    21137710.754          43.200          46.100          50.300
 124539722.115 5  97043980.70643                  23699129.242
  23699135.219                          34.300          18.600
 121954148.053 7                  91069677.267 8  23207100.305
                  23207105.867          46.000                          50.100
 135553743.448 6                 101225224.439 7  25795019.375
                  25795024.590          39.900                          43.600
 113977238.555 7                  85112902.206 7  21689145.945
                  21689150.844          43.400                          47.200
 127620318.263 7                  95300911.573 7  24285337.375
                  24285342.875          44.600                          47.700
 128324368.101 6                  95826652.963 7  24419318.102
                  24419323.969          41.200                          44.300
 121973001.369 7                  91083762.114 8  23210688.336
                  23210694.781          46.100                          50.500
 20  7  6  0 46 41.0000000  0 18G08G27R24G30R23R13G07R12G11R14G01G16
                                E27E21E14E13E30E15
 109852719.007 7  85599568.98747  82032915.428 8  20904281.781
  20904289.664    20904289.125          44.200          47.800          50.900
 120377567.938 6  93800738.77444  89892369.823 7  22907093.391
  22907101.434    22907100.566          37.500          24.200          45.300
 112217525.653 7  87280320.109 7                  20985239.406    20985239.457
  20985245.316                          42.600          42.400
 118347701.504 6  92219008.94946  88376545.930 7  22520810.914
  22520819.039    22520818.605          37.700          37.300          46.000
 102813141.443 7  79965814.165 6                  19219829.859    19219829.008
  19219836.449                          46.000          41.100
 102785410.633 5  79944235.977 7                  19248409.930    19248407.508
  19248412.715                          32.500          42.000
 111011493.770 7  86502427.22247                  21124770.234
  21124775.805                          43.700          45.400
 110397606.968 7  85864850.825 7                  20666670.000    20666669.273
  20666674.398                          44.200          44.400
 105736476.008 7  82392031.00146                  20120965.570
  20120970.785                          42.200          36.900
 119524550.419 6  92963436.100 6                  22422466.695    22422466.734
  22422472.000                          36.200          38.600
 111076570.503 7  86553246.00347  82946860.509 8  21137175.563
  21137184.734    21137183.313          43.500          46.300          50.100
 124542393.110 5  97046061.99043                  23699637.344
  23699643.477                          34.300          19.000
 121953961.537 7                  91069537.988 8  23207065.117
                  23207070.328          46.000                          49.500
 135551445.613 6                 101223508.524 7  25794582.023
                  25794587.453          39.500                          43.800
 113971720.467 7                  85108781.557 7  21688096.047
                  21688100.883          43.000                          46.900
 127618389.407 7                  95299471.196 7  24284970.203
                  24284975.949          44.700                          47.200
 128326464.392 6                  95828218.400 7  24419716.742
                  24419722.926          41.200                          44.400
 121973744.466 7                  91084317.027 8  23210830.039
                  23210836.289          46.100                          49.600
 20  7  6  0 46 42.0000000  0 18G08G27R24G30R23R13G07R12G11R14G01G16
                                E27E21E14E13E30E15
 109854109.918 7  85600652.81147  82033954.100 8  20904546.852
  20904554.488    20904553.758          43.400          47.800          51.200
 120380255.359 6  93802832.86444  89894376.642 7  22907604.977
  22907612.828    22907612.031          37.300          26.000          45.700
 112214862.949 7  87278249.126 7                  20984741.234    20984741.480
  20984747.336                          42.600          42.400
 118345678.307 6  92217432.43446  88375035.078 7  22520425.477
  22520434.016    22520433.664          38.000          36.700          46.000
 102813109.568 7  79965789.382 6                  19219824.266    19219822.984
  19219830.473                          45.400          41.700
 102784481.914 5  79943513.616 6                  19248234.719    19248233.270
  19248238.941                          32.100          41.500
 111011262.980 7  86502247.38947                  21124726.664
  21124731.887                          43.900          45.500
 110400546.954 7  85867137.487 7                  20667220.461    20667219.594
  20667224.824                          44.200          44.500
 105735896.757 7  82391579.63446                  20120855.922
  20120860.492                          42.200          37.300
 119520674.959 6  92960421.855 6                  22421739.633    22421739.305
  22421744.953                          36.100          38.600
 111073799.244 7  86551086.58047  82944791.053 8  21136648.289
  21136657.535    21136656.043          43.100          46.300          50.700
 124545064.255 5  97048143.41343                  23700146.016
  23700151.863                          34.800          18.600
 121953775.309 7                  91069398.922 8  23207029.602
                  23207034.910          45.700                          49.900
 135549147.853 6                 101221792.670 7  25794144.625
                  25794150.070          39.400                          44.000
 113966202.612 7                  85104661.075 7  21687045.914
                  21687050.715          43.200                          47.300
 127616460.872 7                  95298031.041 7  24284603.359
                  24284608.938          44.300                          47.700
 128328560.970 6                  95829783.996 7  24420115.422
                  24420121.801          41.400                          44.600
 121974487.902 7                  91084872.200 8  23210971.547
                  23210977.738          46.000                          49.900
 20  7  6  0 46 43.0000000  0 18G08G27R24G30R23R13G07R12G11R14G01G16
                                E27E21E14E13E30E15
 109855501.124 7  85601736.87247  82034992.985 8  20904811.398
  20904819.035    20904818.543          43.700          47.700          51.100
 120382942.844 6  93804926.98544  89896383.534 7  22908116.422
  22908124.309    22908123.563          37.800          25.600          45.900
 112212200.780 7  87276178.539 7                  20984243.820    20984243.809
  20984249.414                          42.200          42.300
 118343655.623 6  92215856.31246  88373524.657 7  22520041.094
  22520048.980    22520048.949          38.000          37.300          46.400
 102813078.410 7  79965765.138 6                  19219817.875    19219817.023
  19219824.625                          45.500          40.900
 102783554.031 5  79942791.910 6                  19248061.656    19248059.570
  19248065.188                          32.100          41.500
 111011032.886 7  86502068.09247                  21124682.547
  21124688.102                          43.900          45.700
 110403487.585 7  85869424.633 7                  20667770.391    20667770.211
  20667775.281                          44.200          44.400
 105735318.074 7  82391128.71346                  20120745.383
  20120750.465                          42.000          37.100
 119516799.714 5  92957407.763 6                  22421014.313    22421012.617
  22421018.129                          35.800          38.400
 111071028.554 7  86548927.59747  82942722.031 8  21136121.250
  21136130.234    21136128.875          42.800          46.300          50.700
 124547735.626 5  97050224.98843                  23700654.180
  23700660.145                          34.500          19.600
 121953589.463 7                  91069260.137 8  23206994.289
                  23206999.520          46.200                          50.000
 135546850.263 6                 101220076.916 7  25793707.516
                  25793712.805          39.900                          44.000
 113960685.057 7                  85100540.842 7  21685995.891
                  21686000.734          43.200                          47.300
 127614532.673 7                  95296591.178 7  24284236.500
                  24284241.984          44.400                          47.500
 128330657.771 6                  95831349.805 7  24420514.773
                  24420520.855          41.700                          44.700
 121975231.783 7                  91085427.684 8  23211113.086
                  23211119.223          46.000                          50.100
 20  7  6  0 46 44.0000000  0 18G08G27R24G30R23R13G07R12G11R14G01G16
                                E27E21E14E13E30E15
 109856892.518 7  85602821.06747  82036032.015 8  20905076.023
  20905083.855    20905083.293          43.500          47.800          51.000
 120385630.346 6  93807021.15244  89898390.460 7  22908627.328
  22908635.672    22908634.895          37.400          26.200          45.800
 112209539.067 7  87274108.324 6                  20983747.211    20983745.918
  20983751.684                          42.700          41.900
 118341633.418 6  92214280.57546  88372014.579 7  22519655.531
  22519664.305    22519663.852          37.800          37.400          46.500
 102813047.865 7  79965741.384 6                  19219813.398    19219811.281
  19219818.883                          45.600          40.600
 102782626.816 5  79942070.725 6                  19247886.633    19247885.820
  19247891.516                          32.400          41.600
 111010803.413 7  86501889.28047                  21124638.602
  21124644.535                          43.900          45.800
 110406428.709 7  85871712.188 7                  20668321.164    20668320.980
  20668325.895                          43.800          44.300
 105734739.893 6  82390678.18546                  20120635.648
  20120640.371                          41.900          36.600
 119512924.627 6  92954393.814 6                  22420285.477    22420285.801
  22420291.250                          36.100          38.200
 111068258.278 7  86546768.94247  82940653.326 8  21135594.133
  21135602.969    21135601.730          43.000          46.300          50.800
 124550407.139 5  97052306.73443                  23701162.727
  23701168.586                          34.300          18.300
 121953403.865 7                  91069121.543 8  23206958.969
                  23206964.238          46.000                          50.300
 135544552.641 6                 101218361.197 7  25793270.273
                  25793275.574          39.800                          44.400
 113955167.730 7                  85096420.761 7  21684946.023
                  21684950.898          43.700                          47.100
 127612604.790 7                  95295151.515 7  24283869.359
                  24283875.254          44.300                          47.900
 128332754.784 6                  95832915.739 7  24420913.508
                  24420919.887          41.600                          44.600
 121975975.966 7                  91085983.414 8  23211254.727
                  23211260.867          45.700                          50.200
 20  7  6  0 46 45.0000000  0 18G08G27R24G30R23R13G07R12G11R14G01G16
                                E27E21E14E13E30E15
 109858284.141 7  85603905.45247  82037071.217 8  20905340.570
  20905348.629    20905348.164          43.600          47.600          50.900
 120388317.959 6  93809115.39944  89900397.410 7  22909139.484
  22909147.164    22909146.234          37.300          25.300          45.700
 112206877.911 7  87272038.543 7                  20983249.016    20983248.621
  20983253.914                          42.700          42.400
 118339611.755 6  92212705.25246  88370504.915 7  22519271.031
  22519279.719    22519279.391          38.200          37.200          46.400
 102813018.008 7  79965718.174 6                  19219806.234    19219805.973
  19219813.379                          45.800          40.900
 102781700.354 5  79941350.135 6                  19247714.453    19247712.574
  19247718.063                          32.900          41.400
 111010574.631 7  86501711.01347                  21124595.422
  21124600.852                          43.900          45.800
 110409370.449 7  85874000.185 7                  20668871.688    20668871.594
  20668876.613                          43.900          44.400
 105734162.278 7  82390228.09446                  20120525.492
  20120530.516                          42.200          37.100
 119509049.743 6  92951379.992 6                  22419560.203    22419559.168
  22419564.293                          36.200          38.600
 111065488.549 7  86544610.71447  82938585.016 8  21135066.484
  21135075.926    21135074.590          43.000          46.300          50.200
 124553078.823 5  97054388.54542                  23701670.805
  23701676.840                          34.300          16.900
 121953218.630 7                  91068983.215 8  23206923.727
                  23206929.063          45.800                          50.100
 135542255.229 6                 101216645.564 7  25792833.117
                  25792838.719          40.000                          44.000
 113949650.711 7                  85092300.898 7  21683896.242
                  21683901.063          43.400                          46.700
 127610677.267 7                  95293712.110 7  24283503.000
                  24283508.352          44.400                          47.700
 128334852.073 6                  95834481.902 7  24421312.477
                  24421318.957          41.700                          44.400
 121976720.566 7                  91086539.431 8  23211396.336
                  23211402.617          45.900                          50.100
 20  7  6  0 46 46.0000000  0 18G08G27R24G30R23R13G07R12G11R14G01G16
                                E27E21E14E13E30E15
 109859675.975 7  85604990.00047  82038110.584 8  20905605.359
  20905613.457    20905612.984          43.600          47.500          51.000
 120391005.550 6  93811209.62344  89902404.400 7  22909650.727
  22909658.621    22909657.824          36.700          26.500          46.000
 112204217.257 7  87269969.142 7                  20982750.906    20982751.094
  20982756.379                          42.800          42.400
 118337590.649 6  92211130.36146  88368995.625 7  22518886.453
  22518895.035    22518894.770          38.500          37.300          46.700
 102812988.826 7  79965695.467 6                  19219801.727    19219800.270
  19219807.922                          45.800          40.700
 102780774.685 5  79940630.149 6                  19247540.242    19247539.289
  19247544.594                          33.100          41.900
 111010346.500 7  86501533.24647                  21124551.773
  21124557.480                          43.900          45.500
 110412312.692 7  85876288.615 7                  20669423.398    20669422.453
  20669427.402                          43.800          44.600
 105733585.195 7  82389778.41546                  20120416.250
  20120420.762                          42.100          37.200
 119505174.994 6  92948366.326 6                  22418833.203    22418832.488
  22418837.410                          36.500          39.000
 111062719.316 7  86542452.86547  82936517.089 8  21134539.813
  21134548.906    21134547.672          42.700          46.300          50.300
 124555750.702 5  97056470.51143                  23702179.898
  23702185.398                          34.300          18.300
 121953033.689 7                  91068845.113 8  23206888.680
                  23206893.770          46.100                          49.900
 135539957.833 6                 101214929.993 7  25792396.047
                  25792401.320          39.900                          44.200
 113944133.921 7                  85088181.222 7  21682846.414
                  21682851.242          43.400                          46.900
 127608750.022 7                  95292272.952 7  24283135.922
                  24283141.516          44.500                          47.600
 128336949.560 6                  95836048.196 7  24421711.781
                  24421717.828          41.500                          44.600
 121977465.509 7                  91087095.730 8  23211538.188
                  23211544.395          46.300                          50.100
 20  7  6  0 46 47.0000000  0 18G08G27R24G30R23R13G07R12G11R14G01G16
                                E27E21E14E13E30E15
 109861068.042 7  85606074.72347  82039150.105 8  20905870.242
  20905878.469    20905877.887          43.700          47.600          50.900
 120393693.258 6  93813303.93544  89904411.421 7  22910161.977
  22910170.023    22910169.164          37.000          25.600          45.900
 112201557.096 7  87267900.132 7                  20982254.383    20982253.422
  20982258.938                          42.700          42.400
 118335570.050 6  92209555.87446  88367486.733 7  22518501.313
  22518510.699    22518510.215          38.600          37.300          46.200
 102812960.311 7  79965673.285 6                  19219795.453    19219794.977
  19219802.598                          45.800          40.600
 102779849.729 5  79939910.755 6                  19247366.617    19247366.184
  19247371.441                          32.500          41.800
 111010119.041 7  86501356.00447                  21124508.891
  21124514.113                          43.900          45.600
 110415255.517 7  85878577.465 7                  20669973.531    20669973.422
  20669978.340                          44.200          43.800
 105733008.675 6  82389329.18046                  20120305.953
  20120311.078                          41.800          36.300
 119501300.434 6  92945352.764 6                  22418106.664    22418105.355
  22418110.531                          36.800          38.900
 111059950.590 7  86540295.42447  82934449.531 8  21134012.852
  21134022.000    21134020.887          42.800          46.000          50.300
 124558422.767 5  97058552.61442                  23702689.039
  23702693.871                          34.700          17.800
 121952849.063 7                  91068707.245 8  23206853.438
                  23206858.688          46.200                          50.300
 135537660.559 6                 101213214.480 7  25791958.867
                  25791964.047          39.700                          43.900
 113938617.398 7                  85084061.744 7  21681796.648
                  21681801.422          43.700                          47.000
 127606823.112 7                  95290834.026 7  24282769.469
                  24282775.027          44.700                          47.700
 128339047.275 6                  95837614.694 7  24422111.156
                  24422117.172          41.200                          44.700
 121978210.831 7                  91087652.302 8  23211679.992
                  23211686.109          46.500                          50.100
 20  7  6  0 46 48.0000000  0 18G08G27R24G30R23R13G07R12G11R14G01G16
                                E27E21E14E13E30E15
 109862460.292 7  85607159.59947  82040189.777 8  20906135.695
  20906143.316    20906142.816          43.700          47.600          51.100
 120396380.956 6  93815398.24144  89906418.491 7  22910673.117
  22910681.402    22910680.645          37.300          25.600          45.600
 112198897.482 7  87265831.551 7                  20981757.039    20981756.813
  20981761.613                          43.000          42.400
 118333549.945 6  92207981.76146  88365978.237 7  22518117.508
  22518126.234    22518125.840          38.300          37.200          46.300
 102812932.466 7  79965651.641 6                  19219791.125    19219789.988
  19219797.414                          46.000          40.900
 102778925.483 5  79939191.919 6                  19247194.203    19247192.598
  19247198.316                          32.500          41.100
 111009892.241 7  86501179.27947                  21124465.680
  21124471.148                          43.800          45.700
 110418198.926 7  85880866.780 7                  20670524.953    20670524.254
  20670529.199                          43.800          44.100
 105732432.700 6  82388880.37046                  20120196.633
  20120201.289                          41.700          36.200
 119497426.029 6  92942339.362 6                  22417378.891    22417378.688
  22417383.746                          36.600          39.100
 111057182.360 7  86538138.35847  82932382.340 8  21133486.242
  21133495.215    21133494.105          42.700          46.300          50.500
 124561094.978 5  97060634.86243                  23703197.039
  23703202.422                          34.100          18.600
 121952664.753 7                  91068569.607 8  23206818.430
                  23206823.539          46.400                          50.100
 135535363.384 6                 101211499.058 7  25791521.891
                  25791527.027          38.900                          43.800
 113933101.151 7                  85079942.471 7  21680746.820
                  21680751.844          43.900                          47.300
 127604896.538 7                  95289395.352 8  24282402.805
                  24282408.355          44.800                          48.000
 128341145.255 6                  95839181.357 7  24422510.633
                  24422516.277          41.400                          44.900
 121978956.539 7                  91088209.159 8  23211821.719
                  23211828.035          46.400                          50.100
 20  7  6  0 46 49.0000000  0 18G08G27R24G30R23R13G07R12G11R14G01G16
                                E27E21E14E13E30E15
 109863852.754 7  85608244.63947  82041229.613 8  20906400.195
  20906408.355    20906407.910          43.800          47.500          51.200
 120399068.720 6  93817492.60344  89908425.581 7  22911184.383
  22911192.949    22911192.242          37.700          26.300          45.700
 112196238.378 7  87263763.365 7                  20981259.344    20981259.590
  20981264.383                          43.000          42.300
 118331530.398 6  92206408.09246  88364470.097 7  22517733.461
  22517741.754    22517741.492          38.100          36.900          46.200
 102812905.302 7  79965630.499 6                  19219786.211    19219784.840
  19219792.348                          46.000          40.800
 102778002.037 5  79938473.667 6                  19247020.930    19247019.840
  19247025.387                          32.400          41.800
 111009666.086 7  86501003.04947                  21124422.680
  21124427.906                          44.100          45.800
 110421142.899 7  85883156.529 7                  20671075.703    20671075.508
  20671080.363                          44.400          44.600
 105731857.247 6  82388431.96346                  20120086.289
  20120091.879                          41.100          36.200
 119493551.819 6  92939326.094 6                  22416652.422    22416652.207
  22416656.988                          36.500          38.900
 111054414.641 7  86535981.69547  82930315.546 8  21132959.500
  21132968.652    21132967.395          42.700          46.400          50.500
 124563767.398 5  97062717.28943                  23703704.250
  23703710.797                          34.300          19.000
 121952480.774 7                  91068432.216 8  23206783.406
                  23206788.520          46.900                          50.400
 135533066.272 6                 101209783.674 7  25791084.492
                  25791089.980          39.500                          43.800
 113927585.158 7                  85075823.378 7  21679697.141
                  21679702.191          44.100                          47.300
 127602970.288 7                  95287956.921 8  24282036.188
                  24282041.699          45.100                          48.300
 128343243.446 6                  95840748.199 7  24422909.609
                  24422915.484          41.700                          44.700
 121979702.609 7                  91088766.281 8  23211963.828
                  23211969.969          46.600                          50.500
 20  7  6  0 46 50.0000000  0 18G08G27R24G30R23R13G07R12G11R14G01G16
                                E27E21E14E13E30E15
 109865245.479 7  85609329.87847  82042269.619 8  20906665.563
  20906673.285    20906672.840          43.700          47.600          51.000
 120401756.523 6  93819586.99444  89910432.710 7  22911696.109
  22911704.371    22911703.734          37.500          26.400          45.700
 112193579.777 7  87261695.556 7                  20980762.195    20980762.027
  20980767.242                          43.000          42.300
 118329511.333 6  92204834.79346  88362962.381 7  22517349.406
  22517357.613    22517357.395          38.400          37.300          46.400
 102812878.776 7  79965609.879 6                  19219781.164    19219779.754
  19219787.313                          46.200          41.300
 102777079.298 5  79937755.981 6                  19246848.289    19246847.129
  19246852.695                          32.900          41.600
 111009440.618 7  86500827.36447                  21124379.563
  21124385.164                          43.700          45.600
 110424087.417 7  85885446.715 7                  20671626.594    20671626.691
  20671631.645                          44.300          44.200
 105731282.357 6  82387983.99946                  20119977.703
  20119982.277                          41.400          36.500
 119489677.775 6  92936312.959 6                  22415925.828    22415924.887
  22415930.305                          36.400          39.300
 111051647.416 7  86533825.42347  82928249.098 8  21132433.031
  21132442.074    21132440.809          43.100          46.200          50.200
 124566439.987 5  97064799.79643                  23704213.336
  23704219.215                          33.800          19.600
 121952297.102 7                  91068295.056 8  23206748.383
                  23206753.711          46.700                          50.600
 135530769.242 6                 101208068.371 7  25790647.539
                  25790652.895          39.700                          43.700
 113922069.436 7                  85071704.495 7  21678647.594
                  21678652.602          43.900                          47.300
 127601044.356 7                  95286518.718 8  24281669.836
                  24281675.246          44.700                          48.300
 128345341.868 6                  95842315.202 7  24423308.828
                  24423314.926          41.600                          44.400
 121980449.040 7                  91089323.682 8  23212105.906
                  23212112.168          46.100                          50.600
 20  7  6  0 46 51.0000000  0 18G08G27R24G30R23R13G07R12G11R14G01G16
                                E27E21E14E13E30E15
 109866638.461 7  85610415.31847  82043309.830 8  20906930.336
  20906938.387    20906937.961          43.700          47.500          50.900
 120404444.437 6  93821681.47344  89912439.908 7  22912207.539
  22912215.965    22912215.051          37.400          26.200          45.700
 112190921.746 7  87259628.202 6                  20980265.227    20980264.945
  20980270.113                          42.900          41.900
 118327492.855 6  92203261.94546  88361455.064 7  22516964.711
  22516973.668    22516973.219          37.900          36.700          46.700
 102812852.984 7  79965589.814 6                  19219775.867    19219774.926
  19219782.480                          46.000          40.900
 102776157.410 5  79937038.927 6                  19246677.188    19246674.496
  19246679.984                          32.800          41.900
 111009215.854 7  86500652.21747                  21124336.875
  21124342.434                          44.100          45.600
 110427032.551 7  85887737.377 7                  20672178.352    20672178.121
  20672182.988                          43.600          43.900
 105730708.060 6  82387536.49146                  20119868.469
  20119873.102                          41.200          36.500
 119485803.986 6  92933300.001 6                  22415198.250    22415198.539
  22415203.617                          36.800          38.900
 111048880.723 7  86531669.55547  82926183.080 8  21131906.859
  21131915.656    21131914.402          42.900          46.300          50.400
 124569112.786 5  97066882.48543                  23704722.094
  23704727.828                          34.400          18.600
 121952113.801 7                  91068158.186 8  23206713.609
                  23206718.785          46.800                          50.300
 135528472.359 6                 101206353.181 7  25790210.320
                  25790215.762          39.100                          44.000
 113916554.016 7                  85067585.857 7  21677598.086
                  21677602.988          43.700                          46.600
 127599118.797 7                  95285080.814 7  24281303.367
                  24281308.910          44.900                          47.700
 128347440.610 6                  95843882.431 7  24423707.883
                  24423714.188          41.700                          44.100
 121981195.903 7                  91089881.412 8  23212247.914
                  23212254.223          46.300                          50.300
 20  7  6  0 46 52.0000000  0 18G08G27R24G30R23R13G07R12G11R14G01G16
                                E27E21E14E13E30E15
 109868031.591 7  85611500.87147  82044350.160 8  20907195.570
  20907203.457    20907203.055          43.800          47.600          50.900
 120407132.359 6  93823775.95144  89914447.121 7  22912719.109
  22912727.512    22912726.617          37.200          26.400          45.700
 112188264.181 7  87257561.199 7                  20979768.164    20979768.160
  20979773.082                          42.800          42.300
 118325474.871 6  92201689.48546  88359948.117 7  22516579.977
  22516589.711    22516589.355          38.200          37.100          46.800
 102812827.794 7  79965570.219 6                  19219771.625    19219770.621
  19219777.770                          46.000          40.700
 102775236.166 5  79936322.431 6                  19246504.148    19246501.805
  19246507.523                          32.200          41.800
 111008991.700 7  86500477.55047                  21124294.102
  21124299.637                          43.500          45.700
 110429978.204 7  85890028.435 7                  20672730.023    20672729.586
  20672734.352                          43.600          43.900
 105730134.237 6  82387089.35746                  20119759.273
  20119763.875                          41.100          36.500
 119481930.339 6  92930287.143 6                  22414471.211    22414472.125
  22414477.098                          37.000          39.100
 111046114.521 7  86529514.06847  82924117.404 8  21131380.250
  21131389.133    21131388.066          42.700          46.400          50.200
 124571785.702 5  97068965.31743                  23705230.969
  23705236.629                          34.500          19.000
 121951930.765 7                  91068021.502 8  23206678.766
                  23206683.875          46.600                          50.100
 135526175.538 6                 101204638.018 7  25789773.258
                  25789778.609          39.600                          44.100
 113911038.826 7                  85063467.353 7  21676548.445
                  21676553.492          43.700                          47.000
 127597193.532 7                  95283643.103 7  24280937.023
                  24280942.469          45.100                          47.800
 128349539.515 7                  95845449.796 7  24424107.563
                  24424113.488          42.100                          44.000
 121981943.086 7                  91090439.368 8  23212390.305
                  23212396.379          46.500                          50.300
