     2.11           OBSERVATION DATA    M (MIXED)           RINEX VERSION / TYPE
teqc  2016Nov7      KASI/KOREA          20200706 00:47:35UTCPGM / RUN BY / DATE
Linux 2.4.20-8|Pentium IV|gcc|Linux|486/DX+                 COMMENT
  0.0000      (antenna height)                              COMMENT
 +36.39942714 (latitude)                                    COMMENT
+127.37448264 (longitude)                                   COMMENT
0116.859      (elevation)                                   COMMENT
BIT 2 OF LLI FLAGS DATA COLLECTED UNDER A/S CONDITION       COMMENT
23902M002 (COGO code)                                       COMMENT
DAEJ                                                        MARKER NAME
23902M002                                                   MARKER NUMBER
KASI GPS            KASI/KOREA                              OBSERVER / AGENCY
5412K48145          TRIMBLE NETR9       5.44                REC # / TYPE / VERS
4923363230          TRM59800.00     SCIS                    ANT # / TYPE
 -3120042.4162  4084615.4841  3764027.5245                  APPROX POSITION XYZ
        0.0000        0.0000        0.0000                  ANTENNA: DELTA H/E/N
     1     1                                                WAVELENGTH FACT L1/2
    10    L1    L2    L5    C1    P1    P2    C5    S1    S2# / TYPES OF OBSERV
          S5                                                # / TYPES OF OBSERV
    18                                                      LEAP SECONDS
 SNR is mapped to RINEX snr flag value [0-9]                COMMENT
  L1 & L2: min(max(int(snr_dBHz/6), 0), 9)                  COMMENT
  2020     7     6     0    30    0.0000000     GPS         TIME OF FIRST OBS
                                                            END OF HEADER
 20  7  6  0 30  0.0000000  0 18G08G27R24G30R23R13G07R12G11R14G01G16
                                E27E21E14E13E30E15
 108581562.906 7  84609058.06948  81083675.852 8  20662388.570
  20662396.363    20662395.703          44.100          49.600          52.000
 117721786.283 6  91731299.45944  87909157.336 7  22401713.852
  22401721.488    22401721.430          39.900          29.300          47.300
 115135926.388 6  89550186.832 6                  21530996.781    21530996.391
  21531001.305                          40.900          39.700
 120623552.304 6  93992399.03645  90076044.749 7  22953890.797
  22953898.938    22953899.281          37.300          34.400          44.900
 103191024.541 7  80259723.005 6                  19290471.328    19290470.641
  19290477.797                          46.100          40.900
 104076279.160 5  80948244.910 7                  19490147.570    19490145.352
  19490150.867                          33.700          42.100
 111573993.032 7  86940738.87047                  21231809.430
  21231815.680                          43.000          45.200
 107752515.903 7  83807558.710 7                  20171502.977    20171501.648
  20171506.648                          44.500          45.300
 106592735.062 7  83059245.64446                  20283906.859
  20283911.617                          42.700          37.100
 123472633.653 5  96034166.336 6                  23163118.500    23163117.484
  23163123.992                          33.300          36.700
 114089789.092 7  88901208.04747  85196990.666 8  21710572.398
  21710581.477    21710580.172          42.200          42.400          48.800
 121962616.855 6  95035848.02443                  23208721.758
  23208727.504                          36.800          21.500
 122296188.731 7                  91325097.571 8  23272188.547
                  23272193.723          46.400                          50.500
 137891901.495 6                 102971250.864 7  26239956.391
                  26239961.727          38.900                          42.300
 119605878.807 6                  89316106.944 7  22760240.867
                  22760245.809          41.700                          45.600
 129710958.446 7                  96862103.364 7  24683173.305
                  24683179.184          44.200                          47.500
 126350997.793 7                  94353033.117 7  24043797.227
                  24043803.027          42.400                          46.700
 121426171.012 7                  90675414.833 8  23106630.172
                  23106636.316          46.000                          51.000
 20  7  6  0 30  1.0000000  0 18G08G27R24G30R23R13G07R12G11R14G01G16
                                E27E21E14E13E30E15
 108582703.911 7  84609947.16148  81084527.899 8  20662605.734
  20662613.512    20662612.871          44.100          49.500          51.700
 117724397.915 6  91733334.49144  87911107.577 7  22402210.906
  22402218.566    22402218.566          40.000          28.900          47.000
 115132767.762 6  89547730.137 6                  21530406.711    21530405.875
  21530410.531                          40.900          40.200
 120621042.835 6  93990443.60245  90074170.803 7  22953412.844
  22953421.449    22953421.758          37.300          34.100          45.000
 103190294.575 7  80259155.234 6                  19290334.328    19290334.160
  19290341.551                          46.200          40.500
 104074646.600 5  80946975.147 6                  19489841.727    19489839.535
  19489845.063                          33.700          41.900
 111573105.407 7  86940047.21747                  21231640.813
  21231646.777                          43.000          45.600
 107754850.998 7  83809374.881 7                  20171939.688    20171938.871
  20171943.879                          44.500          45.600
 106591604.624 7  83058364.77746                  20283691.891
  20283696.543                          42.800          36.400
 123468641.048 5  96031060.994 6                  23162369.930    23162368.832
  23162375.031                          33.100          36.200
 114086556.636 6  88898689.25047  85194576.840 8  21709957.422
  21709966.410    21709965.027          41.700          42.400          48.700
 121965098.552 6  95037781.81843                  23209193.773
  23209199.852                          36.700          21.500
 122295697.892 7                  91324731.043 8  23272095.289
                  23272100.348          46.600                          50.700
 137889530.841 6                 102969480.597 7  26239505.164
                  26239510.914          39.100                          42.400
 119600162.885 6                  89311838.585 7  22759152.969
                  22759158.098          41.700                          45.700
 129708711.005 7                  96860425.085 7  24682745.523
                  24682751.547          44.100                          47.500
 126352847.012 7                  94354414.028 7  24044149.313
                  24044155.027          42.200                          46.400
 121426515.521 7                  90675672.093 8  23106695.992
                  23106701.887          45.900                          51.100
 20  7  6  0 30  2.0000000  0 18G08G27R24G30R23R13G07R12G11R14G01G16
                                E27E21E14E13E30E15
 108583845.202 7  84610836.47848  81085380.156 8  20662822.820
  20662830.727    20662829.969          43.900          49.500          51.800
 117727009.677 6  91735369.63244  87913057.919 7  22402708.508
  22402715.508    22402715.398          40.100          29.600          47.100
 115129609.583 6  89545273.780 6                  21529815.609    21529815.168
  21529820.016                          41.100          39.600
 120618533.822 6  93988488.52645  90072297.185 7  22952935.820
  22952944.020    22952944.191          37.400          33.700          45.100
 103189565.313 7  80258588.037 6                  19290198.734    19290198.082
  19290205.273                          46.500          40.500
 104073014.701 5  80945705.890 7                  19489536.164    19489533.883
  19489539.535                          33.900          42.100
 111572218.424 7  86939356.05647                  21231472.070
  21231477.953                          43.200          45.500
 107757186.711 7  83811191.544 7                  20172376.844    20172376.242
  20172381.059                          44.800          45.600
 106590474.754 7  83057484.36646                  20283476.547
  20283481.684                          43.100          36.800
 123464648.515 5  96027955.681 6                  23161620.836    23161619.578
  23161626.168                          33.400          36.200
 114083324.621 6  88896170.79247  85192163.305 8  21709342.531
  21709351.406    21709349.941          41.900          42.400          49.100
 121967580.475 6  95039715.79043                  23209666.352
  23209672.004                          36.700          21.300
 122295207.344 7                  91324364.720 8  23272001.852
                  23272007.055          46.800                          50.900
 137887160.265 6                 102967710.343 7  26239054.008
                  26239059.766          38.400                          42.300
 119594447.158 7                  89307570.317 7  22758065.664
                  22758070.430          42.100                          46.000
 129706463.906 7                  96858747.039 7  24682317.688
                  24682323.910          43.800                          47.400
 126354696.507 7                  94355795.119 7  24044501.141
                  24044506.941          42.700                          46.600
 121426860.459 7                  90675929.671 8  23106761.609
                  23106767.707          45.900                          50.900
 20  7  6  0 30  3.0000000  0 18G08G27R24G30R23R13G07R12G11R14G01G16
                                E27E21E14E13E30E15
 108584986.758 7  84611726.00848  81086232.631 8  20663039.711
  20663047.957    20663047.281          44.200          49.500          51.900
 117729621.549 6  91737404.83644  87915008.327 7  22403205.414
  22403212.504    22403212.383          39.700          29.200          47.600
 115126451.873 6  89542817.782 6                  21529224.656    21529224.609
  21529229.574                          41.200          39.700
 120616025.279 6  93986533.81645  90070423.919 7  22952458.344
  22952466.813    22952466.781          37.200          34.200          45.200
 103188836.771 7  80258021.407 6                  19290062.758    19290061.516
  19290069.094                          46.800          40.400
 104071383.468 5  80944437.181 6                  19489230.141    19489228.273
  19489233.977                          34.100          41.600
 111571332.125 7  86938665.42847                  21231303.234
  21231309.402                          43.000          45.600
 107759523.074 7  83813008.727 7                  20172814.367    20172813.727
  20172818.406                          45.100          45.100
 106589345.435 7  83056604.37646                  20283261.430
  20283266.754                          43.200          37.100
 123460656.072 5  96024850.428 6                  23160871.609    23160870.688
  23160877.293                          33.700          36.500
 114080093.033 7  88893652.66947  85189750.107 8  21708727.523
  21708736.379    21708735.063          42.300          42.800          48.900
 121970062.610 6  95041649.89743                  23210138.914
  23210144.414                          36.800          21.500
 122294717.095 7                  91323998.629 8  23271908.734
                  23271913.695          46.900                          50.500
 137884789.751 6                 102965940.158 7  26238603.125
                  26238608.641          38.400                          42.200
 119588731.539 7                  89303302.173 7  22756977.711
                  22756982.770          42.100                          45.500
 129704217.086 7                  96857069.221 7  24681890.313
                  24681896.313          43.800                          47.100
 126356546.241 7                  94357176.429 7  24044853.320
                  24044858.828          42.700                          46.300
 121427205.821 7                  90676187.585 8  23106827.281
                  23106833.281          46.500                          50.800
 20  7  6  0 30  4.0000000  0 18G08G27R24G30R23R13G07R12G11R14G01G16
                                E27E21E14E13E30E15
 108586128.631 7  84612615.77148  81087085.310 8  20663257.477
  20663265.344    20663264.586          44.000          49.500          52.300
 117732233.514 6  91739440.13644  87916958.832 7  22403702.477
  22403709.496    22403709.484          39.900          29.800          47.500
 115123294.649 6  89540362.175 6                  21528634.969    21528633.859
  21528639.027                          41.000          39.800
 120613517.171 6  93984579.44945  90068550.978 7  22951981.805
  22951989.629    22951989.613          37.300          34.300          45.100
 103188108.961 7  80257455.338 6                  19289926.406    19289925.961
  19289932.977                          46.700          40.400
 104069752.914 5  80943168.925 6                  19488924.430    19488923.035
  19488928.535                          34.100          41.600
 111570446.448 7  86937975.29547                  21231135.070
  21231140.699                          42.700          45.600
 107761860.107 7  83814826.410 7                  20173251.875    20173251.211
  20173255.891                          44.900          45.100
 106588216.662 7  83055724.81446                  20283046.953
  20283051.879                          43.200          36.900
 123456663.624 5  96021745.181 6                  23160123.211    23160121.875
  23160128.355                          33.800          37.000
 114076861.831 6  88891134.85547  85187337.219 8  21708113.031
  21708121.523    21708120.230          41.800          42.400          48.800
 121972544.931 6  95043584.18843                  23210611.844
  23210616.887                          36.900          22.000
 122294227.145 7                  91323632.750 8  23271815.336
                  23271820.547          47.100                          50.600
 137882419.271 6                 102964170.009 7  26238151.992
                  26238157.461          38.500                          42.300
 119583016.052 7                  89299034.112 7  22755890.055
                  22755895.039          42.100                          45.500
 129701970.574 7                  96855391.643 7  24681463.219
                  24681468.914          43.100                          47.200
 126358396.237 7                  94358557.926 7  24045205.328
                  24045210.941          42.400                          46.300
 121427551.599 7                  90676445.791 8  23106893.000
                  23106899.043          46.500                          50.600
 20  7  6  0 30  5.0000000  0 18G08G27R24G30R23R13G07R12G11R14G01G16
                                E27E21E14E13E30E15
 108587270.762 7  84613505.74748  81087938.225 8  20663474.922
  20663482.645    20663481.961          43.900          49.500          52.300
 117734845.584 6  91741475.51744  87918909.411 7  22404199.328
  22404206.629    22404206.555          40.200          29.300          47.500
 115120137.976 6  89537906.970 6                  21528043.273    21528043.375
  21528048.590                          40.900          40.000
 120611009.531 6  93982625.44045  90066678.409 7  22951504.484
  22951512.305    22951512.531          36.800          34.500          45.000
 103187381.894 7  80256889.833 6                  19289790.969    19289789.621
  19289797.012                          46.600          40.200
 104068123.009 5  80941901.279 6                  19488620.070    19488618.168
  19488623.285                          34.200          41.400
 111569561.431 7  86937285.67247                  21230966.508
  21230972.332                          42.900          45.300
 107764197.790 7  83816644.604 7                  20173688.984    20173688.715
  20173693.672                          44.600          44.900
 106587088.475 7  83054845.71046                  20282831.758
  20282837.254                          43.100          36.600
 123452671.259 5  96018640.042 6                  23159373.656    23159372.785
  23159379.379                          33.700          36.800
 114073631.098 6  88888617.39847  85184924.647 8  21707497.227
  21707506.699    21707505.434          41.900          42.300          48.900
 121975027.467 6  95045518.62743                  23211083.820
  23211089.484                          36.200          21.700
 122293737.503 7                  91323267.097 8  23271722.102
                  23271727.328          47.200                          50.500
 137880048.887 6                 102962399.885 7  26237700.867
                  26237706.379          38.600                          42.300
 119577300.719 7                  89294766.175 7  22754802.703
                  22754807.398          42.000                          45.600
 129699724.403 7                  96853714.309 7  24681035.445
                  24681041.309          43.400                          47.400
 126360246.519 7                  94359939.618 7  24045557.648
                  24045563.016          42.400                          46.300
 121427897.825 7                  90676704.348 8  23106958.875
                  23106964.887          46.500                          50.300
 20  7  6  0 30  6.0000000  0 18G08G27R24G30R23R13G07R12G11R14G01G16
                                E27E21E14E13E30E15
 108588413.091 7  84614395.87248  81088791.246 8  20663692.289
  20663699.988    20663699.289          44.000          49.500          51.900
 117737457.690 6  91743510.92144  87920859.993 7  22404696.133
  22404703.602    22404703.676          39.900          29.100          47.300
 115116981.681 6  89535452.059 6                  21527452.508    21527453.074
  21527458.215                          40.900          39.800
 120608502.242 6  93980671.71245  90064806.072 7  22951026.555
  22951035.137    22951035.316          37.100          34.400          44.800
 103186655.439 7  80256324.802 6                  19289655.523    19289654.020
  19289661.141                          46.700          40.800
 104066493.671 5  80940634.004 6                  19488315.016    19488313.020
  19488318.191                          34.000          41.600
 111568676.992 7  86936596.49747                  21230798.313
  21230804.074                          42.200          45.600
 107766535.991 7  83818463.222 7                  20174127.633    20174126.488
  20174131.473                          44.600          45.000
 106585960.746 7  83053966.95646                  20282616.938
  20282622.426                          43.000          36.900
 123448678.904 5  96015534.872 6                  23158625.492    23158623.625
  23158630.410                          33.800          36.300
 114070400.659 6  88886100.17947  85182512.316 8  21706883.078
  21706891.914    21706890.551          41.900          42.200          48.600
 121977510.117 6  95047453.14043                  23211555.492
  23211561.707                          36.700          21.700
 122293248.027 7                  91322901.591 8  23271628.953
                  23271634.199          47.000                          50.300
 137877678.444 6                 102960629.781 7  26237250.063
                  26237255.262          38.500                          42.600
 119571585.436 7                  89290498.263 7  22753715.219
                  22753719.941          42.400                          45.700
 129697478.426 7                  96852037.133 7  24680608.148
                  24680613.918          43.600                          47.500
 126362096.932 7                  94361321.423 7  24045909.484
                  24045915.109          43.100                          46.200
 121428244.378 7                  90676963.119 8  23107025.008
                  23107030.938          46.500                          50.400
 20  7  6  0 30  7.0000000  0 18G08G27R24G30R23R13G07R12G11R14G01G16
                                E27E21E14E13E30E15
 108589555.751 7  84615286.25148  81089644.526 8  20663909.867
  20663917.336    20663916.805          44.100          49.600          51.900
 117740069.957 6  91745546.45344  87922810.685 7  22405193.117
  22405200.754    22405200.691          39.600          29.300          47.500
 115113825.867 6  89532997.560 6                  21526862.609    21526862.777
  21526868.141                          40.500          39.800
 120605995.471 6  93978718.38345  90062934.128 7  22950549.492
  22950558.141    22950558.441          36.900          34.000          44.600
 103185929.777 7  80255760.398 6                  19289518.945    19289518.270
  19289525.590                          47.000          40.600
 104064865.048 5  80939367.327 6                  19488010.813    19488008.230
  19488013.367                          34.000          41.600
 111567793.214 7  86935907.83647                  21230630.422
  21230635.930                          42.600          45.500
 107768874.913 7  83820282.378 7                  20174564.664    20174564.402
  20174569.398                          44.700          45.100
 106584833.596 7  83053088.66446                  20282403.172
  20282408.063                          42.800          37.300
 123444686.728 5  96012429.811 6                  23157876.070    23157875.254
  23157881.379                          33.600          36.500
 114067170.716 6  88883583.33747  85180100.346 8  21706268.258
  21706277.246    21706275.902          41.600          42.300          48.900
 121979993.027 6  95049387.84943                  23212028.438
  23212034.145                          37.100          21.300
 122292758.921 7                  91322536.348 8  23271535.914
                  23271541.102          47.400                          50.900
 137875308.149 6                 102958859.741 6  26236798.844
                  26236804.336          38.700                          41.900
 119565870.357 7                  89286230.505 7  22752627.539
                  22752632.418          42.300                          45.900
 129695232.828 7                  96850360.228 7  24680180.938
                  24680186.770          44.000                          47.600
 126363947.685 7                  94362703.486 7  24046261.945
                  24046267.410          42.800                          46.200
 121428591.411 7                  90677222.276 8  23107091.008
                  23107096.945          46.400                          50.500
 20  7  6  0 30  8.0000000  0 18G08G27R24G30R23R13G07R12G11R14G01G16
                                E27E21E14E13E30E15
 108590698.676 7  84616176.84948  81090498.018 8  20664127.250
  20664134.762    20664134.277          44.000          49.400          52.000
 117742682.240 6  91747581.99044  87924761.467 7  22405689.969
  22405697.965    22405697.930          39.900          29.300          47.700
 115110670.520 6  89530543.402 6                  21526272.492    21526272.871
  21526278.121                          40.600          40.100
 120603489.126 6  93976765.38945  90061062.517 7  22950073.156
  22950081.215    22950081.516          37.600          34.500          45.200
 103185204.830 7  80255196.560 6                  19289383.688    19289382.867
  19289390.105                          46.900          41.100
 104063237.073 5  80938101.081 6                  19487706.383    19487703.223
  19487708.426                          33.600          41.700
 111566910.078 7  86935219.68547                  21230462.430
  21230467.824                          42.000          45.500
 107771214.492 7  83822102.037 7                  20175003.125    20175002.344
  20175007.238                          44.800          45.300
 106583707.015 7  83052210.80046                  20282188.992
  20282193.707                          43.000          37.100
 123440694.518 5  96009324.808 6                  23157126.320    23157125.867
  23157132.309                          33.600          36.400
 114063941.170 6  88881066.80647  85177688.661 8  21705653.625
  21705663.008    21705661.461          41.400          42.500          48.700
 121982476.135 6  95051322.75943                  23212501.242
  23212506.555                          37.300          20.100
 122292270.112 7                  91322171.318 8  23271443.023
                  23271448.066          46.800                          51.200
 137872937.870 6                 102957089.727 7  26236347.852
                  26236353.082          38.500                          42.300
 119560155.381 6                  89281962.846 7  22751540.016
                  22751544.949          41.900                          45.400
 129692987.526 7                  96848683.548 7  24679753.648
                  24679759.301          43.700                          47.700
 126365798.680 7                  94364085.716 7  24046613.891
                  24046619.609          42.600                          46.400
 121428938.849 7                  90677481.732 8  23107157.078
                  23107163.082          46.100                          50.700
 20  7  6  0 30  9.0000000  0 18G08G27R24G30R23R13G07R12G11R14G01G16
                                E27E21E14E13E30E15
 108591841.867 7  84617067.63548  81091351.689 8  20664344.867
  20664352.316    20664351.887          44.000          49.400          52.100
 117745294.713 6  91749617.69044  87926712.326 7  22406186.617
  22406195.020    22406195.117          39.500          28.000          47.400
 115107515.638 6  89528089.599 6                  21525683.023    21525682.914
  21525688.148                          40.800          40.200
 120600983.193 6  93974812.71245  90059191.210 7  22949595.797
  22949604.477    22949604.461          37.400          34.300          45.300
 103184480.599 7  80254633.265 6                  19289248.125    19289247.445
  19289254.805                          46.600          41.100
 104061609.746 5  80936835.413 6                  19487400.711    19487398.406
  19487403.730                          33.400          41.500
 111566027.588 7  86934532.02747                  21230293.836
  21230299.871                          42.100          45.600
 107773554.659 7  83823922.174 7                  20175441.289    20175440.684
  20175445.410                          45.300          45.000
 106582580.975 7  83051333.36846                  20281974.992
  20281979.430                          43.300          36.900
 123436702.389 5  96006219.783 6                  23156379.438    23156376.883
  23156383.457                          33.400          36.200
 114060712.047 6  88878550.61247  85175277.307 8  21705039.273
  21705048.477    21705046.922          41.600          42.500          48.800
 121984959.393 6  95053257.77443                  23212972.773
  23212979.180                          37.300          20.900
 122291781.543 7                  91321806.492 8  23271349.797
                  23271355.098          46.800                          51.200
 137870567.630 6                 102955319.773 7  26235896.680
                  26235902.133          39.200                          42.000
 119554440.541 6                  89277695.259 7  22750452.578
                  22750457.383          41.700                          45.400
 129690742.542 7                  96847007.084 7  24679326.422
                  24679332.148          43.900                          47.900
 126367649.917 7                  94365468.136 7  24046966.055
                  24046971.766          43.100                          46.300
 121429286.703 7                  90677741.495 8  23107223.469
                  23107229.242          45.900                          50.700
 20  7  6  0 30 10.0000000  0 18G08G27R24G30R23R13G07R12G11R14G01G16
                                E27E21E14E13E30E15
 108592985.303 7  84617958.63148  81092205.567 8  20664562.328
  20664569.918    20664569.293          44.300          49.600          52.000
 117747907.265 6  91751653.44844  87928663.226 7  22406684.508
  22406692.270    22406692.289          39.400          29.300          47.500
 115104361.208 6  89525636.157 6                  21525093.094    21525092.816
  21525098.219                          40.900          40.500
 120598477.773 6  93972860.43445  90057320.248 7  22949119.203
  22949127.617    22949127.789          37.200          34.500          45.200
 103183757.066 7  80254070.511 6                  19289112.844    19289112.055
  19289119.520                          46.600          40.900
 104059983.044 5  80935570.201 6                  19487096.508    19487093.539
  19487099.133                          33.100          41.300
 111565145.733 7  86933844.86347                  21230126.328
  21230132.043                          42.200          45.400
 107775895.424 7  83825742.773 7                  20175879.500    20175878.543
  20175883.617                          45.300          44.900
 106581455.464 7  83050456.35146                  20281760.289
  20281765.340                          43.600          37.300
 123432710.271 5  96003114.817 6                  23155630.313    23155628.156
  23155634.590                          33.200          37.100
 114057483.302 6  88876034.70947  85172866.226 8  21704424.852
  21704433.922    21704432.488          41.400          42.300          48.800
 121987442.886 6  95055192.96943                  23213446.234
  23213451.887                          36.900          20.600
 122291293.270 7                  91321441.871 8  23271256.945
                  23271262.309          47.100                          50.800
 137868197.433 6                 102953549.812 7  26235445.688
                  26235451.277          39.300                          42.100
 119548725.829 6                  89273427.775 7  22749364.930
                  22749369.871          41.700                          45.600
 129688497.853 7                  96845330.859 7  24678899.273
                  24678905.031          43.800                          47.700
 126369501.413 7                  94366850.729 7  24047318.344
                  24047324.293          43.000                          46.100
 121429634.967 7                  90678001.553 8  23107289.625
                  23107295.430          46.500                          50.900
 20  7  6  0 30 11.0000000  0 18G08G27R24G30R23R13G07R12G11R14G01G16
                                E27E21E14E13E30E15
 108594129.040 7  84618849.84748  81093059.640 8  20664780.211
  20664787.723    20664787.012          44.300          49.500          51.800
 117750519.867 6  91753689.23644  87930614.210 7  22407181.891
  22407189.438    22407189.371          39.600          29.200          47.400
 115101207.204 6  89523183.045 6                  21524504.594    21524502.742
  21524508.434                          40.400          40.400
 120595972.742 6  93970908.46145  90055449.629 7  22948642.977
  22948650.902    22948651.000          37.500          34.100          45.000
 103183034.251 7  80253508.329 6                  19288977.648    19288976.930
  19288984.473                          46.100          40.900
 104058357.042 5  80934305.494 6                  19486791.484    19486789.254
  19486794.727                          33.700          41.900
 111564264.497 7  86933158.19447                  21229958.680
  21229964.219                          42.400          45.400
 107778236.828 7  83827563.867 7                  20176317.922    20176316.930
  20176321.961                          44.600          45.300
 106580330.502 7  83049579.76246                  20281546.102
  20281551.301                          43.300          37.600
 123428718.197 5  96000009.887 6                  23154881.805    23154879.344
  23154885.953                          33.200          36.800
 114054254.970 6  88873519.11747  85170455.463 8  21703810.523
  21703819.637    21703818.141          41.300          42.300          48.800
 121989926.558 5  95057128.28743                  23213918.375
  23213924.473                          35.800          20.900
 122290805.293 7                  91321077.465 8  23271164.109
                  23271169.316          46.800                          51.000
 137865827.292 6                 102951779.902 7  26234994.547
                  26235000.125          39.400                          42.100
 119543011.258 6                  89269160.409 7  22748277.750
                  22748282.543          41.400                          45.700
 129686253.434 7                  96843654.834 7  24678471.945
                  24678477.961          44.000                          47.800
 126371353.146 7                  94368233.511 7  24047670.633
                  24047676.543          43.200                          46.400
 121429983.635 7                  90678261.930 8  23107355.953
                  23107361.750          46.600                          50.800
 20  7  6  0 30 12.0000000  0 18G08G27R24G30R23R13G07R12G11R14G01G16
                                E27E21E14E13E30E15
 108595273.055 7  84619741.28948  81093913.939 8  20664997.664
  20665005.355    20665004.672          44.100          49.500          51.900
 117753132.617 6  91755725.14644  87932565.281 7  22407679.367
  22407686.656    22407686.520          39.800          29.300          47.400
 115098053.745 6  89520730.354 6                  21523913.859    21523913.086
  21523918.594                          40.400          40.500
 120593468.185 6  93968956.86545  90053579.317 7  22948165.656
  22948174.332    22948174.285          37.300          33.700          45.000
 103182312.161 7  80252946.703 6                  19288842.875    19288841.820
  19288849.426                          45.900          41.200
 104056731.644 5  80933041.305 7                  19486488.125    19486485.125
  19486490.316                          33.300          42.100
 111563383.926 7  86932472.03447                  21229790.742
  21229796.879                          42.600          45.300
 107780578.906 7  83829385.480 7                  20176755.477    20176755.242
  20176760.520                          44.300          45.300
 106579206.113 7  83048703.60646                  20281332.508
  20281337.191                          43.500          36.900
 123424726.271 5  95996905.078 6                  23154132.273    23154130.105
  23154137.109                          33.200          36.700
 114051027.064 6  88871003.86847  85168045.012 8  21703195.953
  21703205.305    21703203.996          41.300          42.500          48.900
 121992410.408 6  95059063.73643                  23214391.414
  23214397.133                          36.100          21.500
 122290317.598 7                  91320713.281 8  23271071.438
                  23271076.574          46.800                          50.800
 137863457.246 6                 102950010.049 6  26234543.797
                  26234549.219          39.400                          41.900
 119537296.801 6                  89264893.119 7  22747190.430
                  22747195.203          41.500                          45.700
 129684009.357 7                  96841979.065 7  24678045.031
                  24678050.895          44.200                          47.800
 126373205.122 7                  94369616.499 7  24048023.266
                  24048028.977          43.400                          46.400
 121430332.758 7                  90678522.627 8  23107422.617
                  23107428.195          46.800                          50.600
 20  7  6  0 30 13.0000000  0 18G08G27R24G30R23R13G07R12G11R14G01G16
                                E27E21E14E13E30E15
 108596417.315 7  84620632.92248  81094768.417 8  20665215.188
  20665223.234    20665222.516          44.000          49.300          52.300
 117755745.362 6  91757761.04644  87934516.378 7  22408176.398
  22408183.906    22408183.781          39.300          28.300          47.500
 115094900.698 6  89518277.980 6                  21523324.164    21523323.488
  21523328.824                          40.500          40.200
 120590963.993 6  93967005.54345  90051709.314 7  22947689.602
  22947697.770    22947697.934          36.600          34.900          44.600
 103181590.735 7  80252385.595 6                  19288707.984    19288707.191
  19288714.547                          45.800          41.200
 104055106.844 5  80931777.557 6                  19486182.516    19486180.395
  19486186.051                          33.200          41.900
 111562503.946 7  86931786.33347                  21229623.672
  21229629.293                          42.600          45.200
 107782921.593 7  83831207.558 7                  20177193.883    20177193.898
  20177198.980                          44.600          44.800
 106578082.200 7  83047827.83446                  20281118.563
  20281123.316                          43.300          37.100
 123420734.330 5  95993800.237 6                  23153382.430    23153381.535
  23153388.188                          33.400          36.100
 114047799.532 6  88868488.90947  85165634.831 8  21702581.984
  21702591.258    21702589.754          41.500          42.500          49.100
 121994894.416 6  95060999.34243                  23214863.664
  23214869.746                          36.000          21.300
 122289830.147 7                  91320349.266 8  23270978.711
                  23270983.789          47.000                          50.900
 137861087.157 6                 102948240.188 7  26234092.844
                  26234098.141          39.200                          42.300
 119531582.478 6                  89260625.931 7  22746103.094
                  22746107.766          41.300                          45.600
 129681765.528 7                  96840303.470 8  24677618.195
                  24677623.875          43.700                          48.000
 126375057.300 7                  94370999.626 7  24048375.414
                  24048381.617          43.500                          46.700
 121430682.232 7                  90678783.589 8  23107488.797
                  23107494.789          46.700                          50.600
 20  7  6  0 30 14.0000000  0 18G08G27R24G30R23R13G07R12G11R14G01G16
                                E27E21E14E13E30E15
 108597561.861 7  84621524.77348  81095623.112 8  20665433.344
  20665440.898    20665440.277          44.400          49.500          51.800
 117758358.283 6  91759797.09044  87936467.570 7  22408673.289
  22408681.160    22408680.918          39.200          28.800          47.400
 115091748.143 6  89515825.988 6                  21522734.547    21522733.867
  21522739.180                          40.600          40.200
 120588460.296 6  93965054.61545  90049839.669 7  22947212.711
  22947221.383    22947221.324          36.600          34.200          44.800
 103180870.032 7  80251825.050 6                  19288572.797    19288572.418
  19288579.906                          45.900          40.900
 104053482.727 5  80930514.375 7                  19485876.906    19485876.547
  19485881.961                          33.600          42.000
 111561624.628 7  86931101.15047                  21229456.094
  21229461.945                          42.600          45.400
 107785264.910 7  83833030.130 7                  20177632.508    20177632.719
  20177637.707                          44.700          45.000
 106576958.872 7  83046952.52046                  20280904.945
  20280909.574                          43.200          37.000
 123416742.520 5  95990695.448 6                  23152634.031    23152632.871
  23152639.422                          33.000          36.800
 114044572.411 6  88865974.26647  85163224.986 8  21701968.234
  21701977.047    21701975.707          41.800          42.600          49.000
 121997378.635 6  95062935.09043                  23215336.008
  23215342.566                          36.300          20.400
 122289342.990 7                  91319985.486 8  23270885.820
                  23270891.105          47.200                          51.000
 137858717.143 6                 102946470.377 7  26233641.492
                  26233647.129          38.900                          42.400
 119525868.274 6                  89256358.825 7  22745015.656
                  22745020.324          41.400                          45.600
 129679522.038 7                  96838628.138 7  24677191.414
                  24677196.910          43.900                          47.700
 126376909.794 7                  94372382.959 7  24048727.953
                  24048734.078          43.500                          46.800
 121431032.147 7                  90679044.900 8  23107555.250
                  23107561.281          46.700                          51.100
 20  7  6  0 30 15.0000000  0 18G08G27R24G30R23R13G07R12G11R14G01G16
                                E27E21E14E13E30E15
 108598706.687 7  84622416.84948  81096478.017 8  20665650.852
  20665658.738    20665658.129          43.800          49.600          51.900
 117760971.281 6  91761833.19244  87938418.833 7  22409170.891
  22409178.293    22409178.246          39.500          29.000          47.000
 115088596.039 6  89513374.369 6                  21522144.336    21522144.484
  21522149.762                          40.300          40.200
 120585957.028 6  93963104.01145  90047970.355 7  22946736.742
  22946744.734    22946745.000          37.000          34.900          45.000
 103180150.063 7  80251265.062 6                  19288437.875    19288437.930
  19288445.332                          46.000          40.700
 104051859.235 5  80929251.676 6                  19485574.445    19485572.609
  19485577.898                          33.700          41.700
 111560745.952 7  86930416.46547                  21229289.586
  21229294.730                          42.200          45.500
 107787608.821 7  83834853.174 7                  20178071.758    20178071.414
  20178076.363                          45.100          45.100
 106575836.086 7  83046077.61846                  20280691.281
  20280695.883                          43.500          37.100
 123412750.688 5  95987590.717 6                  23151883.117    23151883.852
  23151890.633                          32.900          37.000
 114041345.724 6  88863459.96947  85160815.441 8  21701353.836
  21701363.066    21701361.613          41.600          42.500          48.800
 121999863.082 6  95064871.05043                  23215809.195
  23215815.363                          36.400          20.100
 122288856.129 7                  91319621.915 8  23270793.289
                  23270798.441          46.500                          51.000
 137856347.233 6                 102944700.622 7  26233190.469
                  26233196.137          38.100                          42.400
 119520154.184 6                  89252091.827 7  22743928.125
                  22743932.871          41.400                          45.600
 129677278.842 7                  96836953.016 7  24676764.508
                  24676770.051          43.800                          47.400
 126378762.506 7                  94373766.483 7  24049080.633
                  24049086.684          43.300                          46.600
 121431382.474 7                  90679306.500 8  23107622.188
                  23107628.020          46.800                          51.200
 20  7  6  0 30 16.0000000  0 18G08G27R24G30R23R13G07R12G11R14G01G16
                                E27E21E14E13E30E15
 108599851.809 7  84623309.14948  81097333.144 8  20665868.680
  20665876.617    20665876.090          43.900          49.500          52.000
 117763584.418 6  91763869.40244  87940370.201 7  22409667.727
  22409675.594    22409675.414          39.100          28.900          47.200
 115085444.473 6  89510923.127 6                  21521555.148    21521554.797
  21521560.434                          40.200          40.300
 120583454.248 6  93961153.79945  90046101.391 7  22946260.633
  22946268.668    22946268.973          36.800          34.200          45.100
 103179430.831 7  80250705.664 6                  19288304.523    19288303.355
  19288310.867                          45.900          40.400
 104050236.472 5  80927989.501 6                  19485271.500    19485268.836
  19485274.023                          34.100          41.600
 111559867.941 7  86929732.30347                  21229122.281
  21229127.633                          42.700          45.500
 107789953.406 7  83836676.753 7                  20178509.891    20178510.176
  20178515.383                          45.300          45.400
 106574713.906 7  83045203.19246                  20280477.805
  20280482.238                          43.300          37.100
 123408758.986 5  95984486.045 6                  23151135.641    23151134.938
  23151141.793                          33.600          36.800
 114038119.485 6  88860946.01347  85158406.228 8  21700740.188
  21700749.055    21700747.699          41.800          42.600          49.000
 122002347.687 6  95066807.08743                  23216281.719
  23216288.180                          36.900          19.900
 122288369.588 7                  91319258.592 8  23270700.563
                  23270705.918          46.500                          50.800
 137853977.344 6                 102942930.916 7  26232739.203
                  26232745.070          38.600                          42.800
 119514440.294 7                  89247824.955 7  22742840.984
                  22742845.531          42.200                          45.600
 129675035.982 7                  96835278.160 7  24676337.539
                  24676343.172          43.700                          47.500
 126380615.518 7                  94375150.228 7  24049433.141
                  24049439.137          43.300                          46.700
 121431733.264 7                  90679568.464 8  23107688.898
                  23107694.750          46.600                          51.100
 20  7  6  0 30 17.0000000  0 18G08G27R24G30R23R13G07R12G11R14G01G16
                                E27E21E14E13E30E15
 108600997.180 7  84624201.65048  81098188.443 8  20666087.164
  20666094.512    20666093.961          43.700          49.500          51.900
 117766197.593 6  91765905.63744  87942321.606 7  22410164.875
  22410172.781    22410172.734          39.000          28.300          47.100
 115082293.316 6  89508472.253 6                  21520966.156    21520965.758
  21520971.254                          40.300          40.200
 120580951.842 6  93959203.86945  90044232.732 7  22945784.398
  22945792.637    22945792.656          36.600          34.300          45.200
 103178712.282 7  80250146.805 6                  19288170.117    19288168.984
  19288176.531                          45.900          40.200
 104048614.299 5  80926727.808 6                  19484967.070    19484965.043
  19484970.320                          34.000          41.800
 111558990.545 7  86929048.61847                  21228955.992
  21228960.727                          42.500          45.500
 107792298.615 7  83838500.796 7                  20178950.516    20178949.098
  20178954.492                          44.700          45.300
 106573592.223 7  83044329.15346                  20280264.219
  20280268.922                          42.800          37.300
 123404767.342 5  95981381.397 6                  23150388.750    23150386.012
  23150392.848                          33.100          36.800
 114034893.614 7  88858432.35247  85155997.308 8  21700126.734
  21700135.313    21700133.898          42.100          42.600          49.400
 122004832.509 6  95068743.31743                  23216754.719
  23216760.859                          36.900          20.400
 122287883.298 7                  91318895.461 8  23270608.180
                  23270613.371          46.400                          50.800
 137851607.495 6                 102941161.249 7  26232288.328
                  26232294.012          38.500                          42.400
 119508726.505 6                  89243558.157 7  22741753.406
                  22741758.324          41.900                          45.500
 129672793.396 7                  96833603.495 7  24675910.742
                  24675916.473          43.300                          47.400
 126382468.743 7                  94376534.121 7  24049785.875
                  24049791.887          43.000                          46.400
 121432084.436 7                  90679830.695 8  23107755.555
                  23107761.641          46.100                          50.500
 20  7  6  0 30 18.0000000  0 18G08G27R24G30R23R13G07R12G11R14G01G16
                                E27E21E14E13E30E15
 108602142.823 7  84625094.35648  81099043.962 8  20666304.781
  20666312.680    20666312.047          43.500          49.600          52.100
 117768810.939 6  91767942.01244  87944273.104 7  22410662.563
  22410669.961    22410669.957          39.200          28.600          47.000
 115079142.612 6  89506021.698 6                  21520377.547    21520377.043
  21520382.004                          40.600          40.200
 120578449.899 6  93957254.30345  90042364.406 7  22945307.859
  22945316.434    22945316.551          36.800          33.700          45.300
 103177994.471 7  80249588.498 6                  19288036.102    19288034.586
  19288042.379                          46.000          40.600
 104046992.828 5  80925466.659 6                  19484663.172    19484661.574
  19484666.578                          33.500          41.700
 111558113.808 7  86928365.44347                  21228788.133
  21228793.879                          42.700          45.500
 107794644.489 7  83840325.355 7                  20179388.375    20179388.297
  20179393.621                          44.900          45.600
 106572471.087 7  83043455.54246                  20280050.469
  20280055.641                          42.900          36.800
 123400775.708 5  95978276.834 6                  23149639.930    23149637.285
  23149644.086                          32.800          37.600
 114031668.162 7  88855919.01647  85153588.689 8  21699512.547
  21699521.430    21699520.160          42.000          42.400          49.400
 122007317.533 6  95070679.70943                  23217227.734
  23217233.621                          36.900          20.100
 122287397.301 7                  91318532.532 8  23270515.578
                  23270520.898          46.400                          51.000
 137849237.722 6                 102939391.593 7  26231837.648
                  26231843.039          38.900                          42.200
 119503012.853 6                  89239291.467 7  22740666.297
                  22740670.941          41.700                          45.600
 129670551.113 7                  96831929.072 7  24675484.094
                  24675489.813          43.500                          47.400
 126384322.209 7                  94377918.206 7  24050138.289
                  24050144.656          43.200                          46.400
 121432436.028 7                  90680093.240 8  23107822.305
                  23107828.520          46.000                          50.800
 20  7  6  0 30 19.0000000  0 18G08G27R24G30R23R13G07R12G11R14G01G16
                                E27E21E14E13E30E15
 108603288.751 7  84625987.28448  81099899.681 8  20666522.852
  20666530.543    20666530.063          43.800          49.500          52.200
 117771424.331 6  91769978.42344  87946224.678 7  22411159.836
  22411167.344    22411167.367          39.100          28.600          47.200
 115075992.366 6  89503571.499 6                  21519788.164    21519787.563
  21519792.902                          40.500          40.500
 120575948.446 6  93955305.12245  90040496.432 7  22944831.906
  22944840.543    22944840.461          36.800          34.000          44.900
 103177277.382 7  80249030.772 6                  19287901.531    19287900.711
  19287908.410                          45.900          40.600
 104045371.952 5  80924205.991 6                  19484361.039    19484357.773
  19484363.109                          33.800          41.200
 111557237.707 7  86927682.76747                  21228621.672
  21228627.285                          43.100          45.500
 107796990.969 7  83842150.420 7                  20179828.109    20179827.754
  20179832.902                          44.600          45.900
 106571350.497 7  83042582.35646                  20279837.258
  20279842.379                          42.800          36.900
 123396784.157 5  95975172.305 6                  23148890.492    23148888.340
  23148895.281                          33.400          37.900
 114028443.127 6  88853405.99647  85151180.389 8  21698898.352
  21698907.773    21698906.426          41.600          42.500          49.300
 122009802.750 6  95072616.23643                  23217700.953
  23217706.496                          37.100          20.400
 122286911.596 7                  91318169.827 8  23270423.164
                  23270428.352          46.000                          50.900
 137846867.995 6                 102937621.989 7  26231386.320
                  26231392.191          38.800                          42.300
 119497299.327 7                  89235024.881 7  22739578.961
                  22739583.742          42.100                          45.400
 129668309.169 7                  96830254.879 7  24675057.391
                  24675063.090          44.000                          47.400
 126386175.946 7                  94379302.510 7  24050491.156
                  24050497.324          43.100                          46.500
 121432788.030 7                  90680356.113 8  23107889.352
                  23107895.516          46.400                          50.600
 20  7  6  0 30 20.0000000  0 18G08G27R24G30R23R13G07R12G11R14G01G16
                                E27E21E14E13E30E15
 108604434.938 7  84626880.41648  81100755.603 8  20666741.359
  20666748.746    20666748.227          43.700          49.500          52.400
 117774037.822 6  91772014.90144  87948176.319 7  22411657.242
  22411664.691    22411664.652          38.900          29.300          47.000
 115072842.590 6  89501121.689 6                  21519199.492    21519198.406
  21519203.859                          40.300          40.500
 120573447.424 6  93953356.27845  90038628.775 7  22944356.453
  22944364.602    22944364.527          36.700          33.900          45.200
 103176561.023 7  80248473.588 6                  19287767.609    19287767.000
  19287774.367                          45.800          40.900
 104043751.750 5  80922945.838 6                  19484057.063    19484054.141
  19484059.828                          33.500          41.300
 111556362.246 7  86927000.59247                  21228454.406
  21228460.520                          43.000          45.400
 107799338.087 7  83843975.934 7                  20180268.047    20180267.133
  20180272.383                          44.400          45.900
 106570230.472 7  83041709.60446                  20279624.453
  20279629.262                          42.600          36.900
 123392792.697 5  95972067.790 6                  23148139.766    23148139.457
  23148146.625                          33.200          36.900
 114025218.518 6  88850893.32347  85148772.390 8  21698285.258
  21698294.293    21698292.766          41.400          42.700          49.100
 122012288.142 6  95074552.89643                  23218173.734
  23218179.285                          37.400          20.400
 122286426.185 7                  91317807.339 8  23270330.820
                  23270336.059          46.200                          51.300
 137844498.305 6                 102935852.400 7  26230935.586
                  26230941.297          38.500                          42.100
 119491585.947 6                  89230758.389 7  22738491.797
                  22738496.422          41.900                          45.500
 129666067.495 7                  96828580.919 7  24674630.852
                  24674636.621          43.400                          47.400
 126388029.939 7                  94380686.962 7  24050843.859
                  24050850.219          42.700                          46.400
 121433140.459 7                  90680619.291 8  23107956.648
                  23107962.594          46.400                          50.500
 20  7  6  0 30 21.0000000  0 18G08G27R24G30R23R13G07R12G11R14G01G16
                                E27E21E14E13E30E15
 108605581.397 7  84627773.76148  81101611.718 8  20666959.242
  20666966.820    20666966.344          43.800          49.500          51.900
 117776651.406 6  91774051.46944  87950128.017 7  22412154.289
  22412161.984    22412162.000          39.200          28.600          47.100
 115069693.307 6  89498672.242 6                  21518608.852    21518609.727
  21518614.902                          40.600          40.900
 120570946.813 6  93951407.74645  90036761.447 7  22943880.641
  22943888.883    22943888.699          36.800          34.300          45.100
 103175845.357 7  80247916.954 6                  19287633.797    19287633.203
  19287640.535                          45.900          41.500
 104042132.202 5  80921686.180 6                  19483752.797    19483750.578
  19483756.414                          33.500          41.400
 111555487.406 7  86926318.89847                  21228288.438
  21228294.055                          42.600          45.400
 107801685.769 7  83845801.907 7                  20180707.867    20180706.613
  20180711.809                          44.600          45.400
 106569110.950 7  83040837.25946                  20279411.070
  20279416.051                          43.400          36.800
 123388801.225 5  95968963.349 6                  23147391.086    23147390.777
  23147397.836                          32.900          37.000
 114021994.295 6  88848380.94047  85146364.703 8  21697671.078
  21697680.664    21697679.266          41.300          42.800          49.200
 122014773.745 6  95076489.73343                  23218646.203
  23218652.297                          37.100          20.600
 122285941.020 7                  91317445.052 8  23270238.609
                  23270243.824          46.100                          51.200
 137842128.651 6                 102934082.855 7  26230484.563
                  26230490.465          38.300                          42.500
 119485872.684 6                  89226491.984 7  22737404.484
                  22737409.324          41.900                          45.700
 129663826.105 7                  96826907.162 7  24674204.320
                  24674209.957          44.000                          47.600
 126389884.151 7                  94382071.602 7  24051197.008
                  24051203.051          43.300                          46.200
 121433493.274 7                  90680882.752 8  23108023.563
                  23108029.770          46.500                          50.600
 20  7  6  0 30 22.0000000  0 18G08G27R24G30R23R13G07R12G11R14G01G16
                                E27E21E14E13E30E15
 108606728.136 7  84628667.32548  81102468.058 8  20667177.188
  20667185.238    20667184.449          44.200          49.300          52.100
 117779265.115 6  91776088.11944  87952079.809 7  22412651.539
  22412659.262    22412659.348          38.900          29.000          47.100
 115066544.495 6  89496223.154 6                  21518020.508    21518020.605
  21518026.063                          40.100          40.500
 120568446.679 6  93949459.58945  90034894.455 7  22943404.734
  22943413.223    22943413.031          36.300          33.600          45.100
 103175130.393 7  80247360.892 6                  19287499.719    19287499.328
  19287506.797                          45.800          41.000
 104040513.346 5  80920427.058 6                  19483448.734    19483447.441
  19483453.293                          33.800          41.400
 111554613.233 7  86925637.71447                  21228121.820
  21228127.773                          43.000          45.400
 107804034.111 7  83847628.406 7                  20181147.672    20181146.078
  20181151.395                          44.600          45.400
 106567992.034 7  83039965.37146                  20279198.164
  20279203.199                          43.200          36.500
 123384809.879 5  95965858.976 6                  23146641.063    23146642.379
  23146648.977                          33.100          37.000
 114018770.507 6  88845868.89547  85143957.330 8  21697058.328
  21697067.234    21697065.805          41.300          42.600          48.900
 122017259.504 6  95078426.69843                  23219118.797
  23219125.395                          36.900          20.400
 122285456.175 7                  91317082.982 8  23270146.273
                  23270151.512          45.700                          51.200
 137839759.066 6                 102932313.387 7  26230033.789
                  26230039.547          38.100                          42.600
 119480159.538 6                  89222225.691 7  22736316.914
                  22736322.031          41.700                          45.600
 129661585.060 7                  96825233.643 7  24673777.602
                  24673783.441          43.700                          47.700
 126391738.640 7                  94383456.454 7  24051549.672
                  24051555.906          43.200                          46.100
 121433846.538 7                  90681146.552 8  23108090.695
                  23108096.914          46.300                          50.500
 20  7  6  0 30 23.0000000  0 18G08G27R24G30R23R13G07R12G11R14G01G16
                                E27E21E14E13E30E15
 108607875.193 7  84629561.13848  81103324.624 8  20667395.477
  20667403.445    20667402.945          44.300          49.300          52.100
 117781878.931 6  91778124.85344  87954031.667 7  22413149.148
  22413156.715    22413156.813          39.700          28.200          47.300
 115063396.130 6  89493774.453 6                  21517431.984    21517431.867
  21517437.480                          40.100          40.600
 120565947.000 6  93947511.79045  90033027.802 7  22942928.320
  22942937.488    22942937.379          36.000          34.200          45.000
 103174416.159 7  80246805.372 6                  19287366.633    19287365.754
  19287373.148                          46.100          41.100
 104038895.141 5  80919168.466 6                  19483145.688    19483144.484
  19483150.223                          33.800          41.200
 111553739.699 7  86924957.03947                  21227955.633
  21227961.594                          43.500          45.400
 107806383.135 7  83849455.413 7                  20181587.234    20181585.898
  20181591.176                          45.000          45.500
 106566873.654 7  83039093.90546                  20278985.484
  20278990.383                          42.900          36.800
 123380818.546 5  95962754.633 6                  23145892.750    23145893.492
  23145900.184                          33.600          36.900
 114015547.122 6  88843357.16747  85141550.265 8  21696444.945
  21696453.848    21696452.348          41.900          42.700          48.900
 122019745.512 6  95080363.84243                  23219592.438
  23219598.453                          36.600          20.100
 122284971.609 7                  91316721.132 8  23270054.148
                  23270059.160          45.700                          51.100
 137837389.539 6                 102930543.923 7  26229582.531
                  26229588.465          37.900                          43.100
 119474446.581 7                  89217959.502 7  22735230.094
                  22735234.895          42.300                          45.300
 129659344.308 7                  96823560.367 7  24673351.234
                  24673357.113          43.300                          47.700
 126393593.372 7                  94384841.470 7  24051902.891
                  24051908.891          43.200                          46.100
 121434200.225 7                  90681410.665 8  23108158.203
                  23108164.309          46.600                          50.200
 20  7  6  0 30 24.0000000  0 18G08G27R24G30R23R13G07R12G11R14G01G16
                                E27E21E14E13E30E15
 108609022.491 7  84630455.13248  81104181.371 8  20667613.898
  20667621.723    20667621.047          44.400          49.500          52.000
 117784492.803 6  91780161.63744  87955983.607 7  22413646.305
  22413654.133    22413654.121          39.500          28.800          47.200
 115060248.287 6  89491326.096 6                  21516843.195    21516843.496
  21516848.859                          40.100          39.900
 120563447.758 5  93945564.33145  90031161.485 7  22942452.594
  22942461.738    22942461.641          35.900          34.000          45.100
 103173702.666 7  80246250.418 6                  19287233.172    19287232.418
  19287239.820                          46.200          40.700
 104037277.582 5  80917910.364 6                  19482842.039    19482841.828
  19482847.199                          33.800          41.600
 111552866.831 7  86924276.88247                  21227789.406
  21227795.336                          42.600          45.300
 107808732.798 7  83851282.938 7                  20182026.328    20182025.828
  20182030.988                          44.700          45.400
 106565755.827 7  83038222.87146                  20278772.102
  20278777.695                          43.000          36.700
 123376827.310 5  95959650.325 6                  23145144.836    23145144.684
  23145151.551                          33.500          37.600
 114012324.195 6  88840845.79747  85139143.522 8  21695831.664
  21695840.484    21695839.004          41.600          42.500          48.800
 122022231.704 6  95082301.11643                  23220065.727
  23220071.641                          36.800          20.400
 122284487.338 7                  91316359.513 8  23269961.984
                  23269967.066          45.900                          51.000
 137835020.079 6                 102928774.527 7  26229131.656
                  26229137.672          37.900                          43.200
 119468733.721 6                  89213693.425 7  22734142.820
                  22734147.789          41.900                          45.100
 129657103.891 7                  96821887.325 7  24672925.109
                  24672930.730          43.300                          47.800
 126395448.367 7                  94386226.698 7  24052255.703
                  24052261.914          43.100                          46.000
 121434554.340 7                  90681675.093 8  23108225.398
                  23108231.578          46.400                          50.900
 20  7  6  0 30 25.0000000  0 18G08G27R24G30R23R13G07R12G11R14G01G16
                                E27E21E14E13E30E15
 108610170.089 7  84631349.36948  81105038.343 8  20667832.070
  20667840.160    20667839.500          44.100          49.500          51.800
 117787106.864 6  91782198.56144  87957935.644 7  22414144.141
  22414151.531    22414151.648          38.900          28.600          47.000
 115057100.882 6  89488878.129 6                  21516254.867    21516255.203
  21516260.230                          40.600          40.300
 120560948.985 6  93943617.22745  90029295.536 7  22941977.578
  22941986.313    22941986.102          36.800          34.100          45.000
 103172989.897 7  80245696.050 6                  19287099.977    19287099.098
  19287106.594                          46.100          41.000
 104035660.652 5  80916652.753 6                  19482540.313    19482538.465
  19482544.457                          34.200          41.600
 111551994.575 7  86923597.20547                  21227623.930
  21227629.402                          42.100          45.500
 107811083.108 7  83853110.944 7                  20182466.195    20182465.707
  20182470.902                          44.900          45.700
 106564638.562 7  83037352.27546                  20278560.016
  20278564.988                          42.900          37.100
 123372836.158 5  95956546.103 6                  23144395.414    23144396.184
  23144402.848                          33.500          37.600
 114009101.661 7  88838334.72947  85136737.086 8  21695218.422
  21695227.301    21695225.801          42.100          42.600          49.200
 122024718.112 6  95084238.59443                  23220538.688
  23220544.684                          36.000          21.100
 122284003.370 7                  91315998.107 8  23269869.859
                  23269874.973          46.100                          51.300
 137832650.693 6                 102927005.177 7  26228680.906
                  26228686.703          38.300                          42.500
 119463021.031 6                  89209427.456 7  22733055.969
                  22733060.645          41.600                          45.300
 129654863.768 7                  96820214.498 7  24672498.563
                  24672504.465          43.400                          47.500
 126397303.637 7                  94387612.141 7  24052608.930
                  24052614.770          43.000                          46.300
 121434908.863 7                  90681939.850 8  23108293.023
                  23108299.133          46.200                          50.900
 20  7  6  0 30 26.0000000  0 18G08G27R24G30R23R13G07R12G11R14G01G16
                                E27E21E14E13E30E15
 108611317.939 7  84632243.79148  81105895.503 8  20668050.805
  20668058.629    20668058.000          44.100          49.400          51.900
 117789720.969 6  91784235.53044  87959887.740 7  22414641.188
  22414649.105    22414649.078          39.000          28.700          47.200
 115053953.986 6  89486430.527 6                  21515666.477    21515666.480
  21515671.785                          40.500          40.400
 120558450.652 6  93941670.46845  90027429.893 7  22941501.594
  22941510.918    22941510.719          36.800          33.800          45.300
 103172277.848 7  80245142.225 6                  19286966.102    19286965.918
  19286973.461                          46.400          41.100
 104034044.398 5  80915395.684 6                  19482237.625    19482236.297
  19482241.777                          34.200          41.700
 111551122.974 7  86922918.03447                  21227458.117
  21227463.594                          42.200          45.500
 107813434.008 7  83854939.425 7                  20182906.492    20182905.746
  20182910.988                          45.100          45.700
 106563521.845 7  83036482.10846                  20278347.938
  20278352.516                          42.600          36.900
 123368845.053 5  95953441.926 6                  23143648.453    23143647.156
  23143654.078                          33.900          37.400
 114005879.543 7  88835823.98847  85134330.967 8  21694605.102
  21694614.320    21694612.695          42.100          42.600          49.100
 122027204.725 6  95086176.20343                  23221012.391
  23221017.723                          36.300          20.600
 122283519.690 7                  91315636.922 8  23269777.734
                  23269782.910          46.600                          51.200
 137830281.331 6                 102925235.849 7  26228229.828
                  26228236.051          38.600                          42.100
 119457308.478 6                  89205161.591 7  22731968.820
                  22731973.527          41.800                          45.400
 129652623.947 7                  96818541.909 7  24672072.570
                  24672078.109          43.400                          47.800
 126399159.154 7                  94388997.743 7  24052962.125
                  24052968.059          43.100                          46.400
 121435263.829 7                  90682204.914 8  23108360.523
                  23108366.672          46.400                          51.000
 20  7  6  0 30 27.0000000  0 18G08G27R24G30R23R13G07R12G11R14G01G16
                                E27E21E14E13E30E15
 108612466.088 7  84633138.45648  81106752.890 8  20668269.539
  20668276.934    20668276.508          44.300          49.500          52.100
 117792335.193 6  91786272.58444  87961839.921 7  22415138.898
  22415146.633    22415146.617          38.900          29.000          47.200
 115050807.540 6  89483983.316 6                  21515078.938    21515078.289
  21515083.441                          40.400          40.900
 120555952.770 6  93939724.07145  90025564.585 7  22941026.320
  22941035.801    22941035.723          36.500          33.600          45.300
 103171566.539 7  80244588.988 6                  19286833.930    19286832.902
  19286840.461                          46.500          41.200
 104032428.810 5  80914139.124 6                  19481935.609    19481933.465
  19481939.125                          33.500          41.700
 111550252.037 7  86922239.38147                  21227292.008
  21227297.746                          42.200          45.600
 107815785.585 7  83856768.419 7                  20183346.898    20183346.023
  20183351.238                          45.100          45.400
 106562405.682 7  83035612.36646                  20278135.203
  20278140.074                          42.600          36.700
 123364854.069 5  95950337.789 6                  23142898.180    23142898.883
  23142905.523                          33.700          37.500
 114002657.860 7  88833313.58447  85131925.163 8  21693992.273
  21694001.152    21693999.727          42.100          42.900          49.000
 122029691.560 6  95088114.00343                  23221485.328
  23221491.086                          36.600          20.900
 122283036.308 7                  91315275.948 8  23269685.813
                  23269690.926          46.700                          50.900
 137827912.039 6                 102923466.589 7  26227779.242
                  26227785.168          37.700                          42.300
 119451596.091 6                  89200895.828 7  22730881.641
                  22730886.457          41.400                          45.700
 129650384.485 7                  96816869.572 7  24671646.289
                  24671652.070          43.300                          47.800
 126401014.937 7                  94390383.553 7  24053314.938
                  24053321.109          43.100                          46.100
 121435619.198 7                  90682470.293 8  23108428.148
                  23108434.242          46.500                          51.000
 20  7  6  0 30 28.0000000  0 18G08G27R24G30R23R13G07R12G11R14G01G16
                                E27E21E14E13E30E15
 108613614.476 7  84634033.29848  81107610.441 8  20668488.258
  20668495.563    20668494.941          44.500          49.500          51.700
 117794949.445 6  91788309.67444  87963792.139 7  22415636.461
  22415644.258    22415644.031          38.800          28.900          47.500
 115047661.487 6  89481536.396 6                  21514489.852    21514490.008
  21514495.090                          39.800          40.500
 120553455.299 6  93937777.98945  90023699.587 7  22940551.227
  22940560.586    22940560.125          36.600          34.300          45.200
 103170855.885 7  80244036.266 6                  19286701.445    19286700.207
  19286707.621                          46.300          41.100
 104030813.839 5  80912882.997 6                  19481632.984    19481631.375
  19481636.688                          34.200          41.600
 111549381.674 6  86921561.17447                  21227126.508
  21227132.379                          41.900          45.400
 107818137.743 7  83858597.871 7                  20183786.914    20183786.297
  20183791.434                          45.000          45.300
 106561290.024 7  83034743.02246                  20277922.875
  20277927.715                          42.600          36.600
 123360863.044 5  95947233.681 6                  23142152.008    23142150.113
  23142156.801                          33.300          37.300
 113999436.548 6  88830803.47247  85129519.626 8  21693378.680
  21693388.301    21693386.691          41.600          42.600          48.900
 122032178.478 6  95090051.86843                  23221958.836
  23221964.352                          36.400          20.900
 122282553.159 7                  91314915.155 8  23269593.805
                  23269599.023          46.900                          50.700
 137825542.756 6                 102921697.297 7  26227328.461
                  26227334.141          37.900                          42.300
 119445883.732 6                  89196630.134 7  22729794.500
                  22729799.359          41.600                          45.600
 129648145.241 7                  96815197.404 7  24671220.297
                  24671225.891          43.600                          47.700
 126402870.889 7                  94391769.503 7  24053668.359
                  24053674.227          43.500                          46.100
 121435974.931 7                  90682735.946 8  23108495.914
                  23108501.934          46.700                          51.000
 20  7  6  0 30 29.0000000  0 18G08G27R24G30R23R13G07R12G11R14G01G16
                                E27E21E14E13E30E15
 108614763.149 7  84634928.37348  81108468.231 8  20668706.344
  20668714.215    20668713.605          44.900          49.500          51.800
 117797563.876 6  91790346.87744  87965744.436 7  22416133.336
  22416141.719    22416141.477          39.200          28.800          47.300
 115044515.943 6  89479089.847 6                  21513901.211    21513901.590
  21513906.781                          40.400          40.500
 120550958.281 6  93935832.26545  90021834.946 7  22940076.344
  22940085.207    22940084.957          36.800          34.100          45.100
 103170145.989 7  80243484.123 6                  19286568.164    19286567.469
  19286574.801                          46.300          41.500
 104029199.498 5  80911627.431 6                  19481330.625    19481328.859
  19481334.328                          34.100          41.700
 111548511.999 7  86920883.50447                  21226961.266
  21226966.891                          42.300          45.400
 107820490.559 7  83860427.854 7                  20184227.898    20184226.891
  20184231.852                          45.000          45.500
 106560174.944 7  83033874.12846                  20277710.711
  20277715.496                          43.200          36.900
 123356872.176 5  95944129.657 6                  23141401.656    23141402.125
  23141408.191                          34.200          37.400
 113996215.660 6  88828293.69447  85127114.439 8  21692765.914
  21692775.164    21692773.742          41.500          42.700          49.100
 122034665.605 6  95091989.87443                  23222432.344
  23222437.512                          36.500          20.600
 122282070.331 7                  91314554.607 8  23269502.016
                  23269507.188          46.600                          50.800
 137823173.554 6                 102919928.091 7  26226877.391
                  26226883.309          37.600                          42.600
 119440171.588 6                  89192364.561 7  22728707.758
                  22728712.410          41.800                          45.500
 129645906.329 7                  96813525.501 7  24670794.164
                  24670799.852          43.800                          47.700
 126404727.158 7                  94393155.676 7  24054021.422
                  24054027.645          43.500                          46.100
 121436331.141 7                  90683001.935 8  23108563.547
                  23108569.754          46.500                          50.800
 20  7  6  0 30 30.0000000  0 18G08G27R24G30R23R13G07R12G11R14G01G16
                                E27E21E14E13E30E15
 108615912.147 7  84635823.68848  81109326.232 8  20668925.242
  20668932.906    20668932.238          44.900          49.400          51.800
 117800178.387 6  91792384.16944  87967696.846 7  22416631.125
  22416639.238    22416639.152          39.200          29.200          47.000
 115041370.867 6  89476643.675 6                  21513313.945    21513313.656
  21513318.723                          40.400          40.800
 120548461.728 6  93933886.89445  90019970.639 7  22939602.141
  22939609.984    22939609.965          37.200          33.700          45.400
 103169436.817 7  80242932.539 6                  19286435.367    19286434.813
  19286442.320                          46.500          41.100
 104027585.836 5  80910372.352 6                  19481028.508    19481026.438
  19481032.289                          34.000          41.900
 111547642.961 7  86920206.32847                  21226795.586
  21226801.535                          42.500          45.400
 107822844.014 7  83862258.311 7                  20184668.109    20184667.457
  20184672.465                          45.000          44.800
 106559060.427 7  83033005.67646                  20277499.047
  20277503.430                          43.000          37.100
 123352881.339 5  95941025.662 6                  23140654.031    23140653.020
  23140659.441                          33.800          37.500
 113992995.213 6  88825784.25747  85124709.554 8  21692152.961
  21692162.391    21692161.137          41.500          42.400          49.500
 122037153.020 6  95093928.12743                  23222905.320
  23222910.664                          36.600          20.100
 122281587.800 7                  91314194.267 8  23269409.930
                  23269415.289          46.800                          50.800
 137820804.420 6                 102918158.930 7  26226426.531
                  26226432.441          37.600                          42.800
 119434459.591 6                  89188099.087 7  22727620.820
                  22727625.340          41.700                          45.500
 129643667.737 7                  96811853.832 7  24670367.961
                  24670373.953          43.700                          47.700
 126406583.678 7                  94394542.028 7  24054374.852
                  24054380.832          43.300                          46.100
 121436687.758 7                  90683268.238 8  23108631.484
                  23108637.664          46.600                          50.800
 20  7  6  0 30 31.0000000  0 18G08G27R24G30R23R13G07R12G11R14G01G16
                                E27E21E14E13E30E15
 108617061.416 7  84636719.22248  81110184.451 8  20669143.703
  20669151.496    20669150.965          44.600          49.500          52.100
 117802792.973 6  91794421.51144  87969649.300 7  22417129.148
  22417136.809    22417136.629          39.500          29.100          47.300
 115038226.300 6  89474197.901 6                  21512725.945    21512725.574
  21512730.719                          40.500          40.600
 120545965.623 6  93931941.88645  90018106.663 7  22939126.188
  22939135.094    22939135.031          37.100          33.900          45.200
 103168728.355 7  80242381.518 6                  19286303.023    19286302.438
  19286309.793                          46.500          41.400
 104025972.851 5  80909117.790 6                  19480726.852    19480724.602
  19480730.082                          34.100          41.300
 111546774.575 7  86919529.67047                  21226629.977
  21226636.215                          42.500          45.200
 107825198.098 7  83864089.275 7                  20185109.586    20185108.219
  20185113.191                          44.700          44.800
 106557946.448 7  83032137.63546                  20277286.695
  20277291.566                          42.900          36.900
 123348890.537 5  95937921.746 6                  23139904.742    23139904.590
  23139910.867                          33.900          37.800
 113989775.170 6  88823275.12847  85122304.969 8  21691540.547
  21691549.742    21691548.434          41.300          42.700          49.500
 122039640.553 6  95095866.45143                  23223378.672
  23223384.090                          36.300          19.900
 122281105.566 7                  91313834.145 8  23269318.172
                  23269323.609          46.500                          51.000
 137818435.315 6                 102916389.822 7  26225975.875
                  26225981.633          38.000                          42.800
 119428747.665 6                  89183833.736 7  22726533.867
                  22726538.430          41.800                          45.800
 129641429.450 7                  96810182.389 7  24669942.156
                  24669947.957          43.700                          47.400
 126408440.458 7                  94395928.579 7  24054728.195
                  24054734.141          43.500                          46.400
 121437044.809 7                  90683534.866 8  23108699.438
                  23108705.578          47.000                          50.800
 20  7  6  0 30 32.0000000  0 18G08G27R24G30R23R13G07R12G11R14G01G16
                                E27E21E14E13E30E15
 108618210.988 7  84637614.99448  81111042.906 8  20669362.633
  20669370.418    20669369.770          44.300          49.600          51.900
 117805407.717 6  91796458.95844  87971601.864 7  22417626.633
  22417634.188    22417634.227          39.600          28.700          47.100
 115035082.254 6  89471752.535 6                  21512137.469    21512137.219
  21512142.902                          40.400          40.500
 120543470.013 6  93929997.24845  90016243.061 7  22938651.805
  22938660.098    22938660.000          36.500          34.200          45.400
 103168020.665 7  80241831.087 6                  19286171.086    19286169.977
  19286177.605                          46.400          40.400
 104024360.512 5  80907863.765 6                  19480424.430    19480422.789
  19480428.145                          33.700          41.800
 111545906.869 7  86918853.53247                  21226464.984
  21226471.059                          42.500          45.400
 107827552.901 7  83865920.783 7                  20185550.344    20185549.176
  20185554.008                          44.700          44.900
 106556833.078 7  83031270.07846                  20277074.797
  20277079.559                          42.900          36.700
 123344899.874 5  95934817.898 6                  23139156.789    23139155.395
  23139162.250                          34.400          37.500
 113986555.614 6  88820766.38547  85119900.756 8  21690927.445
  21690937.164    21690935.719          41.200          42.600          49.600
 122042128.385 6  95097805.00343                  23223852.133
  23223857.539                          36.300          19.600
 122280623.647 7                  91313474.286 8  23269226.602
                  23269231.824          46.500                          50.900
 137816066.342 6                 102914620.766 7  26225525.172
                  26225530.887          38.100                          42.800
 119423036.015 6                  89179568.495 7  22725447.008
                  22725451.570          41.700                          45.500
 129639191.538 7                  96808511.204 7  24669516.086
                  24669522.012          43.900                          47.300
 126410297.533 7                  94397315.366 7  24055081.539
                  24055087.551          43.200                          46.400
 121437402.297 7                  90683801.830 8  23108767.555
                  23108773.414          46.700                          50.700
 20  7  6  0 30 33.0000000  0 18G08G27R24G30R23R13G07R12G11R14G01G16
                                E27E21E14E13E30E15
 108619360.789 7  84638510.93848  81111901.513 8  20669581.148
  20669589.129    20669588.520          44.300          49.500          51.900
 117808022.510 6  91798496.45944  87973554.455 7  22418124.461
  22418131.816    22418131.684          39.500          29.400          47.100
 115031938.593 6  89469307.467 6                  21511551.266    21511549.453
  21511555.047                          40.200          40.000
 120540974.805 6  93928052.92745  90014379.730 7  22938176.695
  22938185.383    22938185.242          36.800          34.400          45.300
 103167313.632 7  80241281.173 6                  19286038.914    19286037.918
  19286045.473                          46.000          40.500
 104022748.784 5  80906610.226 6                  19480122.813    19480121.145
  19480126.152                          34.000          41.500
 111545039.746 7  86918177.85047                  21226300.141
  21226306.141                          42.600          45.500
 107829908.232 7  83867752.716 7                  20185990.484    20185990.113
  20185994.852                          44.600          45.300
 106555720.162 7  83030402.87346                  20276862.813
  20276867.676                          43.000          37.100
 123340909.188 5  95931714.022 6                  23138407.930    23138406.836
  23138413.602                          33.900          37.400
 113983336.402 6  88818257.91347  85117496.788 8  21690314.359
  21690324.520    21690323.047          41.100          42.400          49.300
 122044616.333 6  95099743.68243                  23224325.391
  23224331.059                          36.100          19.300
 122280141.957 7                  91313114.572 8  23269134.977
                  23269140.254          46.200                          50.900
 137813697.318 6                 102912851.707 7  26225074.031
                  26225080.063          38.000                          43.000
 119417324.348 6                  89175303.327 7  22724360.133
                  22724364.801          41.300                          45.200
 129636953.834 7                  96806840.208 7  24669090.305
                  24669096.148          43.700                          47.400
 126412154.790 7                  94398702.271 7  24055434.742
                  24055440.941          43.100                          46.400
 121437760.171 7                  90684069.053 8  23108835.602
                  23108841.570          46.500                          50.900
 20  7  6  0 30 34.0000000  0 18G08G27R24G30R23R13G07R12G11R14G01G16
                                E27E21E14E13E30E15
 108620510.877 7  84639407.11648  81112760.361 8  20669800.297
  20669807.926    20669807.383          43.900          49.600          52.200
 117810637.418 6  91800534.05544  87975507.161 7  22418622.461
  22418629.566    22418629.414          39.500          29.300          47.300
 115028795.368 6  89466862.753 6                  21510962.078    21510961.754
  21510967.199                          40.300          40.400
 120538480.063 6  93926108.97345  90012516.766 7  22937702.188
  22937710.633    22937710.328          37.000          35.100          45.200
 103166607.318 7  80240731.824 6                  19285907.047    19285905.941
  19285913.395                          45.900          40.300
 104021137.753 5  80905357.194 6                  19479820.945    19479819.020
  19479824.465                          33.400          41.600
 111544173.281 7  86917502.68447                  21226135.570
  21226141.023                          42.200          45.500
 107832264.215 7  83869585.143 7                  20186432.234    20186431.102
  20186435.805                          44.900          45.200
 106554607.858 7  83029536.14746                  20276651.547
  20276655.973                          43.100          36.900
 123336918.594 5  95928610.211 6                  23137659.891    23137658.168
  23137664.977                          34.200          37.300
 113980117.610 6  88815749.76347  85115093.153 8  21689702.188
  21689711.941    21689710.684          40.900          42.600          49.500
 122047104.470 6  95101682.47843                  23224799.148
  23224804.449                          36.600          20.100
 122279660.572 7                  91312755.102 8  23269043.258
                  23269048.590          46.300                          50.900
 137811328.420 6                 102911082.718 7  26224623.313
                  26224629.176          37.400                          42.900
 119411612.909 6                  89171038.272 7  22723273.531
                  22723277.902          41.500                          45.300
 129634716.505 7                  96805169.458 7  24668664.703
                  24668670.457          43.600                          47.500
 126414012.326 7                  94400089.389 7  24055788.148
                  24055794.535          42.700                          46.700
 121438118.442 7                  90684336.614 8  23108903.867
                  23108909.879          46.600                          51.000
 20  7  6  0 30 35.0000000  0 18G08G27R24G30R23R13G07R12G11R14G01G16
                                E27E21E14E13E30E15
 108621661.208 7  84640303.47148  81113619.358 8  20670019.227
  20670026.844    20670026.238          44.000          49.500          52.300
 117813252.356 6  91802571.66244  87977459.885 7  22419119.609
  22419127.172    22419127.035          39.800          28.100          47.300
 115025652.635 6  89464418.381 6                  21510374.250    21510374.055
  21510379.625                          40.400          40.700
 120535985.692 6  93924165.30645  90010654.108 7  22937227.000
  22937235.973    22937235.848          36.600          35.200          45.600
 103165901.689 7  80240183.002 6                  19285775.141    19285774.105
  19285781.461                          46.300          40.500
 104019527.338 5  80904104.604 6                  19479519.203    19479517.688
  19479522.938                          33.700          41.600
 111543307.438 7  86916828.00347                  21225970.445
  21225976.566                          42.800          45.600
 107834620.789 7  83871418.031 7                  20186872.633    20186872.406
  20186876.969                          44.800          45.200
 106553496.037 7  83028669.78446                  20276439.938
  20276444.484                          43.000          36.500
 123332928.044 5  95925506.446 6                  23136910.617    23136909.559
  23136916.434                          33.300          37.100
 113976899.208 6  88813241.90947  85112689.794 8  21689090.148
  21689099.457    21689098.219          41.200          42.500          49.400
 122049592.793 6  95103621.42943                  23225272.070
  23225277.754                          36.000          20.400
 122279179.432 7                  91312395.809 8  23268951.578
                  23268957.109          46.400                          50.500
 137808959.494 6                 102909313.740 7  26224172.492
                  26224178.457          37.800                          43.100
 119405901.533 6                  89166773.289 7  22722186.508
                  22722191.145          41.200                          45.500
 129632479.398 7                  96803498.911 7  24668239.016
                  24668244.641          44.200                          47.600
 126415870.088 7                  94401476.676 7  24056141.852
                  24056148.063          43.000                          46.300
 121438477.128 7                  90684604.464 8  23108971.930
                  23108978.145          46.600                          50.800
 20  7  6  0 30 36.0000000  0 18G08G27R24G30R23R13G07R12G11R14G01G16
                                E27E21E14E13E30E15
 108622811.785 7  84641200.03148  81114478.566 8  20670238.336
  20670245.852    20670245.219          44.100          49.600          52.100
 117815867.483 6  91804609.42344  87979412.727 7  22419617.305
  22419624.855    22419624.652          39.600          28.900          47.300
 115022510.397 6  89461974.444 6                  21509787.141    21509786.484
  21509792.043                          40.700          40.500
 120533491.800 6  93922222.01845  90008791.798 7  22936752.156
  22936761.465    22936761.215          36.700          34.900          45.600
 103165196.789 7  80239634.749 6                  19285643.445    19285642.270
  19285649.816                          46.300          40.700
 104017917.564 5  80902852.591 6                  19479218.500    19479216.273
  19479221.645                          33.800          41.600
 111542442.260 7  86916153.82947                  21225806.148
  21225811.848                          43.000          45.600
 107836978.066 7  83873251.467 7                  20187314.492    20187313.758
  20187318.238                          45.100          45.200
 106552384.783 7  83027803.88146                  20276228.219
  20276233.156                          43.100          36.800
 123328937.553 5  95922402.728 6                  23136162.180    23136161.250
  23136167.797                          33.900          37.300
 113973681.233 6  88810734.40247  85110286.764 8  21688477.438
  21688487.113    21688485.848          41.400          42.600          49.500
 122052081.319 6  95105560.56043                  23225745.867
  23225751.445                          36.200          20.600
 122278698.612 7                  91312036.755 8  23268860.234
                  23268865.625          46.400                          50.900
 137806590.660 6                 102907544.779 7  26223721.664
                  26223727.703          38.100                          42.700
 119400190.323 6                  89162508.430 7  22721099.672
                  22721104.230          41.600                          45.300
 129630242.625 7                  96801828.595 7  24667813.375
                  24667819.035          44.000                          47.700
 126417728.117 7                  94402864.165 7  24056495.328
                  24056501.727          42.700                          46.400
 121438836.231 7                  90684872.624 8  23109040.594
                  23109046.375          46.500                          50.600
 20  7  6  0 30 37.0000000  0 18G08G27R24G30R23R13G07R12G11R14G01G16
                                E27E21E14E13E30E15
 108623962.610 7  84642096.77448  81115337.945 8  20670457.117
  20670464.762    20670464.277          43.900          49.500          52.100
 117818482.619 6  91806647.19144  87981365.576 7  22420115.156
  22420122.348    22420122.289          39.400          28.900          47.300
 115019368.615 6  89459530.831 6                  21509199.594    21509198.918
  21509204.609                          40.500          40.700
 120530998.330 6  93920279.04945  90006929.782 7  22936277.773
  22936286.973    22936286.676          36.800          34.800          45.500
 103164492.550 7  80239087.014 6                  19285511.680    19285510.648
  19285518.254                          46.400          41.200
 104016308.418 5  80901601.016 6                  19478915.938    19478915.168
  19478920.230                          33.700          41.600
 111541577.649 7  86915480.10947                  21225641.266
  21225647.188                          42.500          45.500
 107839335.918 7  83875085.356 7                  20187754.750    20187754.801
  20187759.578                          45.100          45.200
 106551274.016 7  83026938.34846                  20276017.109
  20276021.656                          43.300          37.000
 123324947.099 5  95919299.046 6                  23135413.250    23135412.289
  23135419.223                          33.400          37.700
 113970463.616 6  88808227.17447  85107884.010 8  21687865.297
  21687874.863    21687873.590          41.800          42.300          49.600
 122054570.012 5  95107499.78643                  23226219.422
  23226225.016                          35.800          20.400
 122278218.028 7                  91311677.880 8  23268768.672
                  23268774.117          46.700                          51.000
 137804221.816 6                 102905775.861 7  26223270.914
                  26223276.855          38.300                          42.800
 119394479.216 6                  89158243.636 7  22720012.773
                  22720017.504          41.900                          45.600
 129628006.125 7                  96800158.471 7  24667387.711
                  24667393.523          43.800                          47.600
 126419586.324 7                  94404251.794 7  24056849.023
                  24056855.215          43.000                          46.200
 121439195.723 7                  90685141.066 8  23109108.797
                  23109114.797          46.600                          50.900
 20  7  6  0 30 38.0000000  0 18G08G27R24G30R23R13G07R12G11R14G01G16
                                E27E21E14E13E30E15
 108625113.803 7  84642993.80248  81116197.598 8  20670676.203
  20670683.828    20670683.328          43.600          49.400          52.200
 117821097.934 6  91808685.10644  87983318.563 7  22420612.570
  22420620.258    22420619.941          39.400          28.900          47.200
 115016227.340 6  89457087.622 6                  21508611.117    21508611.512
  21508617.227                          40.500          40.800
 120528505.346 6  93918336.46845  90005068.142 7  22935803.844
  22935812.555    22935812.375          36.600          34.600          45.400
 103163789.112 7  80238539.894 6                  19285379.594    19285378.828
  19285386.867                          46.000          40.600
 104014700.020 5  80900350.014 6                  19478614.211    19478614.066
  19478618.910                          33.600          41.700
 111540713.750 7  86914806.94947                  21225476.578
  21225482.926                          42.600          45.600
 107841694.457 7  83876919.764 7                  20188196.711    20188196.453
  20188201.160                          45.000          44.900
 106550163.905 7  83026073.32746                  20275805.711
  20275810.578                          43.500          36.800
 123320956.763 5  95916195.464 6                  23134663.438    23134663.813
  23134670.871                          34.100          37.600
 113967246.502 6  88805720.32747  85105481.611 8  21687253.219
  21687262.461    21687261.488          41.700          42.600          49.800
 122057058.937 5  95109439.21243                  23226692.898
  23226698.484                          35.800          19.900
 122277737.789 7                  91311319.258 8  23268677.273
                  23268682.734          46.800                          51.000
 137801853.101 6                 102904007.015 7  26222820.117
                  26222826.160          38.400                          42.700
 119388768.291 6                  89153978.994 7  22718926.211
                  22718930.793          41.500                          45.700
 129625770.000 7                  96798488.629 7  24666962.320
                  24666967.953          43.600                          47.800
 126421444.878 7                  94405639.658 7  24057202.594
                  24057208.891          42.700                          46.300
 121439555.684 7                  90685409.863 8  23109177.297
                  23109183.426          46.700                          51.200
 20  7  6  0 30 39.0000000  0 18G08G27R24G30R23R13G07R12G11R14G01G16
                                E27E21E14E13E30E15
 108626265.203 7  84643891.00548  81117057.406 8  20670894.953
  20670902.973    20670902.410          43.900          49.500          52.200
 117823713.271 6  91810723.01544  87985271.573 7  22421110.164
  22421117.957    22421117.570          39.900          29.600          47.200
 115013086.487 6  89454644.710 6                  21508024.406    21508024.227
  21508029.914                          40.700          40.700
 120526012.759 6  93916394.19645  90003206.809 7  22935329.336
  22935338.367    22935337.945          37.200          33.900          45.500
 103163086.327 7  80237993.282 6                  19285248.898    19285247.844
  19285255.348                          46.300          40.900
 104013092.214 5  80899099.526 6                  19478314.844    19478312.824
  19478317.832                          33.700          41.300
 111539850.460 7  86914134.25247                  21225313.094
  21225318.688                          42.600          45.600
 107844053.547 7  83878754.610 7                  20188639.297    20188638.207
  20188642.777                          44.700          44.800
 106549054.264 7  83025208.66946                  20275594.859
  20275599.277                          43.700          36.700
 123316966.449 5  95913091.896 6                  23133915.070    23133914.984
  23133922.270                          34.500          37.500
 113964029.745 6  88803213.76347  85103079.486 8  21686641.305
  21686650.508    21686649.301          41.800          42.700          49.600
 122059547.978 5  95111378.71343                  23227166.656
  23227172.250                          35.800          19.600
 122277257.793 7                  91310960.826 8  23268586.016
                  23268591.348          46.400                          50.600
 137799484.402 6                 102902238.176 7  26222369.477
                  26222375.527          38.000                          43.000
 119383057.461 6                  89149714.397 7  22717839.156
                  22717844.102          41.500                          45.500
 129623534.117 7                  96796818.980 7  24666536.922
                  24666542.367          43.600                          47.600
 126423303.606 7                  94407027.684 7  24057556.281
                  24057562.543          42.900                          46.100
 121439916.002 7                  90685678.942 8  23109245.836
                  23109251.879          46.600                          51.000
 20  7  6  0 30 40.0000000  0 18G08G27R24G30R23R13G07R12G11R14G01G16
                                E27E21E14E13E30E15
 108627416.915 7  84644788.44448  81117917.463 8  20671114.141
  20671122.012    20671121.641          44.200          49.500          52.400
 117826328.739 6  91812761.05644  87987224.690 7  22421607.766
  22421615.668    22421615.363          39.900          29.400          46.900
 115009946.112 6  89452202.208 6                  21507438.078    21507436.789
  21507442.617                          40.900          40.500
 120523520.702 6  93914452.34145  90001345.837 7  22934855.539
  22934864.133    22934863.855          37.500          34.200          45.300
 103162384.319 7  80237447.278 6                  19285117.336    19285116.402
  19285124.098                          45.900          40.800
 104011485.081 5  80897849.518 6                  19478013.203    19478011.738
  19478016.828                          33.700          41.400
 111538987.846 7  86913462.08447                  21225149.039
  21225154.363                          42.600          45.500
 107846413.365 7  83880590.011 7                  20189080.594    20189079.840
  20189084.496                          44.300          44.900
 106547945.210 7  83024344.47846                  20275383.836
  20275388.254                          43.600          36.400
 123312976.243 5  95909988.409 6                  23133166.984    23133166.152
  23133173.645                          34.100          37.800
 113960813.437 6  88800707.55247  85100677.709 8  21686028.852
  21686038.453    21686037.273          41.400          42.500          49.400
 122062037.333 5  95113318.45543                  23227640.914
  23227645.934                          35.700          20.100
 122276778.146 7                  91310602.638 8  23268494.922
                  23268500.047          46.800                          50.800
 137797115.798 6                 102900469.414 7  26221918.703
                  26221924.785          38.600                          42.500
 119377346.786 6                  89145449.945 7  22716752.578
                  22716757.398          41.600                          45.700
 129621298.583 7                  96795149.595 7  24666111.555
                  24666117.063          43.600                          47.400
 126425162.669 7                  94408415.931 7  24057910.078
                  24057916.449          42.800                          45.800
 121440276.795 7                  90685948.367 8  23109314.516
                  23109320.539          46.300                          51.000
 20  7  6  0 30 41.0000000  0 18G08G27R24G30R23R13G07R12G11R14G01G16
                                E27E21E14E13E30E15
 108628568.886 7  84645686.07848  81118777.703 8  20671333.102
  20671341.375    20671340.789          44.500          49.600          52.700
 117828944.298 6  91814799.15244  87989177.868 7  22422105.609
  22422113.426    22422113.125          39.600          28.700          47.000
 115006806.193 6  89449760.060 6                  21506849.195    21506849.559
  21506855.414                          40.800          40.200
 120521029.022 6  93912510.77345  89999485.193 7  22934380.570
  22934390.129    22934389.594          36.900          33.400          45.200
 103161683.003 7  80236901.800 6                  19284986.188    19284985.453
  19284993.047                          46.000          41.300
 104009878.558 5  80896600.035 6                  19477711.344    19477710.922
  19477716.000                          33.500          41.900
 111538125.843 7  86912790.39547                  21224984.078
  21224990.559                          42.900          45.600
 107848773.766 7  83882425.899 7                  20189522.453    20189521.691
  20189526.371                          44.600          45.100
 106546836.713 7  83023480.70746                  20275172.922
  20275177.230                          43.600          36.800
 123308986.100 5  95906884.944 6                  23132418.742    23132417.781
  23132425.125                          34.300          37.800
 113957597.533 6  88798201.65647  85098276.215 8  21685417.219
  21685426.367    21685425.293          41.400          42.400          49.600
 122064526.801 5  95115258.30343                  23228114.383
  23228119.715                          35.500          20.100
 122276298.736 7                  91310244.640 8  23268403.789
                  23268408.906          46.700                          51.000
 137794747.197 6                 102898700.650 7  26221467.875
                  26221473.980          38.200                          42.600
 119371636.250 6                  89141185.598 7  22715665.930
                  22715670.797          41.700                          45.600
 129619063.323 7                  96793480.417 7  24665686.078
                  24665691.559          43.500                          47.300
 126427021.915 7                  94409804.346 7  24058264.156
                  24058270.242          43.100                          46.300
 121440637.984 7                  90686218.083 8  23109383.180
                  23109389.266          46.400                          50.900
 20  7  6  0 30 42.0000000  0 18G08G27R24G30R23R13G07R12G11R14G01G16
                                E27E21E14E13E30E15
 108629721.150 7  84646583.95148  81119638.157 8  20671552.359
  20671560.605    20671560.004          44.600          49.400          52.100
 117831559.985 6  91816837.34844  87991131.128 7  22422603.531
  22422611.070    22422610.750          39.900          28.900          47.000
 115003666.766 6  89447318.272 6                  21506263.211    21506262.426
  21506268.266                          40.400          40.400
 120518537.825 6  93910569.57745  89997624.869 7  22933907.609
  22933916.039    22933915.555          37.500          34.200          45.100
 103160982.414 7  80236356.909 6                  19284855.422    19284854.492
  19284862.098                          45.800          40.900
 104008272.737 5  80895351.059 6                  19477410.086    19477410.074
  19477415.355                          34.000          41.600
 111537264.489 7  86912119.21147                  21224820.383
  21224826.578                          43.000          45.700
 107851134.807 7  83884262.266 7                  20189964.234    20189963.777
  20189968.273                          44.700          44.700
 106545728.769 7  83022617.38246                  20274961.727
  20274966.477                          43.700          37.100
 123304995.965 5  95903781.515 6                  23131670.313    23131669.496
  23131676.746                          33.800          37.900
 113954382.049 6  88795696.08747  85095875.051 8  21684805.609
  21684814.492    21684813.547          41.400          42.600          49.300
 122067016.501 5  95117198.36543                  23228588.375
  23228593.438                          35.500          19.000
 122275819.649 7                  91309886.870 8  23268312.430
                  23268317.695          46.600                          51.100
 137792378.667 6                 102896931.952 7  26221017.016
                  26221023.355          38.100                          42.600
 119365925.857 6                  89136921.329 7  22714579.188
                  22714584.215          41.900                          45.600
 129616828.410 7                  96791811.480 7  24665260.781
                  24665266.504          43.200                          47.700
 126428881.436 7                  94411192.938 7  24058618.047
                  24058624.098          42.700                          46.200
 121440999.596 7                  90686488.114 8  23109451.930
                  23109458.129          46.600                          50.900
 20  7  6  0 30 43.0000000  0 18G08G27R24G30R23R13G07R12G11R14G01G16
                                E27E21E14E13E30E15
 108630873.675 7  84647482.01748  81120498.812 8  20671772.438
  20671779.855    20671779.414          44.400          49.500          51.800
 117834175.724 6  91818875.57944  87993084.456 7  22423101.047
  22423108.688    22423108.551          40.000          29.300          47.100
 115000527.795 6  89444876.875 6                  21505675.313    21505675.703
  21505681.145                          41.000          41.000
 120516047.069 6  93908628.73045  89995764.886 7  22933433.242
  22933442.176    22933441.715          37.500          34.500          44.800
 103160282.551 7  80235812.555 6                  19284724.508    19284723.887
  19284731.172                          46.100          40.900
 104006667.584 5  80894102.597 6                  19477111.375    19477109.059
  19477114.828                          33.700          41.600
 111536403.783 7  86911448.52747                  21224656.922
  21224662.703                          42.900          45.500
 107853496.451 7  83886099.092 7                  20190405.281    20190405.934
  20190410.473                          44.600          43.800
 106544621.346 7  83021754.45146                  20274750.930
  20274755.793                          43.100          36.500
 123301005.897 5  95900678.107 6                  23130921.914    23130920.656
  23130928.293                          34.000          37.900
 113951166.957 6  88793190.81747  85093474.177 8  21684193.531
  21684202.785    21684201.777          41.300          42.600          49.400
 122069506.378 5  95119138.52143                  23229062.164
  23229067.215                          35.900          19.900
 122275340.822 7                  91309529.303 8  23268221.313
                  23268226.641          46.300                          50.500
 137790010.202 6                 102895163.281 7  26220566.297
                  26220572.773          38.100                          42.300
 119360215.586 6                  89132657.175 7  22713492.195
                  22713497.504          41.900                          45.700
 129614593.770 7                  96790142.749 7  24664835.906
                  24664841.105          43.700                          47.400
 126430741.218 7                  94412581.732 7  24058972.055
                  24058977.785          42.700                          46.200
 121441361.591 7                  90686758.439 8  23109520.875
                  23109526.992          46.500                          51.000
 20  7  6  0 30 44.0000000  0 18G08G27R24G30R23R13G07R12G11R14G01G16
                                E27E21E14E13E30E15
 108632026.433 7  84648380.27548  81121359.630 8  20671991.586
  20671999.289    20671998.773          44.300          49.600          51.900
 117836791.535 6  91820913.87744  87995037.811 7  22423599.375
  22423606.387    22423606.266          40.000          28.600          46.900
 114997389.272 6  89442435.785 6                  21505089.203    21505088.645
  21505094.234                          41.200          40.700
 120513556.727 6  93906688.20345  89993905.214 7  22932958.859
  22932968.051    22932967.715          37.700          34.800          45.200
 103159583.368 7  80235268.750 6                  19284593.766    19284593.133
  19284600.430                          45.900          41.200
 104005062.997 5  80892854.602 7                  19476810.938    19476808.539
  19476814.223                          33.800          42.000
 111535543.683 7  86910778.32447                  21224493.570
  21224499.059                          42.900          45.500
 107855858.673 7  83887936.371 7                  20190848.133    20190848.148
  20190852.676                          44.600          44.000
 106543514.434 7  83020891.92346                  20274540.063
  20274545.113                          43.300          37.300
 123297015.911 5  95897574.758 6                  23130173.250    23130172.141
  23130179.730                          34.000          38.300
 113947952.289 6  88790685.88647  85091073.605 8  21683581.727
  21683591.031    21683590.090          41.200          42.600          48.900
 122071996.403 6  95121078.77943                  23229536.023
  23229540.922                          36.200          20.100
 122274862.240 7                  91309171.928 8  23268130.281
                  23268135.535          45.900                          50.800
 137787641.742 6                 102893394.628 7  26220115.914
                  26220122.012          37.700                          42.700
 119354505.436 6                  89128393.094 7  22712405.844
                  22712411.031          41.600                          46.200
 129612359.408 7                  96788474.235 7  24664410.805
                  24664415.930          43.500                          47.700
 126432601.201 7                  94413970.695 7  24059325.656
                  24059331.750          42.800                          46.200
 121441724.012 7                  90687029.072 8  23109590.055
                  23109596.012          46.500                          50.900
 20  7  6  0 30 45.0000000  0 18G08G27R24G30R23R13G07R12G11R14G01G16
                                E27E21E14E13E30E15
 108633179.513 7  84649278.78048  81122220.693 8  20672210.969
  20672218.699    20672218.086          44.300          49.400          51.900
 117839407.487 6  91822952.27844  87996991.287 7  22424096.773
  22424104.078    22424104.063          39.000          29.400          46.900
 114994251.235 6  89439995.096 6                  21504501.508    21504502.020
  21504507.563                          40.800          39.800
 120511066.906 6  93904748.07945  89992045.922 7  22932486.039
  22932494.305    22932493.941          37.400          34.700          45.400
 103158884.932 7  80234725.534 6                  19284463.695    19284462.414
  19284469.703                          46.300          40.800
 104003459.179 5  80891607.172 6                  19476508.648    19476508.465
  19476514.055                          33.800          41.900
 111534684.264 7  86910108.64047                  21224329.875
  21224335.500                          43.200          45.500
 107858221.595 7  83889774.196 7                  20191291.172    20191290.605
  20191295.027                          44.600          44.200
 106542408.127 7  83020029.86446                  20274329.406
  20274334.660                          42.900          36.800
 123293026.002 5  95894471.537 6                  23129423.414    23129423.777
  23129431.277                          34.300          38.200
 113944738.037 6  88788181.27747  85088673.370 8  21682970.344
  21682979.258    21682978.379          41.100          42.500          49.300
 122074486.690 6  95123019.27043                  23230010.383
  23230014.723                          36.100          20.400
 122274383.998 7                  91308814.805 8  23268039.469
                  23268044.477          46.300                          50.900
 137785273.375 6                 102891626.040 7  26219665.305
                  26219671.199          37.800                          42.500
 119348795.458 6                  89124129.149 7  22711319.164
                  22711324.371          41.600                          46.000
 129610125.390 7                  96786805.989 7  24663985.609
                  24663990.688          43.500                          47.400
 126434461.497 7                  94415359.860 7  24059680.008
                  24059685.840          42.900                          46.400
 121442086.864 7                  90687300.040 8  23109659.023
                  23109665.176          46.800                          51.000
 20  7  6  0 30 46.0000000  0 18G08G27R24G30R23R13G07R12G11R14G01G16
                                E27E21E14E13E30E15
 108634332.862 7  84650177.49148  81123081.964 8  20672430.703
  20672438.375    20672437.688          44.400          49.500          52.000
 117842023.569 6  91824990.77944  87998944.835 7  22424594.648
  22424601.930    22424601.797          39.400          29.400          46.900
 114991113.691 6  89437554.786 6                  21503915.313    21503914.539
  21503920.777                          40.500          40.300
 120508577.461 6  93902808.25345  89990186.943 7  22932012.211
  22932020.469    22932020.254          36.700          34.700          45.100
 103158187.228 7  80234182.873 6                  19284333.391    19284331.918
  19284339.254                          46.500          40.800
 104001855.969 5  80890360.241 7                  19476208.984    19476208.500
  19476213.848                          33.600          42.000
 111533825.493 7  86909439.46347                  21224166.109
  21224172.059                          42.900          45.500
 107860585.176 7  83891612.546 7                  20191732.734    20191732.770
  20191737.363                          44.700          44.600
 106541302.378 7  83019168.24846                  20274119.414
  20274124.152                          42.800          37.300
 123289036.199 5  95891368.338 6                  23128675.055    23128675.391
  23128682.797                          34.100          37.900
 113941524.220 6  88785677.00947  85086273.439 8  21682359.016
  21682367.727    21682366.813          41.400          42.400          49.200
 122076977.196 6  95124959.92343                  23230483.906
  23230488.695                          36.000          20.600
 122273906.059 7                  91308457.896 8  23267948.391
                  23267953.500          46.400                          51.100
 137782905.068 6                 102889857.498 7  26219214.266
                  26219220.629          37.600                          42.400
 119343085.608 6                  89119865.299 7  22710232.500
                  22710238.066          41.800                          45.900
 129607891.685 7                  96785137.961 7  24663560.375
                  24663565.777          43.500                          47.700
 126436322.040 7                  94416749.230 7  24060034.070
                  24060039.848          42.500                          46.700
 121442450.151 7                  90687571.319 8  23109728.047
                  23109734.164          47.000                          50.800
 20  7  6  0 30 47.0000000  0 18G08G27R24G30R23R13G07R12G11R14G01G16
                                E27E21E14E13E30E15
 108635486.435 7  84651076.37748  81123943.397 8  20672650.031
  20672657.629    20672657.203          44.200          49.600          51.900
 117844639.693 6  91827029.31944  88000898.433 7  22425091.695
  22425099.699    22425099.570          39.300          28.700          46.900
 114987976.615 6  89435114.819 6                  21503329.523    21503328.344
  21503334.102                          40.600          40.900
 120506088.477 6  93900868.78645  89988328.273 7  22931538.000
  22931546.777    22931546.613          37.000          35.000          45.100
 103157490.207 7  80233640.742 6                  19284203.078    19284201.484
  19284209.066                          46.600          41.100
 104000253.432 5  80889113.809 6                  19475909.406    19475908.371
  19475913.590                          33.700          41.800
 111532967.342 7  86908770.77747                  21224002.820
  21224008.836                          43.200          45.500
 107862949.336 7  83893451.347 7                  20192176.164    20192175.688
  20192179.945                          44.700          44.800
 106540197.130 7  83018307.01146                  20273909.219
  20273913.879                          43.300          37.300
 123285046.346 5  95888265.130 6                  23127927.867    23127926.629
  23127934.176                          34.000          38.000
 113938310.792 6  88783173.03747  85083873.802 8  21681747.070
  21681756.219    21681755.246          41.400          42.400          49.400
 122079467.800 6  95126900.64943                  23230957.625
  23230962.605                          36.200          20.900
 122273428.349 7                  91308101.164 8  23267857.469
                  23267862.590          46.700                          51.200
 137780536.784 6                 102888088.988 7  26218763.930
                  26218769.984          37.700                          42.300
 119337375.860 6                  89115601.523 7  22709146.164
                  22709151.578          41.500                          45.600
 129605658.250 7                  96783470.133 7  24663135.469
                  24663140.859          43.700                          47.700
 126438182.774 7                  94418138.734 7  24060388.313
                  24060393.969          43.100                          46.400
 121442813.800 7                  90687842.887 8  23109797.305
                  23109803.422          47.200                          50.800
 20  7  6  0 30 48.0000000  0 18G08G27R24G30R23R13G07R12G11R14G01G16
                                E27E21E14E13E30E15
 108636640.285 7  84651975.48848  81124805.051 8  20672869.453
  20672877.176    20672876.684          44.300          49.600          51.800
 117847255.894 6  91829067.91244  88002852.104 7  22425590.109
  22425597.363    22425597.500          39.700          28.900          46.900
 114984839.961 6  89432675.229 6                  21502741.984    21502741.988
  21502747.422                          40.500          40.800
 120503599.961 6  93898929.68345  89986469.954 7  22931064.234
  22931073.148    22931072.938          36.800          34.900          45.100
 103156793.926 7  80233099.196 6                  19284072.078    19284071.328
  19284078.875                          46.400          41.000
 103998651.536 5  80887867.884 6                  19475609.766    19475608.238
  19475613.617                          33.800          41.900
 111532109.832 7  86908102.58947                  21223839.492
  21223845.617                          43.400          45.500
 107865314.161 7  83895290.641 7                  20192619.094    20192618.160
  20192622.746                          44.600          44.900
 106539092.449 7  83017446.22046                  20273698.859
  20273703.520                          43.200          37.300
 123281056.554 5  95885161.999 6                  23127179.563    23127178.609
  23127185.797                          33.900          37.400
 113935097.796 6  88780669.40647  85081474.487 8  21681135.625
  21681144.926    21681143.945          41.800          42.500          49.000
 122081958.634 6  95128841.57643                  23231431.781
  23231436.609                          36.300          19.600
 122272950.965 7                  91307744.676 8  23267766.703
                  23267771.797          46.500                          50.700
 137778168.554 6                 102886320.508 7  26218313.273
                  26218319.324          37.800                          42.400
 119331666.292 7                  89111337.895 7  22708059.484
                  22708065.016          42.000                          45.600
 129603425.145 7                  96781802.559 7  24662710.398
                  24662715.863          43.400                          47.500
 126440043.800 7                  94419528.465 7  24060742.023
                  24060748.090          43.100                          46.400
 121443177.896 7                  90688114.768 8  23109866.602
                  23109872.688          47.100                          50.300
 20  7  6  0 30 49.0000000  0 18G08G27R24G30R23R13G07R12G11R14G01G16
                                E27E21E14E13E30E15
 108637794.407 7  84652874.80648  81125666.893 8  20673089.086
  20673096.887    20673096.426          44.400          49.500          52.200
 117849872.234 6  91831106.62344  88004805.857 7  22426088.313
  22426095.434    22426095.359          39.900          29.700          46.900
 114981703.741 6  89430235.965 6                  21502155.547    21502155.523
  21502161.043                          40.200          40.400
 120501111.876 6  93896990.91745  89984611.954 7  22930590.883
  22930599.535    22930599.500          36.400          34.600          45.000
 103156098.333 7  80232558.179 6                  19283942.828    19283941.457
  19283948.871                          46.000          40.500
 103997050.307 5  80886622.507 7                  19475310.148    19475308.441
  19475313.859                          33.300          42.100
 111531252.943 7  86907434.88547                  21223676.602
  21223682.504                          43.400          45.700
 107867679.578 7  83897130.418 7                  20193061.852    20193061.164
  20193065.637                          44.600          45.000
 106537988.308 7  83016585.85346                  20273488.445
  20273493.379                          43.200          37.200
 123277066.895 5  95882058.905 6                  23126431.172    23126429.910
  23126437.316                          34.100          37.700
 113931885.226 6  88778166.10247  85079075.476 8  21680524.086
  21680533.547    21680532.582          41.700          42.600          49.100
 122084449.680 5  95130782.63543                  23231905.688
  23231910.578                          35.800          19.900
 122272473.850 7                  91307388.388 8  23267675.977
                  23267681.086          46.600                          51.000
 137775800.384 6                 102884552.049 7  26217862.570
                  26217868.629          38.000                          42.800
 119325956.818 6                  89107074.337 7  22706973.258
                  22706978.711          41.500                          45.700
 129601192.325 7                  96780135.192 7  24662285.602
                  24662290.945          43.800                          47.800
 126441905.061 7                  94420918.375 7  24061096.164
                  24061102.254          43.300                          46.400
 121443542.402 7                  90688386.970 8  23109935.945
                  23109942.012          46.800                          50.300
 20  7  6  0 30 50.0000000  0 18G08G27R24G30R23R13G07R12G11R14G01G16
                                E27E21E14E13E30E15
 108638948.797 7  84653774.32548  81126528.935 8  20673308.570
  20673316.625    20673316.063          44.300          49.500          52.100
 117852488.595 6  91833145.33944  88006759.645 7  22426585.734
  22426593.297    22426593.246          39.400          28.900          46.700
 114978568.039 6  89427797.042 6                  21501569.391    21501569.016
  21501574.652                          40.300          40.800
 120498624.193 6  93895052.45945  89982754.278 7  22930117.844
  22930126.203    22930125.945          36.500          34.800          45.100
 103155403.435 7  80232017.701 6                  19283812.656    19283811.664
  19283818.930                          46.100          40.500
 103995449.716 5  80885377.599 7                  19475010.609    19475008.660
  19475014.141                          33.800          42.200
 111530396.705 7  86906767.68147                  21223514.227
  21223519.527                          43.200          45.500
 107870045.629 7  83898970.664 7                  20193504.523    20193504.074
  20193508.637                          44.000          45.100
 106536884.696 7  83015725.90246                  20273278.711
  20273283.387                          43.100          36.800
 123273077.205 5  95878955.825 6                  23125681.922    23125681.395
  23125688.938                          34.000          37.800
 113928673.003 7  88775663.07447  85076676.757 8  21679913.508
  21679922.266    21679921.270          42.100          42.600          49.100
 122086940.859 5  95132723.80143                  23232379.531
  23232384.621                          35.800          20.400
 122271996.982 7                  91307032.285 8  23267585.117
                  23267590.223          46.800                          51.000
 137773432.236 6                 102882783.632 7  26217412.109
                  26217417.992          38.300                          42.700
 119320247.474 6                  89102810.859 7  22705886.719
                  22705892.219          41.700                          45.100
 129598959.786 7                  96778468.038 7  24661860.758
                  24661866.059          43.800                          47.900
 126443766.548 7                  94422308.443 7  24061450.500
                  24061456.508          43.000                          45.700
 121443907.282 7                  90688659.442 8  23110005.406
                  23110011.410          46.500                          50.400
 20  7  6  0 30 51.0000000  0 18G08G27R24G30R23R13G07R12G11R14G01G16
                                E27E21E14E13E30E15
 108640103.471 7  84654674.07548  81127391.193 8  20673528.633
  20673536.371    20673535.695          44.300          49.700          52.300
 117855105.093 6  91835184.17844  88008713.553 7  22427084.492
  22427091.305    22427091.008          39.600          28.600          47.100
 114975432.805 6  89425358.553 6                  21500983.492    21500982.523
  21500988.293                          40.700          40.600
 120496136.989 6  93893114.37345  89980896.957 7  22929644.758
  22929652.930    22929652.789          36.900          34.400          45.100
 103154709.281 7  80231477.796 6                  19283682.258    19283681.809
  19283689.086                          46.000          41.000
 103993849.766 5  80884133.172 6                  19474711.156    19474708.867
  19474714.555                          34.000          41.900
 111529541.092 7  86906100.96847                  21223350.867
  21223356.691                          43.200          45.700
 107872412.343 7  83900811.454 7                  20193947.516    20193946.984
  20193951.676                          44.700          45.300
 106535781.651 7  83014866.37846                  20273068.891
  20273073.633                          43.600          36.900
 123269087.700 5  95875852.872 6                  23124934.422    23124932.855
  23124940.633                          34.200          38.000
 113925461.248 6  88773160.41347  85074278.364 8  21679301.695
  21679311.129    21679310.180          41.800          42.400          49.000
 122089432.287 5  95134665.18443                  23232853.672
  23232858.594                          35.400          20.400
 122271520.448 7                  91306676.437 8  23267494.445
                  23267499.633          46.700                          51.100
 137771064.143 6                 102881015.276 7  26216961.156
                  26216967.383          37.600                          42.600
 119314538.314 6                  89098547.508 7  22704800.359
                  22704805.770          41.500                          45.100
 129596727.600 7                  96776801.132 7  24661436.039
                  24661441.391          43.600                          47.500
 126445628.315 7                  94423698.719 7  24061804.773
                  24061810.855          42.800                          46.000
 121444272.624 7                  90688932.262 8  23110074.953
                  23110080.938          46.500                          50.000
 20  7  6  0 30 52.0000000  0 18G08G27R24G30R23R13G07R12G11R14G01G16
                                E27E21E14E13E30E15
 108641258.398 7  84655574.01948  81128253.627 8  20673747.813
  20673755.930    20673755.566          44.400          49.500          51.900
 117857721.729 6  91837223.10844  88010667.487 7  22427581.773
  22427589.316    22427589.117          39.900          29.100          47.000
 114972298.037 6  89422920.405 6                  21500397.797    21500396.270
  21500402.023                          40.900          40.900
 120493650.243 6  93891176.64545  89979039.944 7  22929171.844
  22929179.797    22929179.578          36.900          34.700          45.400
 103154015.814 7  80230938.434 6                  19283553.477    19283552.285
  19283559.430                          46.000          41.200
 103992250.461 5  80882889.247 7                  19474410.758    19474409.168
  19474414.961                          33.900          42.100
 111528686.148 7  86905434.78347                  21223188.203
  21223194.016                          43.400          45.400
 107874779.645 7  83902652.677 7                  20194390.469    20194390.211
  20194394.887                          44.700          45.300
 106534679.135 7  83014007.27746                  20272859.172
  20272863.938                          43.300          37.300
 123265098.214 5  95872749.931 6                  23124185.719    23124184.504
  23124192.238                          34.300          38.300
 113922249.871 6  88770658.03847  85071880.275 8  21678690.523
  21678700.098    21678698.930          41.400          42.400          49.100
 122091923.859 5  95136606.64843                  23233327.758
  23233332.805                          35.900          21.100
 122271044.167 7                  91306320.771 8  23267403.742
                  23267408.895          46.800                          50.700
 137768696.104 6                 102879246.940 7  26216510.602
                  26216516.734          38.100                          42.300
 119308829.244 6                  89094284.249 7  22703713.688
                  22703719.449          41.600                          45.400
 129594495.675 7                  96775134.441 7  24661011.625
                  24661016.586          43.600                          47.400
 126447490.303 7                  94425089.173 7  24062159.055
                  24062165.234          43.200                          45.900
 121444638.346 7                  90689205.364 8  23110144.633
                  23110150.609          46.900                          50.100
 20  7  6  0 30 53.0000000  0 18G08G27R24G30R23R13G07R12G11R14G01G16
                                E27E21E14E13E30E15
 108642413.677 7  84656474.23348  81129116.332 8  20673968.102
  20673976.031    20673975.391          44.200          49.400          51.800
 117860338.467 6  91839262.12644  88012621.565 7  22428079.445
  22428087.176    22428086.961          40.000          28.700          46.800
 114969163.812 6  89420482.657 6                  21499810.938    21499810.125
  21499815.898                          41.000          40.600
 120491163.980 6  93889239.29645  89977183.337 7  22928698.086
  22928706.766    22928706.348          36.600          34.000          45.300
 103153323.134 7  80230399.685 6                  19283424.094    19283422.867
  19283430.012                          45.900          41.200
 103990651.884 5  80881645.934 6                  19474110.703    19474110.059
  19474115.559                          34.100          41.600
 111527831.886 7  86904769.12347                  21223025.719
  21223031.316                          43.500          45.500
 107877147.622 7  83904494.432 7                  20194833.695    20194833.016
  20194838.234                          44.900          44.800
 106533577.238 7  83013148.65546                  20272648.930
  20272654.211                          43.600          36.900
 123261108.850 5  95869647.085 6                  23123436.531    23123436.555
  23123443.816                          34.200          37.900
 113919039.022 6  88768156.08047  85069482.542 8  21678080.258
  21678088.953    21678087.926          40.900          42.700          49.500
 122094415.704 5  95138548.35643                  23233801.758
  23233806.875                          35.600          20.400
 122270568.259 7                  91305965.383 8  23267313.250
                  23267318.332          46.500                          50.500
 137766328.177 6                 102877478.683 6  26216060.219
                  26216066.211          38.400                          41.700
 119303120.376 6                  89090021.140 7  22702627.422
                  22702632.949          41.600                          45.300
 129592264.128 7                  96773468.030 7  24660586.453
                  24660592.027          43.600                          47.700
 126449352.620 7                  94426479.859 7  24062513.617
                  24062519.379          42.800                          46.200
 121445004.561 7                  90689478.826 8  23110214.188
                  23110220.270          46.700                          50.200
 20  7  6  0 30 54.0000000  0 18G08G27R24G30R23R13G07R12G11R14G01G16
                                E27E21E14E13E30E15
 108643569.186 7  84657374.63048  81129979.214 8  20674188.016
  20674196.000    20674195.254          43.900          49.500          52.000
 117862955.281 6  91841301.19844  88014575.666 7  22428577.336
  22428585.219    22428584.969          40.000          28.900          47.000
 114966029.963 6  89418045.231 6                  21499224.570    21499224.184
  21499229.805                          40.800          41.200
 120488678.086 6  93887302.23745  89975327.011 7  22928224.945
  22928233.617    22928233.273          36.700          33.400          45.200
 103152631.123 7  80229861.457 6                  19283295.117    19283293.375
  19283300.629                          45.800          41.300
 103989053.868 5  80880403.049 6                  19473812.031    19473810.672
  19473816.461                          34.000          41.400
 111526978.218 7  86904103.93047                  21222863.516
  21222869.047                          43.500          45.500
 107879516.193 7  83906336.667 7                  20195277.141    20195276.621
  20195281.617                          44.900          44.700
 106532475.856 7  83012290.43446                  20272439.719
  20272444.680                          43.400          36.700
 123257119.518 5  95866544.264 6                  23122689.477    23122687.707
  23122695.398                          34.000          38.000
 113915828.495 6  88765654.37047  85067085.088 8  21677468.984
  21677478.039    21677477.070          41.200          43.000          49.500
 122096907.711 6  95140490.17843                  23234275.898
  23234281.230                          36.300          19.300
 122270092.563 7                  91305610.162 8  23267222.664
                  23267227.859          46.900                          50.300
 137763960.256 6                 102875710.441 6  26215609.594
                  26215615.664          38.300                          41.800
 119297411.595 6                  89085758.099 7  22701541.227
                  22701546.668          41.900                          45.600
 129590032.842 7                  96771801.809 7  24660162.000
                  24660167.480          43.600                          47.700
 126451215.145 7                  94427870.698 7  24062867.977
                  24062874.039          42.800                          45.900
 121445371.124 7                  90689752.567 8  23110284.063
                  23110290.059          46.400                          50.200
 20  7  6  0 30 55.0000000  0 18G08G27R24G30R23R13G07R12G11R14G01G16
                                E27E21E14E13E30E15
 108644724.931 7  84658275.20648  81130842.281 8  20674407.969
  20674415.805    20674415.176          44.300          49.600          51.800
 117865572.170 6  91843340.34344  88016529.842 7  22429075.531
  22429083.113    22429082.863          39.600          28.900          47.100
 114962896.587 6  89415608.165 6                  21498638.852    21498638.629
  21498643.750                          40.900          41.000
 120486192.692 6  93885365.57245  89973471.019 7  22927752.430
  22927760.754    22927760.426          36.600          34.800          45.200
 103151939.813 7  80229323.769 6                  19283165.500    19283164.102
  19283171.344                          46.300          41.000
 103987456.557 5  80879160.678 6                  19473513.695    19473512.070
  19473517.160                          33.800          41.800
 111526125.175 7  86903439.21247                  21222701.547
  21222706.625                          43.800          45.700
 107881885.389 7  83908179.379 7                  20195720.961    20195720.461
  20195725.188                          44.800          45.000
 106531374.970 7  83011432.59946                  20272231.094
  20272235.156                          43.600          36.800
 123253130.218 5  95863441.486 6                  23121939.813    23121939.516
  23121947.121                          34.300          37.900
 113912618.392 6  88763152.99247  85064687.929 8  21676858.320
  21676867.035    21676866.223          41.600          42.700          49.300
 122099399.844 6  95142432.10943                  23234750.508
  23234755.371                          36.000          19.000
 122269617.167 7                  91305255.147 8  23267132.047
                  23267137.352          46.900                          50.600
 137761592.389 6                 102873942.211 6  26215159.070
                  26215165.195          38.800                          41.900
 119291702.938 6                  89081495.138 7  22700454.875
                  22700460.398          41.600                          45.300
 129587801.855 7                  96770135.814 7  24659737.438
                  24659742.984          44.000                          47.200
 126453077.898 7                  94429261.706 7  24063222.234
                  24063228.375          43.200                          45.900
 121445738.099 7                  90690026.611 8  23110353.734
                  23110359.813          46.700                          49.900
 20  7  6  0 30 56.0000000  0 18G08G27R24G30R23R13G07R12G11R14G01G16
                                E27E21E14E13E30E15
 108645880.970 7  84659176.02248  81131705.545 8  20674627.953
  20674635.719    20674635.137          44.300          49.500          52.100
 117868189.138 6  91845379.52744  88018484.071 7  22429573.383
  22429580.887    22429580.867          40.200          28.700          47.200
 114959763.738 6  89413171.502 6                  21498051.875    21498052.461
  21498057.922                          40.900          41.200
 120483707.725 6  93883429.23545  89971615.368 7  22927279.563
  22927287.813    22927287.590          36.400          34.200          44.800
 103151249.221 7  80228786.648 6                  19283035.742    19283035.039
  19283042.234                          45.800          40.700
 103985859.941 5  80877918.843 6                  19473214.969    19473213.020
  19473218.074                          34.100          41.900
 111525272.795 7  86902775.01747                  21222538.969
  21222544.449                          43.400          45.500
 107884255.271 7  83910022.613 7                  20196163.336    20196163.910
  20196168.871                          45.100          44.900
 106530274.655 7  83010575.21246                  20272021.023
  20272025.793                          43.700          36.600
 123249141.005 5  95860338.745 6                  23121191.758    23121190.984
  23121198.738                          34.000          37.900
 113909408.724 7  88760651.94847  85062291.093 8  21676247.383
  21676256.457    21676255.410          42.000          42.600          49.400
 122101892.254 5  95144374.24643                  23235224.672
  23235229.637                          35.700          19.600
 122269142.050 7                  91304900.346 8  23267041.719
                  23267046.953          46.600                          50.300
 137759224.558 6                 102872174.039 7  26214708.266
                  26214714.469          39.100                          42.500
 119285994.464 7                  89077232.306 7  22699368.711
                  22699374.043          42.000                          45.400
 129585571.171 7                  96768470.051 7  24659313.063
                  24659318.410          43.700                          47.100
 126454940.919 7                  94430652.924 7  24063576.828
                  24063582.910          42.800                          46.100
 121446105.506 7                  90690300.966 8  23110423.633
                  23110429.797          46.800                          49.900
 20  7  6  0 30 57.0000000  0 18G08G27R24G30R23R13G07R12G11R14G01G16
                                E27E21E14E13E30E15
 108647037.293 7  84660077.05048  81132569.033 8  20674847.992
  20674855.809    20674855.109          44.200          49.700          52.100
 117870806.250 6  91847418.84844  88020438.413 7  22430071.492
  22430079.078    22430078.977          39.800          29.500          47.200
 114956631.381 6  89410735.235 6                  21497466.727    21497466.355
  21497472.168                          40.800          41.000
 120481223.220 6  93881493.25345  89969760.056 7  22926807.063
  22926814.953    22926814.699          36.700          34.300          45.100
 103150559.377 7  80228250.097 6                  19282906.906    19282906.117
  19282913.355                          45.900          40.400
 103984263.912 5  80876677.526 6                  19472916.172    19472914.105
  19472919.344                          34.100          41.600
 111524421.081 7  86902111.34847                  21222376.992
  21222382.422                          43.300          45.700
 107886625.759 7  83911866.329 7                  20196607.977    20196607.594
  20196612.723                          44.700          44.900
 106529174.941 7  83009718.29046                  20271811.367
  20271816.555                          43.200          36.900
 123245151.849 5  95857236.065 6                  23120444.414    23120442.961
  23120450.414                          34.000          37.900
 113906199.469 6  88758151.23347  85059894.579 8  21675637.016
  21675645.750    21675644.699          41.700          42.900          49.400
 122104384.830 6  95146316.52543                  23235698.469
  23235703.961                          36.100          19.600
 122268667.245 7                  91304545.797 8  23266951.414
                  23266956.621          46.900                          50.700
 137756856.822 6                 102870405.919 7  26214257.789
                  26214263.801          38.800                          42.800
 119280286.113 6                  89072969.589 7  22698282.617
                  22698287.938          41.500                          45.300
 129583340.817 7                  96766804.527 7  24658888.484
                  24658894.023          43.900                          47.600
 126456804.195 7                  94432044.336 7  24063931.398
                  24063937.641          42.400                          45.900
 121446473.353 7                  90690575.657 8  23110493.500
                  23110499.781          46.900                          50.100
 20  7  6  0 30 58.0000000  0 18G08G27R24G30R23R13G07R12G11R14G01G16
                                E27E21E14E13E30E15
 108648193.838 7  84660978.25548  81133432.693 8  20675067.703
  20675076.020    20675075.250          44.400          49.600          51.800
 117873423.452 6  91849458.22144  88022392.822 7  22430569.859
  22430577.293    22430576.988          39.600          29.600          46.700
 114953499.439 6  89408299.289 6                  21496881.328    21496881.371
  21496886.500                          40.500          41.400
 120478739.182 6  93879557.63745  89967905.092 7  22926333.617
  22926342.277    22926341.930          36.700          34.000          44.600
 103149870.242 7  80227714.100 6                  19282778.891    19282777.270
  19282784.566                          45.800          40.400
 103982668.543 5  80875436.710 6                  19472617.461    19472615.492
  19472620.563                          34.000          41.600
 111523569.977 7  86901448.14747                  21222214.844
  21222220.449                          43.000          45.600
 107888996.872 7  83913710.520 7                  20197052.078    20197051.457
  20197056.605                          44.700          45.600
 106528075.757 7  83008861.78646                  20271602.211
  20271607.305                          42.700          37.000
 123241162.690 5  95854133.426 6                  23119694.641    23119694.453
  23119702.137                          34.200          38.000
 113902990.634 6  88755650.84547  85057498.371 8  21675026.086
  21675035.117    21675034.113          41.400          42.900          49.300
 122106877.598 5  95148258.94843                  23236173.016
  23236178.320                          35.900          19.900
 122268192.736 7                  91304191.448 8  23266861.273
                  23266866.281          46.900                          49.900
 137754489.145 6                 102868637.837 7  26213807.180
                  26213813.219          38.700                          42.300
 119274577.908 6                  89068706.964 7  22697196.203
                  22697201.672          41.800                          45.300
 129581110.777 7                  96765139.234 7  24658464.258
                  24658469.676          43.600                          47.400
 126458667.720 7                  94433435.935 7  24064286.133
                  24064292.230          42.400                          46.100
 121446841.611 7                  90690850.654 8  23110563.945
                  23110569.988          46.600                          49.900
 20  7  6  0 30 59.0000000  0 18G08G27R24G30R23R13G07R12G11R14G01G16
                                E27E21E14E13E30E15
 108649350.642 7  84661879.66348  81134296.541 8  20675288.328
  20675295.969    20675295.367          44.000          49.600          52.000
 117876040.726 6  91851497.65244  88024347.265 7  22431067.602
  22431075.371    22431075.078          39.200          29.400          46.700
 114950367.964 6  89405863.687 6                  21496295.164    21496295.531
  21496300.949                          40.800          40.700
 120476255.547 6  93877622.33345  89966050.433 7  22925861.430
  22925869.605    22925869.320          36.800          34.600          44.700
 103149181.780 7  80227178.646 6                  19282649.273    19282648.816
  19282655.820                          46.100          40.900
 103981073.866 5  80874196.397 6                  19472318.563    19472316.918
  19472321.922                          34.300          41.600
 111522719.534 7  86900785.46847                  21222053.094
  21222058.375                          43.200          45.500
 107891368.605 7  83915555.202 7                  20197495.359    20197495.348
  20197500.516                          44.900          45.400
 106526977.078 7  83008005.67646                  20271393.484
  20271398.176                          42.100          36.800
 123237173.659 5  95851030.855 6                  23118946.828    23118946.000
  23118953.891                          34.200          38.300
 113899782.191 6  88753150.75547  85055102.455 8  21674415.445
  21674424.496    21674423.508          41.600          42.900          49.100
 122109370.552 6  95150201.47443                  23236647.891
  23236652.703                          36.000          20.100
 122267718.468 7                  91303837.295 8  23266770.688
                  23266776.113          46.800                          50.200
 137752121.439 6                 102866869.777 7  26213356.672
                  26213362.500          39.200                          42.100
 119268869.812 7                  89064444.426 7  22696110.094
                  22696115.648          42.100                          45.500
 129578881.003 7                  96763474.146 7  24658039.891
                  24658045.340          43.900                          47.400
 126460531.491 7                  94434827.698 7  24064640.680
                  24064646.816          42.600                          46.200
 121447210.244 7                  90691125.936 8  23110633.789
                  23110640.063          46.200                          50.300
 20  7  6  0 31  0.0000000  0 18G08G27R24G30R23R13G07R12G11R14G01G16
                                E27E21E14E13E30E15
 108650507.730 7  84662781.28248  81135160.602 8  20675508.617
  20675516.277    20675515.539          43.900          49.500          51.900
 117878658.083 6  91853537.14844  88026301.785 7  22431565.156
  22431573.492    22431573.156          39.600          29.400          46.700
 114947236.932 6  89403428.451 6                  21495711.008    21495709.875
  21495715.414                          40.500          40.600
 120473772.356 6  93875687.38145  89964196.090 7  22925388.273
  22925396.801    22925396.738          36.900          34.700          44.900
 103148494.061 7  80226643.736 6                  19282520.797    19282520.328
  19282527.250                          45.800          41.000
 103979479.859 5  80872956.602 6                  19472018.969    19472018.266
  19472023.328                          34.500          41.900
 111521869.687 7  86900123.24747                  21221891.055
  21221896.891                          43.700          45.500
 107893740.975 7  83917400.380 7                  20197939.477    20197939.820
  20197944.746                          44.900          45.100
 106525878.957 7  83007149.99546                  20271184.242
  20271189.270                          42.200          36.900
 123233184.691 5  95847928.312 6                  23118197.156    23118197.613
  23118205.555                          34.100          38.200
 113896574.163 6  88750650.99047  85052706.863 8  21673805.047
  21673814.098    21673813.074          41.800          42.700          49.200
 122111863.688 6  95152144.18543                  23237121.953
  23237127.188                          36.000          20.600
 122267244.507 7                  91303483.348 8  23266680.586
                  23266685.859          47.000                          50.100
 137749753.830 6                 102865101.734 7  26212906.297
                  26212911.965          39.100                          42.200
 119263161.857 6                  89060181.982 7  22695023.852
                  22695029.234          41.900                          45.400
 129576651.526 7                  96761809.287 7  24657615.586
                  24657621.215          43.900                          46.900
 126462395.487 7                  94436219.659 7  24064995.688
                  24065001.617          43.100                          45.900
 121447579.297 7                  90691401.528 8  23110704.172
                  23110710.332          46.300                          50.100
 20  7  6  0 31  1.0000000  0 18G08G27R24G30R23R13G07R12G11R14G01G16
                                E27E21E14E13E30E15
 108651665.057 7  84663683.09748  81136024.843 8  20675728.688
  20675736.445    20675735.758          44.200          49.500          52.300
 117881275.529 6  91855576.72144  88028256.379 7  22432064.070
  22432071.539    22432071.047          39.200          28.700          46.600
 114944106.366 6  89400993.554 6                  21495124.695    21495124.813
  21495129.816                          40.700          40.400
 120471289.615 6  93873752.78845  89962342.097 7  22924916.305
  22924924.445    22924924.379          37.100          34.500          44.900
 103147807.026 7  80226109.396 6                  19282392.898    19282391.668
  19282398.875                          46.100          41.300
 103977886.492 5  80871717.277 7                  19471721.313    19471719.867
  19471724.945                          34.300          42.300
 111521020.490 7  86899461.53447                  21221729.172
  21221735.250                          42.900          45.400
 107896113.978 7  83919246.037 7                  20198383.641    20198383.574
  20198388.973                          44.800          45.200
 106524781.358 7  83006294.72446                  20270975.313
  20270980.469                          42.300          36.800
 123229195.793 5  95844825.835 6                  23117448.555    23117449.434
  23117457.309                          33.700          38.400
 113893366.569 6  88748151.57047  85050311.561 8  21673194.875
  21673203.789    21673202.742          41.800          42.900          49.000
 122114356.996 5  95154087.02743                  23237596.094
  23237601.836                          35.900          20.400
 122266770.801 7                  91303129.613 8  23266590.617
                  23266595.809          46.800                          50.100
 137747386.282 6                 102863333.767 7  26212455.500
                  26212461.578          39.100                          42.300
 119257454.011 6                  89055919.654 7  22693937.953
                  22693943.168          41.800                          45.600
 129574422.351 7                  96760144.640 7  24657191.367
                  24657196.949          43.700                          47.000
 126464259.729 7                  94437611.770 7  24065350.133
                  24065356.398          43.300                          46.200
 121447948.744 7                  90691677.419 8  23110774.422
                  23110780.551          46.200                          50.300
 20  7  6  0 31  2.0000000  0 18G08G27R24G30R23R13G07R12G11R14G01G16
                                E27E21E14E13E30E15
 108652822.669 7  84664585.13648  81136889.291 8  20675948.922
  20675956.637    20675955.996          44.600          49.400          52.000
 117883893.054 6  91857616.34544  88030211.027 7  22432562.172
  22432569.719    22432569.191          38.900          29.600          46.600
 114940976.283 6  89398559.052 6                  21494540.289    21494539.352
  21494544.402                          40.900          40.300
 120468807.288 6  93871818.50445  89960488.434 7  22924443.117
  22924452.355    22924452.148          36.800          35.000          45.100
 103147120.693 7  80225575.569 6                  19282264.047    19282263.340
  19282270.566                          45.800          40.900
 103976293.771 5  80870478.495 7                  19471421.711    19471421.379
  19471426.641                          34.200          42.100
 111520171.905 7  86898800.29847                  21221568.313
  21221573.637                          43.300          45.400
 107898487.566 7  83921092.164 7                  20198828.484    20198828.098
  20198833.270                          44.700          44.900
 106523684.307 7  83005439.88046                  20270766.414
  20270771.641                          42.200          37.200
 123225206.947 5  95841723.395 6                  23116701.438    23116701.043
  23116708.918                          33.800          38.100
 113890159.352 7  88745652.43947  85047916.581 8  21672584.359
  21672593.352    21672592.285          42.200          43.000          49.400
 122116850.524 6  95156030.03843                  23238071.023
  23238076.395                          36.300          21.800
 122266297.386 7                  91302776.085 8  23266500.375
                  23266505.688          46.900                          50.200
 137745018.739 6                 102861565.784 7  26212005.164
                  26212010.867          39.300                          42.100
 119251746.329 7                  89051657.404 7  22692851.844
                  22692856.965          42.200                          45.700
 129572193.496 7                  96758480.223 7  24656766.938
                  24656772.828          43.700                          47.300
 126466124.219 7                  94439004.085 7  24065704.977
                  24065711.031          43.000                          46.300
 121448318.620 7                  90691953.615 8  23110844.664
                  23110851.066          46.300                          50.200
 20  7  6  0 31  3.0000000  0 18G08G27R24G30R23R13G07R12G11R14G01G16
                                E27E21E14E13E30E15
 108653980.604 7  84665487.42448  81137753.975 8  20676169.492
  20676177.215    20676176.375          44.500          49.500          51.800
 117886510.745 6  91859656.10044  88032165.782 7  22433059.516
  22433067.949    22433067.340          39.100          29.200          46.500
 114937846.730 6  89396124.943 6                  21493955.250    21493953.902
  21493959.035                          40.700          39.700
 120466325.512 6  93869884.65345  89958635.133 7  22923971.781
  22923980.066    22923979.832          36.900          34.600          44.900
 103146435.142 7  80225042.358 6                  19282136.195    19282135.055
  19282142.457                          46.100          40.800
 103974701.701 5  80869240.217 6                  19471124.523    19471123.633
  19471128.527                          33.900          41.900
 111519324.039 7  86898139.62747                  21221406.953
  21221412.477                          43.300          45.400
 107900861.812 7  83922938.808 7                  20199273.531    20199272.516
  20199277.781                          44.600          44.500
 106522587.860 7  83004585.50946                  20270558.258
  20270563.000                          42.200          37.000
 123221218.250 5  95838621.044 6                  23115953.680    23115952.434
  23115960.730                          33.700          38.000
 113886952.624 6  88743153.69447  85045521.933 8  21671973.594
  21671983.219    21671982.145          41.800          42.700          49.000
 122119344.276 6  95157973.22843                  23238545.469
  23238550.977                          36.600          21.700
 122265824.298 7                  91302422.812 8  23266410.531
                  23266415.656          47.200                          50.200
 137742651.318 6                 102859797.908 7  26211554.883
                  26211560.621          39.100                          42.100
 119246038.816 7                  89047395.296 7  22691765.742
                  22691770.895          42.100                          45.300
 129569964.962 7                  96756816.068 7  24656342.938
                  24656348.836          44.100                          47.000
 126467989.002 7                  94440396.616 7  24066059.836
                  24066065.883          42.300                          46.000
 121448688.951 7                  90692230.164 8  23110915.438
                  23110921.500          46.100                          49.800
 20  7  6  0 31  4.0000000  0 18G08G27R24G30R23R13G07R12G11R14G01G16
                                E27E21E14E13E30E15
 108655138.834 7  84666389.93548  81138618.901 8  20676389.555
  20676397.594    20676396.816          44.500          49.500          51.900
 117889128.559 6  91861695.96244  88034120.637 7  22433558.172
  22433566.145    22433565.465          38.900          29.700          46.600
 114934717.637 6  89393691.218 6                  21493368.688    21493369.051
  21493373.871                          40.700          40.400
 120463844.167 6  93867951.13145  89956782.201 7  22923499.656
  22923507.809    22923507.656          37.000          34.800          44.900
 103145750.300 7  80224509.715 6                  19282007.492    19282006.793
  19282014.477                          46.500          40.900
 103973110.323 5  80868002.509 6                  19470827.305    19470825.703
  19470830.625                          33.700          41.900
 111518476.832 7  86897479.46547                  21221245.680
  21221251.156                          43.400          45.400
 107903236.755 7  83924785.980 7                  20199717.164    20199717.227
  20199722.258                          44.100          44.900
 106521491.986 6  83003731.57546                  20270349.563
  20270354.492                          41.800          37.200
 123217229.579 5  95835518.777 6                  23115205.133    23115204.539
  23115212.512                          33.400          38.500
 113883746.310 6  88740655.26647  85043127.616 8  21671363.172
  21671373.051    21671371.844          41.600          42.900          49.000
 122121838.243 5  95159916.57943                  23239020.375
  23239025.633                          35.700          21.300
 122265351.526 7                  91302069.776 8  23266320.469
                  23266325.668          47.300                          49.800
 137740283.984 6                 102858030.085 7  26211104.297
                  26211110.047          39.500                          42.300
 119240331.444 7                  89043133.316 7  22690679.727
                  22690684.871          42.200                          45.100
 129567736.766 7                  96755152.151 7  24655919.133
                  24655924.699          43.800                          46.900
 126469854.065 7                  94441789.368 7  24066414.992
                  24066420.914          42.600                          45.700
 121449059.711 7                  90692507.029 8  23110985.703
                  23110991.980          45.900                          49.800
 20  7  6  0 31  5.0000000  0 18G08G27R24G30R23R13G07R12G11R14G01G16
                                E27E21E14E13E30E15
 108656297.354 7  84667292.68748  81139484.012 8  20676610.438
  20676618.074    20676617.234          44.300          49.600          52.100
 117891746.402 6  91863735.82844  88036075.530 7  22434056.344
  22434064.219    22434063.617          39.300          29.300          46.800
 114931589.003 6  89391257.832 6                  21492784.164    21492783.742
  21492788.863                          40.600          40.400
 120461363.243 6  93866017.94445  89954929.554 7  22923026.695
  22923035.746    22923035.539          37.200          34.600          44.900
 103145066.153 7  80223977.609 6                  19281879.789    19281879.141
  19281886.547                          46.700          40.800
 103971519.584 5  80866765.260 6                  19470528.914    19470527.961
  19470532.836                          33.500          41.400
 111517630.221 7  86896819.77147                  21221084.555
  21221089.898                          43.200          45.400
 107905612.294 7  83926633.610 7                  20200161.961    20200162.008
  20200167.074                          44.300          45.500
 106520396.608 7  83002878.03346                  20270141.047
  20270145.910                          42.000          37.000
 123213240.927 5  95832416.509 6                  23114456.016    23114456.305
  23114464.184                          33.700          38.300
 113880540.390 6  88738157.14847  85040733.589 8  21670753.648
  21670762.988    21670761.875          41.300          42.700          49.200
 122124332.368 6  95161860.05243                  23239494.758
  23239500.285                          36.200          21.100
 122264879.008 7                  91301716.910 8  23266230.609
                  23266235.672          47.100                          50.100
 137737916.624 6                 102856262.272 7  26210653.641
                  26210659.699          39.300                          42.600
 119234624.206 7                  89038871.392 7  22689593.500
                  22689598.965          42.100                          45.300
 129565508.851 7                  96753488.442 7  24655494.953
                  24655500.723          44.100                          47.300
 126471719.332 7                  94443182.256 7  24066769.844
                  24066775.820          42.700                          45.600
 121449430.859 7                  90692784.190 8  23111056.359
                  23111062.586          46.000                          50.300
 20  7  6  0 31  6.0000000  0 18G08G27R24G30R23R13G07R12G11R14G01G16
                                E27E21E14E13E30E15
 108657456.100 7  84668195.59948  81140349.313 8  20676830.867
  20676838.508    20676837.770          44.600          49.400          51.700
 117894364.360 6  91865775.79544  88038030.493 7  22434555.148
  22434562.344    22434561.867          39.700          29.300          46.600
 114928460.819 6  89388824.800 6                  21492199.172    21492198.957
  21492203.805                          40.900          40.400
 120458882.804 6  93864085.13745  89953077.258 7  22922555.281
  22922563.664    22922563.676          36.900          35.000          44.900
 103144382.728 7  80223446.049 6                  19281751.953    19281751.285
  19281758.773                          45.900          40.600
 103969929.499 5  80865528.533 6                  19470232.406    19470229.816
  19470234.898                          34.500          41.500
 111516784.297 7  86896160.60847                  21220923.531
  21220929.043                          42.800          45.300
 107907988.444 7  83928481.728 7                  20200607.203    20200606.586
  20200611.840                          43.900          45.100
 106519301.778 7  83002024.92546                  20269932.914
  20269937.520                          42.400          36.800
 123209252.330 5  95829314.271 6                  23113707.711    23113707.887
  23113715.922                          33.700          38.500
 113877334.911 6  88735659.36947  85038339.880 8  21670143.523
  21670152.969    21670151.887          41.800          42.700          49.100
 122126826.695 6  95163803.66943                  23239970.195
  23239974.996                          36.200          21.100
 122264406.774 7                  91301364.264 8  23266140.734
                  23266145.934          46.600                          49.700
 137735549.330 6                 102854494.486 7  26210203.086
                  26210208.984          39.600                          42.400
 119228917.105 7                  89034609.613 7  22688507.508
                  22688512.758          42.200                          45.400
 129563281.241 7                  96751824.974 7  24655071.188
                  24655076.750          44.000                          46.800
 126473584.852 7                  94444575.349 7  24067124.938
                  24067130.816          42.800                          45.500
 121449802.425 7                  90693061.655 8  23111127.109
                  23111133.324          46.300                          50.300
 20  7  6  0 31  7.0000000  0 18G08G27R24G30R23R13G07R12G11R14G01G16
                                E27E21E14E13E30E15
 108658615.119 7  84669098.73248  81141214.805 8  20677051.172
  20677059.051    20677058.363          44.300          49.600          51.900
 117896982.408 6  91867815.83444  88039985.519 7  22435053.063
  22435060.441    22435060.055          39.900          28.600          46.700
 114925333.065 6  89386392.120 6                  21491614.055    21491614.113
  21491618.898                          40.500          40.200
 120456402.740 6  93862152.61445  89951225.280 7  22922083.281
  22922091.773    22922091.664          36.400          34.700          44.700
 103143699.986 7  80222915.028 6                  19281624.258    19281623.645
  19281631.129                          46.000          40.700
 103968340.072 5  80864292.289 6                  19469934.602    19469932.340
  19469937.215                          34.200          41.900
 111515938.945 7  86895501.89047                  21220762.438
  21220768.223                          42.900          45.600
 107910365.203 7  83930330.311 7                  20201051.727    20201051.484
  20201056.809                          44.100          45.200
 106518207.481 7  83001172.22646                  20269724.391
  20269729.438                          42.400          37.000
 123205263.846 5  95826212.069 6                  23112959.156    23112959.707
  23112967.691                          33.800          38.100
 113874129.825 6  88733161.89847  85035946.458 8  21669534.156
  21669543.086    21669541.828          41.700          42.800          49.300
 122129321.193 5  95165747.42843                  23240445.523
  23240449.730                          35.900          21.300
 122263934.811 7                  91301011.828 8  23266050.875
                  23266056.066          46.800                          49.900
 137733182.080 6                 102852726.737 7  26209752.656
                  26209758.543          39.600                          42.100
 119223210.129 6                  89030347.895 7  22687421.813
                  22687426.844          41.700                          45.800
 129561053.929 7                  96750161.717 7  24654647.414
                  24654653.102          43.700                          46.800
 126475450.629 7                  94445968.615 7  24067479.984
                  24067485.766          42.600                          45.400
 121450174.384 7                  90693339.413 8  23111198.008
                  23111204.078          46.500                          50.300
 20  7  6  0 31  8.0000000  0 18G08G27R24G30R23R13G07R12G11R14G01G16
                                E27E21E14E13E30E15
 108659774.362 7  84670002.04148  81142080.497 8  20677271.906
  20677279.813    20677278.918          44.500          49.500          52.100
 117899600.536 6  91869855.93144  88041940.613 7  22435550.766
  22435558.527    22435558.109          39.700          28.300          46.600
 114922205.848 6  89383959.827 6                  21491029.156    21491029.285
  21491033.977                          40.800          40.200
 120453923.147 6  93860220.47645  89949373.619 7  22921611.805
  22921619.809    22921619.898          36.600          34.900          45.000
 103143017.982 7  80222384.590 6                  19281497.383    19281496.008
  19281503.695                          45.500          41.100
 103966751.284 5  80863056.576 6                  19469636.461    19469634.730
  19469639.727                          34.000          41.700
 111515094.255 7  86894843.68947                  21220601.703
  21220607.363                          43.000          45.500
 107912742.603 7  83932179.406 7                  20201497.125    20201496.441
  20201501.625                          44.400          45.400
 106517113.744 7  83000319.96246                  20269516.391
  20269521.301                          42.500          36.800
 123201275.355 5  95823109.966 6                  23112210.406    23112211.504
  23112219.496                          33.600          38.100
 113870925.122 6  88730664.73147  85033553.352 8  21668924.211
  21668933.160    21668932.086          41.700          42.900          48.800
 122131815.892 6  95167691.33343                  23240919.508
  23240924.613                          36.600          20.600
 122263463.137 7                  91300659.604 8  23265961.070
                  23265966.418          46.600                          49.800
 137730814.919 6                 102850959.048 7  26209302.289
                  26209308.082          39.300                          42.200
 119217503.280 7                  89026086.300 7  22686335.641
                  22686340.723          42.100                          45.500
 129558826.902 7                  96748498.688 7  24654223.648
                  24654229.266          43.900                          46.500
 126477316.650 7                  94447362.056 7  24067835.141
                  24067840.742          42.800                          45.500
 121450546.763 7                  90693617.482 8  23111268.688
                  23111274.824          46.500                          49.900
 20  7  6  0 31  9.0000000  0 18G08G27R24G30R23R13G07R12G11R14G01G16
                                E27E21E14E13E30E15
 108660933.921 7  84670905.58748  81142946.377 8  20677492.492
  20677500.332    20677499.559          44.500          49.600          51.600
 117902218.742 6  91871896.08844  88043895.775 7  22436049.391
  22436056.898    22436056.473          39.700          28.800          46.400
 114919079.145 6  89381527.957 6                  21490444.383    21490444.621
  21490449.281                          40.700          40.000
 120451444.013 6  93858288.68045  89947522.333 7  22921141.047
  22921148.113    22921148.105          36.600          35.100          44.600
 103142336.723 7  80221854.717 6                  19281370.414    19281368.684
  19281376.277                          45.900          41.000
 103965163.172 5  80861821.379 6                  19469339.258    19469337.422
  19469342.402                          33.700          41.700
 111514250.218 7  86894185.99447                  21220441.336
  21220446.809                          43.100          45.400
 107915120.639 7  83934028.999 7                  20201942.086    20201941.824
  20201946.934                          44.600          45.300
 106516020.562 7  82999468.13046                  20269308.672
  20269313.188                          42.600          37.500
 123197286.948 5  95820007.861 6                  23111462.180    23111463.047
  23111471.266                          33.500          37.900
 113867720.890 6  88728167.92147  85031160.564 8  21668313.984
  21668323.473    21668322.297          41.400          42.900          48.800
 122134310.806 6  95169635.42143                  23241393.727
  23241399.387                          36.200          19.900
 122262991.764 7                  91300307.601 8  23265871.063
                  23265876.648          46.500                          49.500
 137728447.781 6                 102849191.386 7  26208851.742
                  26208857.563          39.400                          42.200
 119211796.565 6                  89021824.809 7  22685249.641
                  22685254.879          41.900                          44.800
 129556600.216 7                  96746835.890 7  24653799.977
                  24653805.559          44.100                          46.100
 126479182.915 7                  94448755.710 7  24068189.742
                  24068195.914          42.900                          45.500
 121450919.567 7                  90693895.882 8  23111339.500
                  23111346.012          46.600                          49.600
 20  7  6  0 31 10.0000000  0 18G08G27R24G30R23R13G07R12G11R14G01G16
                                E27E21E14E13E30E15
 108662093.719 7  84671809.32848  81143812.482 8  20677713.516
  20677720.996    20677720.309          44.200          49.600          51.800
 117904837.100 6  91873936.37244  88045851.020 7  22436547.570
  22436555.094    22436554.625          39.700          28.900          46.700
 114915952.874 6  89379096.402 6                  21489860.313    21489860.121
  21489864.586                          41.100          40.400
 120448965.304 6  93856357.21245  89945671.373 7  22920668.602
  22920676.371    22920676.531          37.300          35.100          44.700
 103141656.176 7  80221325.402 6                  19281242.945    19281241.457
  19281249.141                          45.800          40.200
 103963575.710 5  80860586.694 6                  19469041.398    19469040.188
  19469045.121                          34.000          41.400
 111513406.823 7  86893528.80947                  21220280.594
  21220286.410                          43.400          45.500
 107917499.313 7  83935879.072 7                  20202387.875    20202387.082
  20202392.195                          44.400          45.300
 106514927.954 7  82998616.74646                  20269100.438
  20269105.281                          42.600          37.600
 123193298.649 5  95816905.840 6                  23110715.516    23110714.594
  23110723.051                          33.400          38.400
 113864517.036 6  88725671.41647  85028768.097 8  21667704.156
  21667713.754    21667712.582          41.500          42.800          49.100
 122136805.897 6  95171579.65743                  23241869.734
  23241874.328                          36.100          20.400
 122262520.678 7                  91299955.827 8  23265781.609
                  23265787.016          45.600                          50.100
 137726080.714 6                 102847423.765 7  26208401.414
                  26208407.176          39.500                          42.000
 119206090.032 7                  89017563.425 7  22684163.852
                  22684169.133          42.100                          45.100
 129554373.823 7                  96745173.335 7  24653376.117
                  24653381.734          43.800                          46.900
 126481049.442 7                  94450149.532 7  24068545.172
                  24068551.098          42.800                          45.600
 121451292.798 7                  90694174.588 8  23111410.555
                  23111416.867          46.500                          49.800
 20  7  6  0 31 11.0000000  0 18G08G27R24G30R23R13G07R12G11R14G01G16
                                E27E21E14E13E30E15
 108663253.805 7  84672713.29548  81144678.777 8  20677934.164
  20677941.891    20677940.930          43.700          49.600          51.800
 117907455.523 6  91875976.70145  88047806.364 7  22437045.813
  22437053.355    22437053.004          39.500          30.000          46.600
 114912827.036 6  89376665.192 6                  21489275.125    21489275.367
  21489280.082                          41.000          40.400
 120446487.111 6  93854426.15545  89943820.757 7  22920195.867
  22920204.859    22920204.891          37.200          34.600          44.800
 103140976.344 7  80220796.648 6                  19281115.539    19281114.418
  19281121.965                          45.800          40.700
 103961988.946 5  80859352.521 6                  19468744.789    19468742.648
  19468747.832                          34.100          41.300
 111512564.080 7  86892872.12447                  21220120.281
  21220125.953                          43.000          45.300
 107919878.607 7  83937729.645 7                  20202833.141    20202832.480
  20202837.582                          44.700          45.100
 106513835.870 7  82997765.77346                  20268892.516
  20268897.473                          42.500          36.800
 123189310.413 5  95813803.882 6                  23109966.781    23109966.328
  23109974.887                          33.400          38.100
 113861313.629 6  88723175.25747  85026375.940 8  21667095.258
  21667104.254    21667103.102          41.800          43.000          49.000
 122139301.198 6  95173524.05343                  23242343.867
  23242349.203                          36.600          20.900
 122262049.880 7                  91299604.264 8  23265691.945
                  23265697.477          45.800                          49.600
 137723713.716 6                 102845656.206 6  26207950.914
                  26207956.676          39.400                          41.900
 119200383.627 7                  89013302.146 7  22683077.992
                  22683082.988          42.000                          44.600
 129552147.741 7                  96743510.999 7  24652952.609
                  24652958.117          44.100                          46.900
 126482916.197 7                  94451543.563 7  24068900.570
                  24068906.484          42.800                          45.300
 121451666.432 7                  90694453.604 8  23111481.703
                  23111488.129          46.700                          49.700
 20  7  6  0 31 12.0000000  0 18G08G27R24G30R23R13G07R12G11R14G01G16
                                E27E21E14E13E30E15
 108664414.168 7  84673617.46948  81145545.271 8  20678154.570
  20678162.719    20678161.777          43.800          49.500          51.800
 117910074.038 6  91878017.09844  88049761.746 7  22437544.203
  22437551.664    22437551.270          39.700          29.700          46.800
 114909701.661 6  89374234.366 6                  21488690.891    21488690.898
  21488695.590                          40.800          40.300
 120444009.308 6  93852495.39845  89941970.455 7  22919725.125
  22919733.371    22919733.574          36.300          34.500          44.800
 103140297.217 7  80220268.435 6                  19280989.016    19280987.563
  19280994.977                          45.600          40.900
 103960402.770 5  80858118.879 6                  19468446.953    19468445.781
  19468450.902                          34.100          41.000
 111511721.972 7  86892215.93047                  21219960.344
  21219965.539                          43.000          45.300
 107922258.558 7  83939580.714 7                  20203278.750    20203278.004
  20203283.012                          45.100          44.500
 106512744.334 7  82996915.23246                  20268684.891
  20268689.820                          42.400          36.600
 123185322.284 5  95810702.007 6                  23109218.727    23109218.398
  23109226.680                          32.700          38.100
 113858110.626 6  88720679.41247  85023984.092 8  21666484.953
  21666494.598    21666493.492          41.700          42.600          49.300
 122141796.666 6  95175468.55543                  23242818.602
  23242823.969                          36.900          20.400
 122261579.363 7                  91299252.898 8  23265602.672
                  23265607.883          46.100                          50.100
 137721346.735 6                 102843888.648 7  26207500.531
                  26207506.391          39.700                          42.100
 119194677.359 7                  89009040.974 7  22681992.000
                  22681997.180          42.000                          44.900
 129549921.956 7                  96741848.881 7  24652529.086
                  24652534.695          44.100                          47.300
 126484783.250 7                  94452937.764 7  24069255.594
                  24069261.523          42.800                          45.600
 121452040.463 7                  90694732.917 8  23111552.992
                  23111559.258          46.300                          50.500
 20  7  6  0 31 13.0000000  0 18G08G27R24G30R23R13G07R12G11R14G01G16
                                E27E21E14E13E30E15
 108665574.795 7  84674521.85548  81146411.985 8  20678375.703
  20678383.434    20678382.633          43.900          49.500          51.800
 117912692.674 6  91880057.59344  88051717.200 7  22438042.188
  22438049.961    22438049.621          39.800          28.700          46.600
 114906576.797 6  89371803.896 6                  21488106.297    21488106.559
  21488111.090                          40.900          40.000
 120441532.015 6  93850565.04445  89940120.498 7  22919253.625
  22919262.066    22919262.008          36.900          34.400          45.000
 103139618.816 7  80219740.780 6                  19280862.344    19280860.898
  19280868.105                          45.800          41.000
 103958817.311 5  80856885.706 6                  19468150.688    19468148.766
  19468153.938                          34.200          41.400
 111510880.500 7  86891560.24547                  21219800.195
  21219805.594                          43.100          45.400
 107924639.131 7  83941432.272 7                  20203724.227    20203723.840
  20203728.727                          44.900          44.400
 106511653.359 7  82996065.11746                  20268477.453
  20268482.246                          42.400          36.300
 123181334.176 5  95807600.127 6                  23108469.805    23108470.199
  23108478.590                          33.300          37.800
 113854908.050 6  88718183.90047  85021592.547 8  21665876.109
  21665885.148    21665883.996          41.500          42.600          49.100
 122144292.329 6  95177413.23843                  23243293.773
  23243298.871                          36.700          20.100
 122261109.148 7                  91298901.767 8  23265513.055
                  23265518.422          46.300                          50.500
 137718979.820 6                 102842121.158 7  26207050.523
                  26207055.945          39.400                          42.100
 119188971.210 7                  89004779.891 7  22680906.102
                  22680911.359          42.200                          45.300
 129547696.477 7                  96740187.009 7  24652105.570
                  24652111.145          44.200                          47.100
 126486650.514 7                  94454332.158 7  24069611.203
                  24069616.957          42.700                          45.700
 121452414.936 7                  90695012.559 8  23111624.344
                  23111630.469          46.400                          50.200
 20  7  6  0 31 14.0000000  0 18G08G27R24G30R23R13G07R12G11R14G01G16
                                E27E21E14E13E30E15
 108666735.708 7  84675426.45948  81147278.897 8  20678596.469
  20678604.352    20678603.594          43.800          49.600          51.800
 117915311.364 6  91882098.13245  88053672.726 7  22438540.422
  22438548.254    22438547.953          39.700          30.000          46.600
 114903452.391 6  89369373.806 6                  21487522.133    21487522.367
  21487526.746                          41.100          40.400
 120439055.090 6  93848634.97045  89938270.865 7  22918782.320
  22918790.773    22918790.598          36.600          34.900          44.900
 103138941.093 7  80219213.671 6                  19280734.758    19280733.996
  19280741.457                          45.900          40.800
 103957232.464 5  80855653.077 6                  19467854.477    19467851.781
  19467857.211                          34.300          41.500
 111510039.658 7  86890905.03247                  21219639.859
  21219645.633                          43.200          45.400
 107927020.318 7  83943284.288 7                  20204170.563    20204169.566
  20204174.422                          44.700          44.700
 106510562.909 7  82995215.41746                  20268269.820
  20268274.633                          42.600          36.800
 123177346.126 5  95804498.290 6                  23107723.578    23107721.859
  23107730.348                          33.800          38.300
 113851705.879 6  88715688.70147  85019201.318 8  21665267.125
  21665275.777    21665274.789          41.600          42.800          49.100
 122146788.210 6  95179358.07343                  23243768.500
  23243773.852                          37.200          21.700
 122260639.199 7                  91298550.822 8  23265423.633
                  23265429.020          46.200                          50.800
 137716612.952 6                 102840353.689 7  26206600.055
                  26206605.566          39.200                          42.400
 119183265.207 7                  89000518.924 7  22679820.195
                  22679825.543          42.300                          45.600
 129545471.299 7                  96738525.338 7  24651682.109
                  24651687.832          44.300                          47.000
 126488518.030 7                  94455726.738 7  24069966.273
                  24069972.168          42.800                          46.000
 121452789.789 7                  90695292.481 8  23111695.805
                  23111701.754          46.000                          50.300
 20  7  6  0 31 15.0000000  0 18G08G27R24G30R23R13G07R12G11R14G01G16
                                E27E21E14E13E30E15
 108667896.891 7  84676331.27948  81148146.016 8  20678817.492
  20678825.336    20678824.535          43.600          49.400          51.900
 117917930.161 6  91884138.74044  88055628.339 7  22439039.516
  22439046.730    22439046.344          39.900          29.500          46.700
 114900328.469 6  89366944.083 6                  21486938.258    21486937.887
  21486942.574                          41.300          40.400
 120436578.680 6  93846705.29845  89936421.582 7  22918311.289
  22918319.465    22918319.457          36.700          35.100          45.100
 103138264.106 7  80218687.120 6                  19280608.586    19280607.430
  19280614.879                          45.700          40.600
 103955648.295 5  80854420.948 6                  19467556.570    19467555.445
  19467560.563                          34.000          41.700
 111509199.478 7  86890250.34847                  21219480.336
  21219485.781                          43.500          45.500
 107929402.124 7  83945136.809 7                  20204615.984    20204615.332
  20204620.422                          44.800          44.900
 106509473.026 7  82994366.16246                  20268061.961
  20268067.410                          42.700          36.900
 123173358.130 5  95801396.555 6                  23106975.211    23106974.137
  23106982.160                          33.700          38.100
 113848504.135 6  88713193.83447  85016810.417 8  21664657.461
  21664666.582    21664665.398          41.700          42.800          49.200
 122149284.250 6  95181303.05143                  23244244.117
  23244248.723                          37.300          21.700
 122260169.559 7                  91298200.119 8  23265334.375
                  23265339.590          46.000                          50.300
 137714246.155 6                 102838586.272 7  26206149.266
                  26206155.055          39.300                          42.500
 119177559.371 7                  88996258.048 7  22678734.563
                  22678739.715          42.500                          45.600
 129543246.434 7                  96736863.924 7  24651258.914
                  24651264.242          44.200                          46.800
 126490385.821 7                  94457121.503 7  24070321.695
                  24070327.762          43.100                          46.100
 121453165.091 7                  90695572.733 8  23111767.320
                  23111773.258          45.700                          50.200
 20  7  6  0 31 16.0000000  0 18G08G27R24G30R23R13G07R12G11R14G01G16
                                E27E21E14E13E30E15
 108669058.350 7  84677236.31448  81149013.327 8  20679038.500
  20679046.410    20679045.602          43.600          49.500          51.900
 117920549.035 6  91886179.42644  88057583.994 7  22439538.078
  22439545.055    22439544.777          40.000          29.300          46.500
 114897204.979 6  89364514.705 6                  21486353.633    21486353.891
  21486358.324                          41.300          40.100
 120434102.652 6  93844775.92745  89934572.625 7  22917839.320
  22917848.301    22917848.539          36.900          35.100          44.800
 103137587.814 7  80218161.132 6                  19280481.914    19280480.953
  19280488.500                          45.900          40.700
 103954064.771 5  80853189.319 6                  19467260.086    19467259.059
  19467263.922                          34.100          41.400
 111508359.913 7  86889596.13947                  21219320.070
  21219325.945                          43.100          45.200
 107931784.588 7  83946989.827 7                  20205062.820    20205061.551
  20205066.359                          44.900          44.800
 106508383.680 7  82993517.31646                  20267855.094
  20267860.004                          42.600          36.900
 123169370.219 5  95798294.844 6                  23106226.828    23106225.434
  23106233.969                          33.500          38.200
 113845302.800 6  88710699.28747  85014419.805 8  21664047.703
  21664057.277    21664056.227          41.800          42.600          49.000
 122151780.488 6  95183248.16343                  23244719.344
  23244723.688                          36.900          21.700
 122259700.192 7                  91297849.618 8  23265245.063
                  23265250.219          46.000                          50.100
 137711879.372 6                 102836818.890 7  26205698.852
                  26205704.668          39.300                          42.400
 119171853.645 7                  88991997.282 7  22677648.789
                  22677653.883          42.700                          45.400
 129541021.872 7                  96735202.718 7  24650835.477
                  24650840.969          44.200                          47.200
 126492253.823 7                  94458516.446 7  24070677.094
                  24070683.145          43.200                          46.100
 121453540.793 7                  90695853.294 8  23111838.750
                  23111844.797          46.000                          50.000
 20  7  6  0 31 17.0000000  0 18G08G27R24G30R23R13G07R12G11R14G01G16
                                E27E21E14E13E30E15
 108670220.052 7  84678141.53548  81149880.834 8  20679259.508
  20679267.551    20679266.605          44.100          49.600          51.700
 117923168.032 6  91888220.20644  88059539.726 7  22440035.898
  22440043.355    22440043.121          40.200          29.400          46.400
 114894081.963 6  89362085.682 6                  21485769.945    21485769.723
  21485774.410                          41.400          40.300
 120431627.124 6  93842846.94945  89932724.007 7  22917368.992
  22917377.152    22917377.215          36.900          35.100          44.700
 103136912.244 7  80217635.673 6                  19280355.297    19280354.859
  19280362.180                          45.800          40.600
 103952481.925 5  80851958.218 6                  19466963.508    19466962.563
  19466967.504                          33.700          41.300
 111507521.004 7  86888942.44547                  21219160.664
  21219166.254                          43.200          45.500
 107934167.672 7  83948843.353 7                  20205508.422    20205507.590
  20205512.527                          45.200          45.100
 106507294.869 7  82992668.90246                  20267647.523
  20267652.867                          42.400          37.100
 123165382.347 5  95795193.156 6                  23105478.422    23105477.496
  23105485.883                          33.700          37.600
 113842101.888 6  88708205.06947  85012029.514 8  21663438.586
  21663448.051    21663447.047          41.500          42.600          48.900
 122154276.905 6  95185193.43443                  23245193.945
  23245199.078                          37.300          21.500
 122259231.109 7                  91297499.319 8  23265156.031
                  23265161.063          46.000                          49.500
 137709512.695 6                 102835051.543 7  26205248.445
                  26205254.254          39.700                          42.200
 119166148.065 7                  88987736.617 7  22676563.188
                  22676568.223          42.500                          45.700
 129538797.612 7                  96733541.746 7  24650412.086
                  24650417.672          44.200                          46.700
 126494122.089 7                  94459911.589 7  24071032.492
                  24071038.566          42.900                          45.400
 121453916.895 7                  90696134.150 8  23111910.180
                  23111916.281          46.300                          49.700
 20  7  6  0 31 18.0000000  0 18G08G27R24G30R23R13G07R12G11R14G01G16
                                E27E21E14E13E30E15
 108671382.070 7  84679047.00548  81150748.565 8  20679480.344
  20679488.512    20679487.711          43.800          49.600          51.600
 117925787.125 6  91890261.07244  88061495.541 7  22440534.234
  22440541.703    22440541.465          39.800          29.200          46.600
 114890959.431 6  89359657.047 6                  21485185.773    21485185.840
  21485190.387                          41.100          40.400
 120429152.032 6  93840918.29845  89930875.711 7  22916897.625
  22916906.199    22916906.145          36.600          35.200          44.700
 103136237.388 7  80217110.798 6                  19280229.141    19280228.910
  19280235.949                          46.100          40.700
 103950899.760 5  80850727.589 6                  19466666.648    19466666.156
  19466671.230                          33.700          41.400
 111506682.735 7  86888289.25247                  21219001.070
  21219006.910                          43.300          45.500
 107936551.395 7  83950697.344 7                  20205954.695    20205953.820
  20205958.766                          45.100          44.800
 106506206.655 7  82991820.93646                  20267440.813
  20267445.840                          42.900          36.900
 123161394.599 5  95792091.577 6                  23104729.797    23104729.410
  23104737.742                          33.300          37.700
 113838901.411 6  88705711.19447  85009639.545 8  21662830.367
  21662839.047    21662837.984          41.600          42.700          48.900
 122156773.569 6  95187138.87043                  23245669.070
  23245674.180                          37.700          20.600
 122258762.326 7                  91297149.259 8  23265066.773
                  23265071.746          46.000                          50.100
 137707146.044 6                 102833284.234 7  26204798.359
                  26204803.879          39.800                          42.400
 119160442.614 7                  88983476.077 7  22675477.305
                  22675482.457          42.600                          45.900
 129536573.663 7                  96731881.011 7  24649988.914
                  24649994.582          43.900                          46.500
 126495990.635 7                  94461306.926 7  24071388.242
                  24071394.195          42.800                          45.600
 121454293.456 7                  90696415.329 8  23111981.969
                  23111988.102          46.400                          50.200
 20  7  6  0 31 19.0000000  0 18G08G27R24G30R23R13G07R12G11R14G01G16
                                E27E21E14E13E30E15
 108672544.319 7  84679952.65548  81151616.486 8  20679702.094
  20679709.816    20679708.813          44.300          49.500          51.800
 117928406.296 6  91892301.97544  88063451.414 7  22441033.094
  22441040.086    22441039.816          39.800          28.700          46.600
 114887837.365 6  89357228.772 6                  21484602.086    21484602.230
  21484606.621                          41.400          40.000
 120426677.407 6  93838990.02445  89929027.785 7  22916426.305
  22916435.125    22916435.238          36.300          35.400          44.700
 103135563.268 7  80216586.466 6                  19280103.602    19280102.523
  19280109.949                          45.500          40.500
 103949318.186 5  80849497.519 6                  19466370.953    19466370.027
  19466375.082                          33.800          41.300
 111505845.134 7  86887636.56847                  21218841.469
  21218847.582                          43.400          45.600
 107938935.712 7  83952551.827 7                  20206400.961    20206400.430
  20206405.121                          45.100          45.200
 106505118.932 7  82990973.35546                  20267233.492
  20267238.820                          42.800          36.400
 123157406.861 5  95788990.040 6                  23103983.820    23103981.234
  23103989.613                          33.400          37.600
 113835701.371 7  88703217.65747  85007249.885 8  21662221.234
  21662230.156    21662229.000          42.000          42.600          49.000
 122159270.377 6  95189084.43843                  23246144.023
  23246149.195                          37.300          20.900
 122258293.832 7                  91296799.402 8  23264977.461
                  23264982.668          46.200                          50.100
 137704779.464 6                 102831516.979 7  26204347.945
                  26204353.629          39.400                          42.600
 119154737.328 7                  88979215.629 7  22674391.531
                  22674396.625          42.300                          46.100
 129534350.030 7                  96730220.505 7  24649566.055
                  24649571.297          44.000                          46.500
 126497859.396 7                  94462702.429 7  24071743.898
                  24071749.926          42.600                          45.700
 121454670.374 7                  90696696.819 8  23112053.719
                  23112059.723          46.500                          50.100
 20  7  6  0 31 20.0000000  0 18G08G27R24G30R23R13G07R12G11R14G01G16
                                E27E21E14E13E30E15
 108673706.860 7  84680858.53048  81152484.619 8  20679923.156
  20679931.090    20679930.086          44.100          49.700          51.900
 117931025.592 6  91894342.98144  88065407.378 7  22441531.164
  22441538.387    22441538.203          39.900          29.000          46.600
 114884715.807 6  89354800.885 6                  21484018.031    21484018.402
  21484022.867                          41.400          40.000
 120424203.184 6  93837062.05745  89927180.180 7  22915955.656
  22915964.367    22915964.445          36.800          35.300          44.700
 103134889.856 7  80216062.718 6                  19279977.414    19279976.879
  19279984.176                          46.000          40.800
 103947737.325 5  80848267.914 6                  19466076.117    19466073.699
  19466079.066                          33.800          41.500
 111505008.155 7  86886984.37647                  21218682.719
  21218688.273                          43.200          45.500
 107941320.666 7  83954406.788 7                  20206846.688    20206846.582
  20206851.426                          44.700          45.300
 106504031.773 7  82990126.22846                  20267026.500
  20267031.898                          42.400          37.000
 123153419.198 5  95785888.501 6                  23103235.344    23103232.977
  23103241.484                          33.400          37.700
 113832501.694 6  88700724.39847  85004860.534 8  21661611.617
  21661621.203    21661620.086          41.800          42.600          49.000
 122161767.407 6  95191030.17043                  23246619.875
  23246624.344                          37.100          20.600
 122257825.619 7                  91296449.768 8  23264888.313
                  23264893.605          46.700                          49.700
 137702412.913 6                 102829749.770 7  26203897.781
                  26203903.262          39.600                          42.100
 119149032.192 6                  88974955.312 7  22673305.953
                  22673310.961          41.900                          45.800
 129532126.700 7                  96728560.225 7  24649142.883
                  24649148.281          44.200                          46.600
 126499728.424 7                  94464098.135 7  24072099.422
                  24072105.547          42.600                          45.300
 121455047.751 7                  90696978.621 8  23112125.539
                  23112131.488          46.500                          50.000
 20  7  6  0 31 21.0000000  0 18G08G27R24G30R23R13G07R12G11R14G01G16
                                E27E21E14E13E30E15
 108674869.677 7  84681764.62448  81153352.955 8  20680143.914
  20680152.266    20680151.379          44.300          49.500          52.300
 117933644.986 6  91896384.06844  88067363.404 7  22442029.406
  22442036.844    22442036.656          39.900          28.900          46.700
 114881594.703 6  89352373.381 6                  21483434.805    21483435.230
  21483439.332                          41.300          40.100
 120421729.488 6  93835134.50345  89925332.902 7  22915484.727
  22915493.734    22915493.652          36.600          35.100          44.900
 103134217.176 7  80215539.521 6                  19279851.648    19279851.137
  19279858.316                          46.000          41.000
 103946157.103 5  80847038.867 6                  19465780.133    19465778.070
  19465783.242                          33.700          41.500
 111504171.830 7  86886332.69547                  21218523.445
  21218529.113                          43.700          45.300
 107943706.289 7  83956262.270 7                  20207293.711    20207293.402
  20207298.066                          44.900          45.300
 106502945.185 7  82989279.53746                  20266820.289
  20266825.273                          42.600          36.900
 123149431.646 5  95782787.025 6                  23102486.516    23102484.859
  23102493.395                          33.300          37.800
 113829302.492 6  88698231.52147  85002471.519 8  21661003.094
  21661012.473    21661011.289          41.500          42.500          49.000
 122164264.622 6  95192976.06043                  23247094.156
  23247099.676                          37.200          20.600
 122257357.710 7                  91296100.358 8  23264799.406
                  23264804.484          46.400                          50.100
 137700046.419 6                 102827982.590 7  26203447.336
                  26203452.996          39.600                          42.400
 119143327.200 7                  88970695.068 7  22672220.203
                  22672225.445          42.200                          46.000
 129529903.677 7                  96726900.179 7  24648719.797
                  24648725.211          44.000                          46.900
 126501597.720 7                  94465494.023 7  24072455.242
                  24072461.336          42.800                          45.700
 121455425.552 7                  90697260.734 8  23112197.352
                  23112203.406          46.600                          50.800
 20  7  6  0 31 22.0000000  0 18G08G27R24G30R23R13G07R12G11R14G01G16
                                E27E21E14E13E30E15
 108676032.730 7  84682670.89248  81154221.469 8  20680365.648
  20680373.598    20680372.613          44.300          49.500          51.600
 117936264.427 6  91898425.19344  88069319.491 7  22442527.813
  22442535.531    22442535.262          40.300          28.600          46.500
 114878474.031 6  89349946.199 6                  21482851.563    21482851.215
  21482855.801                          41.700          39.800
 120419256.164 6  93833207.23745  89923485.964 7  22915013.813
  22915023.156    22915022.840          36.500          34.800          44.800
 103133545.208 7  80215016.877 6                  19279726.922    19279725.512
  19279732.797                          45.800          41.000
 103944577.519 5  80845810.303 6                  19465483.008    19465482.484
  19465487.367                          34.100          41.600
 111503336.146 7  86885681.50847                  21218364.336
  21218370.012                          43.500          45.300
 107946092.531 7  83958118.242 7                  20207739.766    20207740.125
  20207744.758                          44.700          44.900
 106501859.140 7  82988433.26546                  20266613.906
  20266618.512                          43.100          36.600
 123145444.084 5  95779685.596 6                  23101738.594    23101737.164
  23101745.426                          33.400          37.700
 113826103.663 6  88695738.92447  85000082.788 8  21660393.883
  21660403.691    21660402.648          41.100          42.300          48.900
 122166762.050 6  95194922.11343                  23247568.898
  23247574.898                          37.000          21.500
 122256890.075 7                  91295751.141 8  23264710.383
                  23264715.500          46.500                          49.800
 137697679.978 6                 102826215.462 7  26202997.125
                  26203002.691          39.500                          42.400
 119137622.304 7                  88966434.933 7  22671134.750
                  22671139.719          42.200                          46.000
 129527680.957 7                  96725240.354 7  24648296.938
                  24648302.348          44.100                          47.000
 126503467.228 7                  94466890.107 7  24072811.117
                  24072817.039          42.600                          45.500
 121455803.717 7                  90697543.135 8  23112269.234
                  23112275.320          46.800                          49.800
 20  7  6  0 31 23.0000000  0 18G08G27R24G30R23R13G07R12G11R14G01G16
                                E27E21E14E13E30E15
 108677196.049 7  84683577.37448  81155090.190 8  20680586.883
  20680594.879    20680594.043          44.300          49.400          51.800
 117938883.996 6  91900466.40644  88071275.648 7  22443026.609
  22443033.883    22443033.664          40.000          28.100          46.400
 114875353.875 6  89347519.396 6                  21482268.367    21482267.777
  21482272.266                          41.400          39.200
 120416783.298 6  93831280.33045  89921639.352 7  22914543.625
  22914552.746    22914552.418          36.000          33.800          44.700
 103132873.929 7  80214494.778 6                  19279600.617    19279599.895
  19279607.414                          46.000          40.400
 103942998.607 5  80844582.260 6                  19465187.250    19465186.352
  19465191.594                          33.700          41.500
 111502501.075 7  86885030.80347                  21218206.031
  21218211.145                          44.100          45.500
 107948479.370 7  83959974.675 7                  20208186.914    20208186.992
  20208191.543                          44.400          44.600
 106500773.605 7  82987587.40146                  20266406.992
  20266411.984                          43.300          36.700
 123141456.597 5  95776584.241 6                  23100990.633    23100989.070
  23100997.262                          33.400          37.500
 113822905.267 6  88693246.67247  84997694.367 8  21659785.742
  21659794.934    21659793.918          41.300          42.300          49.100
 122169259.636 6  95196868.25343                  23248045.367
  23248050.129                          36.900          21.500
 122256422.699 7                  91295402.129 8  23264621.508
                  23264626.574          46.400                          49.700
 137695313.588 6                 102824448.338 7  26202546.930
                  26202552.305          39.400                          42.200
 119131917.564 7                  88962174.890 7  22670048.961
                  22670054.242          42.400                          45.500
 129525458.526 7                  96723580.747 7  24647874.180
                  24647879.367          43.700                          46.500
 126505337.001 7                  94468286.351 7  24073166.891
                  24073172.816          42.700                          45.300
 121456182.320 7                  90697825.849 8  23112341.305
                  23112347.453          46.600                          49.800
 20  7  6  0 31 24.0000000  0 18G08G27R24G30R23R13G07R12G11R14G01G16
                                E27E21E14E13E30E15
 108678359.695 7  84684484.10948  81155959.141 8  20680808.617
  20680816.477    20680815.355          44.300          49.500          51.700
 117941503.665 6  91902507.72244  88073231.921 7  22443525.617
  22443532.535    22443532.148          40.200          28.800          46.400
 114872234.215 6  89345093.003 6                  21481683.398    21481684.262
  21481689.098                          41.100          39.800
 120414310.978 5  93829353.85245  89919793.129 7  22914072.625
  22914082.152    22914082.016          35.900          34.000          44.800
 103132203.428 7  80213973.285 6                  19279475.914    19279474.496
  19279481.980                          46.300          41.100
 103941420.372 5  80843354.746 7                  19464892.969    19464891.055
  19464895.996                          33.800          42.100
 111501666.721 7  86884380.65547                  21218046.648
  21218052.391                          43.900          45.500
 107950866.926 7  83961831.652 7                  20208634.242    20208633.992
  20208638.602                          44.700          44.800
 106499688.706 7  82986742.02846                  20266200.398
  20266205.430                          43.000          36.600
 123137469.253 5  95773482.983 6                  23100242.453    23100241.238
  23100249.250                          33.500          37.600
 113819707.344 6  88690754.78047  84995306.303 8  21659177.828
  21659186.492    21659185.383          41.100          42.700          49.000
 122171757.473 6  95198814.63743                  23248520.289
  23248525.488                          36.700          21.100
 122255955.679 7                  91295053.395 8  23264532.617
                  23264537.668          46.300                          49.500
 137692947.311 6                 102822681.308 7  26202096.461
                  26202101.949          39.700                          42.400
 119126213.026 7                  88957915.007 7  22668963.633
                  22668968.512          42.600                          45.400
 129523236.460 7                  96721921.405 7  24647450.961
                  24647456.645          43.800                          46.600
 126507207.078 7                  94469682.832 7  24073522.922
                  24073528.969          42.700                          45.600
 121456561.383 7                  90698108.921 8  23112413.219
                  23112419.574          46.400                          49.700
 20  7  6  0 31 25.0000000  0 18G08G27R24G30R23R13G07R12G11R14G01G16
                                E27E21E14E13E30E15
 108679523.488 7  84685390.96348  81156828.221 8  20681029.797
  20681037.809    20681036.891          44.300          49.500          51.700
 117944123.368 6  91904549.04544  88075188.189 7  22444023.578
  22444031.078    22444030.648          39.600          28.500          46.700
 114869114.914 6  89342666.879 6                  21481101.195    21481100.980
  21481105.785                          41.300          40.200
 120411838.979 5  93827427.62045  89917947.141 7  22913603.273
  22913611.598    22913611.348          35.900          34.300          44.900
 103131533.530 7  80213452.227 6                  19279351.281    19279349.246
  19279356.813                          46.300          40.800
 103939842.692 5  80842127.682 7                  19464597.500    19464595.484
  19464600.664                          33.900          42.100
 111500832.914 7  86883730.94147                  21217888.086
  21217893.680                          43.200          45.800
 107953254.948 7  83963689.008 7                  20209082.094    20209080.793
  20209085.648                          44.700          44.700
 106498604.232 7  82985896.97646                  20265994.430
  20265999.223                          42.500          37.000
 123133481.879 5  95770381.705 6                  23099493.367    23099493.414
  23099501.230                          33.600          37.700
 113816509.736 6  88688263.14147  84992918.488 8  21658569.445
  21658577.938    21658576.813          41.600          42.600          49.100
 122174255.409 6  95200761.06143                  23248995.133
  23249000.668                          36.100          20.400
 122255488.858 7                  91294704.780 8  23264443.656
                  23264448.844          46.400                          49.900
 137690580.963 6                 102820914.243 7  26201646.188
                  26201651.797          39.400                          42.500
 119120508.503 7                  88953655.137 7  22667878.047
                  22667883.078          42.700                          45.200
 129521014.608 7                  96720262.235 7  24647028.320
                  24647033.809          44.000                          47.000
 126509077.298 7                  94471079.426 7  24073878.453
                  24073884.797          43.100                          46.000
 121456940.740 7                  90698392.224 8  23112485.633
                  23112491.789          46.300                          50.000
 20  7  6  0 31 26.0000000  0 18G08G27R24G30R23R13G07R12G11R14G01G16
                                E27E21E14E13E30E15
 108680687.642 7  84686298.09548  81157697.545 8  20681251.688
  20681259.328    20681258.480          44.500          49.500          51.900
 117946743.223 6  91906590.48244  88077144.559 7  22444522.273
  22444529.625    22444529.277          39.600          29.100          46.800
 114865996.114 6  89340241.150 6                  21480518.609    21480517.781
  21480522.547                          41.100          40.200
 120409367.456 6  93825501.75545  89916101.560 7  22913132.898
  22913141.270    22913141.016          36.400          34.400          45.000
 103130864.379 7  80212931.794 6                  19279225.070    19279224.379
  19279231.832                          46.100          41.000
 103938265.742 5  80840901.171 7                  19464301.102    19464300.332
  19464305.250                          33.700          42.100
 111499999.761 7  86883081.73547                  21217729.727
  21217735.215                          43.600          45.600
 107955643.685 7  83965546.904 7                  20209528.609    20209528.129
  20209532.816                          44.800          45.100
 106497520.370 7  82985052.41046                  20265787.648
  20265793.031                          42.400          36.900
 123129494.619 5  95767280.505 6                  23098746.281    23098745.371
  23098753.090                          33.700          37.900
 113813312.581 6  88685771.85347  84990531.007 8  21657960.656
  21657969.609    21657968.508          41.900          42.900          49.000
 122176753.579 6  95202707.69043                  23249470.984
  23249476.051                          36.200          20.600
 122255022.364 7                  91294356.436 8  23264354.805
                  23264360.105          46.300                          49.900
 137688214.759 6                 102819147.254 7  26201195.766
                  26201201.527          39.700                          42.400
 119114804.212 7                  88949395.430 7  22666792.602
                  22666797.563          42.700                          44.800
 129518793.089 7                  96718603.324 7  24646605.320
                  24646611.160          43.900                          46.500
 126510947.839 7                  94472476.250 7  24074234.570
                  24074240.777          43.100                          45.300
 121457320.607 7                  90698675.869 8  23112557.742
                  23112564.055          46.200                          49.900
 20  7  6  0 31 27.0000000  0 18G08G27R24G30R23R13G07R12G11R14G01G16
                                E27E21E14E13E30E15
 108681852.075 7  84687205.44748  81158567.097 8  20681472.914
  20681481.027    20681480.078          44.300          49.600          51.700
 117949363.176 6  91908632.01744  88079101.034 7  22445020.602
  22445028.250    22445027.723          39.700          29.200          46.500
 114862877.855 6  89337815.834 6                  21479934.563    21479934.547
  21479939.555                          41.000          40.400
 120406896.472 6  93823576.32245  89914256.312 7  22912662.953
  22912671.078    22912670.914          36.600          34.500          44.900
 103130195.969 7  80212411.918 6                  19279099.352    19279099.414
  19279106.746                          45.700          41.000
 103936689.495 5  80839675.159 7                  19464005.742    19464005.027
  19464010.051                          33.900          42.100
 111499167.310 7  86882433.06947                  21217571.148
  21217576.738                          43.800          45.700
 107958033.078 7  83967405.325 7                  20209975.828    20209975.332
  20209980.047                          44.700          45.000
 106496437.082 7  82984208.28746                  20265582.023
  20265586.754                          42.400          37.000
 123125507.507 5  95764179.375 6                  23097999.031    23097998.004
  23098005.133                          33.700          38.000
 113810115.882 6  88683280.91847  84988143.864 8  21657352.469
  21657361.195    21657360.113          41.800          42.500          48.800
 122179251.998 5  95204654.52643                  23249945.508
  23249951.492                          35.800          21.100
 122254556.203 7                  91294008.326 8  23264266.313
                  23264271.273          46.300                          50.100
 137685848.652 6                 102817380.350 7  26200745.586
                  26200751.242          39.800                          42.100
 119109100.063 6                  88945135.857 7  22665707.063
                  22665711.941          41.900                          45.000
 129516571.943 7                  96716944.659 7  24646182.648
                  24646188.355          43.600                          46.800
 126512818.609 7                  94473873.267 7  24074590.375
                  24074596.844          43.000                          45.100
 121457700.876 7                  90698959.855 8  23112630.242
                  23112636.383          46.500                          50.500
 20  7  6  0 31 28.0000000  0 18G08G27R24G30R23R13G07R12G11R14G01G16
                                E27E21E14E13E30E15
 108683016.766 7  84688112.99948  81159436.816 8  20681694.891
  20681702.723    20681701.754          43.900          49.500          51.900
 117951983.203 6  91910673.58644  88081057.537 7  22445518.453
  22445527.039    22445526.262          39.900          27.900          46.600
 114859760.056 6  89335390.884 6                  21479351.492    21479351.512
  21479356.355                          41.200          40.800
 120404425.855 6  93821651.17345  89912411.394 7  22912192.414
  22912201.008    22912200.809          36.500          34.800          45.200
 103129528.239 7  80211892.575 6                  19278974.953    19278974.348
  19278981.984                          45.700          41.200
 103935113.868 5  80838449.722 6                  19463711.641    19463709.902
  19463714.988                          33.800          41.600
 111498335.445 7  86881784.87247                  21217412.859
  21217418.570                          43.700          45.400
 107960423.077 7  83969264.206 7                  20210423.156    20210422.609
  20210427.547                          44.700          45.200
 106495354.320 7  82983364.58146                  20265375.578
  20265380.594                          42.100          37.000
 123121520.34815  95761078.275 6                  23097251.883    23097250.031
  23097257.125                          33.800          38.500
 113806919.581 6  88680790.29747  84985757.015 8  21656743.664
  21656753.125    21656751.891          41.900          42.600          48.800
 122181750.531 5  95206601.43343                  23250421.164
  23250427.082                          35.900          21.100
 122254090.279 7                  91293660.393 8  23264177.898
                  23264182.797          46.100                          49.700
 137683482.512 6                 102815613.436 7  26200295.445
                  26200300.816          40.000                          42.400
 119103396.049 6                  88940876.354 7  22664621.656
                  22664626.629          41.800                          45.100
 129514351.045 7                  96715286.202 7  24645760.156
                  24645765.723          43.800                          46.700
 126514689.630 7                  94475270.454 7  24074946.586
                  24074952.809          43.000                          45.000
 121458081.545 7                  90699244.112 8  23112702.773
                  23112708.879          46.100                          50.300
 20  7  6  0 31 29.0000000  0 18G08G27R24G30R23R13G07R12G11R14G01G16
                                E27E21E14E13E30E15
 108684181.722 7  84689020.75548  81160306.757 8  20681916.234
  20681924.473    20681923.328          43.800          49.500          51.800
 117954603.332 6  91912715.24444  88083014.122 7  22446017.828
  22446025.625    22446024.867          40.100          29.100          46.500
 114856642.754 6  89332966.308 6                  21478767.930    21478768.566
  21478773.566                          41.100          40.100
 120401955.742 6  93819726.41345  89910566.799 7  22911722.445
  22911730.984    22911730.738          36.300          34.600          45.300
 103128861.235 7  80211373.799 6                  19278850.797    19278849.578
  19278857.309                          45.800          40.900
 103933538.930 5  80837224.733 6                  19463417.492    19463414.645
  19463420.012                          33.900          41.600
 111497504.264 7  86881137.19247                  21217255.039
  21217260.457                          43.300          45.800
 107962813.702 7  83971123.581 7                  20210870.711    20210870.184
  20210875.121                          44.500          45.100
 106494272.094 6  82982521.28746                  20265169.711
  20265174.738                          41.900          37.100
 123117533.326 5  95757977.236 6                  23096504.297    23096501.574
  23096509.277                          34.100          38.000
 113803723.718 6  88678300.01347  84983370.492 8  21656135.703
  21656144.992    21656143.715          41.700          42.600          49.100
 122184249.323 6  95208548.53043                  23250897.039
  23250902.695                          36.100          20.400
 122253624.676 7                  91293312.702 8  23264089.000
                  23264094.172          46.400                          49.700
 137681116.467 6                 102813846.564 7  26199845.133
                  26199850.715          39.700                          42.600
 119097692.181 7                  88936616.956 7  22663535.984
                  22663541.102          42.100                          45.100
 129512130.460 7                  96713627.978 7  24645337.664
                  24645343.156          43.900                          46.800
 126516560.927 7                  94476667.851 7  24075302.664
                  24075308.902          43.100                          45.600
 121458462.641 7                  90699528.697 8  23112775.031
                  23112781.402          45.700                          49.900
 20  7  6  0 31 30.0000000  0 18G08G27R24G30R23R13G07R12G11R14G01G16
                                E27E21E14E13E30E15
 108685346.908 7  84689928.69748  81161176.865 8  20682137.922
  20682146.227    20682145.059          43.800          49.400          51.700
 117957223.515 6  91914756.94744  88084970.755 7  22446516.602
  22446524.207    22446523.582          39.700          29.600          46.600
 114853525.834 6  89330542.053 6                  21478186.039    21478185.410
  21478190.711                          41.200          40.100
 120399486.027 6  93817801.95045  89908722.530 7  22911252.367
  22911260.891    22911260.688          36.800          34.700          45.500
 103128194.897 7  80210855.536 6                  19278726.539    19278725.133
  19278732.711                          45.700          41.200
 103931964.627 5  80836000.287 6                  19463121.352    19463120.020
  19463125.211                          33.700          41.400
 111496673.692 7  86880489.98847                  21217096.578
  21217102.313                          43.000          45.500
 107965204.899 7  83972983.405 7                  20211318.430    20211317.941
  20211322.719                          44.600          44.800
 106493190.401 7  82981678.41646                  20264964.227
  20264969.031                          42.300          36.900
 123113546.300 5  95754876.228 6                  23095756.930    23095753.895
  23095761.434                          34.100          38.000
 113800528.221 6  88675810.02147  84980984.248 8  21655528.180
  21655536.809    21655535.789          41.700          42.600          48.800
 122186748.228 6  95210495.70443                  23251371.859
  23251378.305                          36.300          20.600
 122253159.310 7                  91292965.181 8  23264000.547
                  23264005.563          46.100                          50.000
 137678750.393 6                 102812079.727 7  26199395.219
                  26199400.523          39.700                          42.400
 119091988.393 6                  88932357.645 7  22662450.461
                  22662455.684          41.900                          45.000
 129509910.177 7                  96711969.955 7  24644914.844
                  24644920.770          44.000                          46.600
 126518432.429 7                  94478065.397 7  24075658.703
                  24075665.066          42.800                          45.300
 121458844.101 7                  90699813.554 8  23112847.828
                  23112853.988          46.000                          50.300
 20  7  6  0 31 31.0000000  0 18G08G27R24G30R23R13G07R12G11R14G01G16
                                E27E21E14E13E30E15
 108686512.411 7  84690836.87148  81162047.201 8  20682359.766
  20682367.820    20682366.941          43.800          49.500          51.800
 117959843.816 6  91916798.73744  88086927.490 7  22447015.258
  22447022.641    22447022.105          40.100          28.700          46.500
 114850409.436 6  89328118.180 6                  21477603.586    21477602.781
  21477607.973                          41.300          40.200
 120397016.772 6  93815877.85745  89906878.620 7  22910782.813
  22910791.102    22910790.664          36.400          34.500          45.500
 103127529.335 7  80210337.879 6                  19278601.391    19278600.621
  19278608.352                          46.000          41.000
 103930391.005 5  80834776.357 7                  19462826.734    19462825.383
  19462830.566                          33.700          42.100
 111495843.795 7  86879843.32347                  21216938.586
  21216944.391                          43.000          45.500
 107967596.786 7  83974843.760 7                  20211766.398    20211765.590
  20211770.559                          43.900          45.000
 106492109.280 6  82980835.98046                  20264758.383
  20264763.375                          41.900          36.500
 123109559.399 5  95751775.301 6                  23095007.336    23095005.988
  23095013.531                          34.000          37.900
 113797333.189 6  88673320.37847  84978598.359 8  21654920.398
  21654928.816    21654927.629          41.700          42.800          48.800
 122189247.400 6  95212443.13543                  23251847.477
  23251853.762                          36.600          21.100
 122252694.273 7                  91292617.913 8  23263911.945
                  23263917.043          46.200                          50.300
 137676384.479 6                 102810312.958 7  26198944.969
                  26198950.188          39.600                          42.300
 119086284.795 7                  88928098.470 7  22661365.219
                  22661370.297          42.300                          45.300
 129507690.207 7                  96710312.201 7  24644492.766
                  24644498.305          44.200                          47.000
 126520304.221 7                  94479463.150 7  24076015.039
                  24076021.352          42.600                          45.800
 121459226.034 7                  90700098.764 8  23112920.391
                  23112926.594          46.100                          50.300
 20  7  6  0 31 32.0000000  0 18G08G27R24G30R23R13G07R12G11R14G01G16
                                E27E21E14E13E30E15
 108687678.116 7  84691745.21848  81162917.714 8  20682581.492
  20682589.824    20682588.715          43.900          49.500          51.800
 117962464.225 6  91918840.61744  88088884.275 7  22447513.688
  22447521.293    22447520.652          39.900          28.900          46.400
 114847293.449 6  89325694.630 6                  21477020.586    21477020.277
  21477025.305                          41.300          40.900
 120394547.926 6  93813954.08345  89905035.038 7  22910312.461
  22910321.227    22910320.836          36.600          34.900          45.400
 103126864.476 7  80209820.751 6                  19278477.359    19278476.340
  19278484.141                          46.000          40.900
 103928817.986 5  80833552.941 7                  19462531.570    19462530.793
  19462536.039                          33.700          42.300
 111495014.501 7  86879197.12047                  21216780.523
  21216786.563                          43.000          45.400
 107969989.255 7  83976704.576 7                  20212213.977    20212213.574
  20212218.383                          44.100          45.100
 106491028.665 7  82979993.94146                  20264552.711
  20264557.625                          42.300          36.600
 123105572.500 5  95748674.421 6                  23094258.664    23094257.531
  23094265.719                          34.400          37.800
 113794138.539 6  88670831.04647  84976212.737 8  21654312.266
  21654320.914    21654319.828          41.600          42.800          49.000
 122191746.724 6  95214390.65443                  23252323.258
  23252329.484                          36.300          21.500
 122252229.486 7                  91292270.836 8  23263823.602
                  23263828.625          46.000                          50.500
 137674018.534 6                 102808546.192 7  26198494.336
                  26198499.949          39.600                          42.100
 119080581.319 7                  88923839.380 7  22660279.820
                  22660284.992          42.400                          45.000
 129505470.536 7                  96708654.642 7  24644070.367
                  24644075.941          44.000                          46.800
 126522176.212 7                  94480861.074 7  24076371.266
                  24076377.652          42.600                          46.000
 121459608.348 7                  90700384.252 8  23112993.172
                  23112999.391          45.900                          50.500
 20  7  6  0 31 33.0000000  0 18G08G27R24G30R23R13G07R12G11R14G01G16
                                E27E21E14E13E30E15
 108688844.186 7  84692653.84348  81163788.459 8  20682803.391
  20682811.539    20682810.625          43.600          49.300          51.600
 117965084.728 6  91920882.56244  88090841.135 7  22448013.172
  22448020.000    22448019.410          40.500          29.300          46.400
 114844178.022 6  89323271.547 6                  21476437.445    21476437.656
  21476442.676                          41.100          40.500
 120392079.649 6  93812030.75345  89903191.800 7  22909842.992
  22909851.449    22909851.211          36.300          34.700          44.900
 103126200.363 7  80209304.231 6                  19278352.547    19278352.242
  19278359.816                          46.200          41.100
 103927245.740 5  80832330.045 6                  19462238.953    19462236.359
  19462241.531                          33.400          41.900
 111494185.872 7  86878551.43447                  21216622.836
  21216629.027                          43.500          45.200
 107972382.386 7  83978565.901 7                  20212662.516    20212661.594
  20212666.398                          44.300          44.800
 106489948.655 7  82979152.37346                  20264347.430
  20264351.926                          42.600          36.400
 123101585.750 5  95745573.584 6                  23093510.914    23093509.891
  23093517.773                          34.000          37.600
 113790944.353 6  88668342.07447  84973827.471 8  21653704.430
  21653713.070    21653711.918          41.900          42.600          48.800
 122194246.275 6  95216338.33143                  23252799.133
  23252805.000                          36.500          20.600
 122251765.026 7                  91291923.998 8  23263735.250
                  23263740.297          46.200                          49.500
 137671652.714 6                 102806779.494 7  26198044.367
                  26198049.992          39.800                          42.200
 119074878.031 7                  88919580.405 7  22659194.344
                  22659199.527          42.000                          44.800
 129503251.170 7                  96706997.333 7  24643647.875
                  24643653.504          44.000                          46.200
 126524048.479 7                  94482259.215 7  24076727.688
                  24076733.875          42.800                          45.100
 121459991.104 7                  90700670.071 8  23113065.922
                  23113072.129          46.100                          49.700
 20  7  6  0 31 34.0000000  0 18G08G27R24G30R23R13G07R12G11R14G01G16
                                E27E21E14E13E30E15
 108690010.511 7  84693562.66648  81164659.417 8  20683025.578
  20683033.652    20683032.547          43.500          49.600          51.900
 117967705.352 6  91922924.60144  88092798.088 7  22448511.102
  22448518.664    22448518.059          40.200          28.700          46.700
 114841063.101 6  89320848.821 6                  21475854.742    21475854.977
  21475860.188                          41.300          40.300
 120389611.784 6  93810107.73145  89901348.915 7  22909373.625
  22909381.867    22909381.586          36.100          34.800          44.700
 103125536.984 7  80208788.277 6                  19278228.875    19278228.328
  19278235.895                          46.300          40.900
 103925674.106 5  80831107.683 7                  19461944.141    19461942.094
  19461947.246                          33.200          42.000
 111493357.912 7  86877906.26647                  21216465.266
  21216471.371                          43.100          45.400
 107974776.166 7  83980427.715 7                  20213109.930    20213109.773
  20213114.645                          44.700          45.200
 106488869.188 7  82978311.23546                  20264141.992
  20264146.594                          42.900          37.500
 123097599.089 5  95742472.849 6                  23092762.883    23092761.719
  23092769.906                          33.800          37.600
 113787750.591 7  88665853.43347  84971442.526 8  21653096.508
  21653105.332    21653104.063          42.100          42.600          48.900
 122196746.005 6  95218286.20943                  23253274.836
  23253280.520                          36.200          20.600
 122251300.865 7                  91291577.388 8  23263646.508
                  23263651.902          46.400                          49.800
 137669286.916 6                 102805012.839 7  26197593.969
                  26197599.844          39.500                          42.100
 119069174.869 6                  88915321.577 7  22658109.352
                  22658114.227          41.800                          45.400
 129501032.159 7                  96705340.276 7  24643225.813
                  24643231.297          44.000                          46.900
 126525921.054 7                  94483657.537 7  24077083.875
                  24077090.234          42.800                          45.400
 121460374.279 7                  90700956.207 8  23113139.000
                  23113145.148          46.100                          49.900
 20  7  6  0 31 35.0000000  0 18G08G27R24G30R23R13G07R12G11R14G01G16
                                E27E21E14E13E30E15
 108691177.061 7  84694471.66548  81165530.545 8  20683247.555
  20683255.555    20683254.563          43.500          49.500          51.800
 117970326.007 6  91924966.66744  88094755.077 7  22449009.648
  22449017.410    22449016.809          40.300          29.100          46.500
 114837948.577 6  89318426.399 6                  21475272.297    21475272.586
  21475277.883                          41.400          40.700
 120387144.294 6  93808185.01845  89899506.327 7  22908903.578
  22908912.301    22908912.094          36.100          34.900          44.900
 103124874.279 7  80208272.819 6                  19278105.672    19278104.320
  19278111.992                          46.100          41.100
 103924103.096 5  80829885.791 6                  19461650.125    19461647.715
  19461653.137                          33.500          41.800
 111492530.559 7  86877261.57947                  21216308.148
  21216313.992                          42.900          45.400
 107977170.507 7  83982289.988 7                  20213558.477    20213558.203
  20213562.773                          45.000          44.900
 106487790.239 7  82977470.49646                  20263936.266
  20263941.234                          42.900          36.900
 123093612.436 5  95739372.134 6                  23092014.750    23092013.863
  23092022.008                          34.300          38.100
 113784557.225 7  88663365.09447  84969057.848 8  21652488.641
  21652497.742    21652496.512          42.100          42.800          48.900
 122199245.914 5  95220234.18843                  23253750.125
  23253756.082                          35.400          20.900
 122250836.943 7                  91291230.948 8  23263558.430
                  23263563.734          46.200                          49.700
 137666921.187 6                 102803246.212 7  26197143.836
                  26197149.527          39.400                          42.400
 119063471.798 6                  88911062.780 7  22657024.344
                  22657029.066          41.300                          45.000
 129498813.388 7                  96703683.400 7  24642803.242
                  24642809.113          43.900                          46.800
 126527793.785 7                  94485056.032 7  24077440.250
                  24077446.598          42.900                          45.600
 121460757.818 7                  90701242.623 8  23113212.078
                  23113218.059          46.300                          49.800
 20  7  6  0 31 36.0000000  0 18G08G27R24G30R23R13G07R12G11R14G01G16
                                E27E21E14E13E30E15
 108692343.898 7  84695380.89248  81166401.890 8  20683469.867
  20683477.633    20683476.609          43.500          49.500          52.100
 117972946.749 6  91927008.80544  88096712.144 7  22449508.570
  22449516.223    22449515.516          40.500          29.300          46.600
 114834834.528 6  89316004.344 6                  21474689.992    21474690.277
  21474695.543                          41.200          41.100
 120384677.350 6  93806262.71945  89897664.108 7  22908433.938
  22908442.777    22908442.582          36.000          34.800          45.300
 103124212.309 7  80207757.967 6                  19277981.305    19277980.578
  19277988.184                          46.300          41.200
 103922532.787 5  80828664.419 6                  19461354.227    19461353.840
  19461359.145                          33.500          41.400
 111491703.864 7  86876617.39647                  21216150.695
  21216156.621                          42.600          45.300
 107979565.500 7  83984152.764 7                  20214006.875    20214006.645
  20214011.172                          44.900          45.100
 106486711.829 7  82976630.17746                  20263730.828
  20263736.176                          42.800          36.700
 123089625.885 5  95736271.478 6                  23091265.992    23091266.410
  23091274.109                          34.400          38.000
 113781364.271 7  88660877.07747  84966673.509 8  21651881.359
  21651890.051    21651888.957          42.500          42.600          48.800
 122201745.985 5  95222182.27543                  23254226.805
  23254231.895                          34.900          20.400
 122250373.332 7                  91290884.741 8  23263470.125
                  23263475.512          46.300                          50.300
 137664555.487 6                 102801479.614 7  26196693.609
                  26196699.410          39.300                          42.500
 119057768.898 6                  88906804.132 7  22655938.664
                  22655943.746          41.500                          45.300
 129496594.957 7                  96702026.776 7  24642380.984
                  24642387.016          44.000                          47.300
 126529666.815 7                  94486454.706 7  24077796.883
                  24077803.063          42.700                          45.700
 121461141.790 7                  90701529.363 8  23113285.156
                  23113291.172          46.200                          50.300
 20  7  6  0 31 37.0000000  0 18G08G27R24G30R23R13G07R12G11R14G01G16
                                E27E21E14E13E30E15
 108693511.045 7  84696290.36048  81167273.454 8  20683691.445
  20683699.648    20683698.668          43.300          49.500          51.800
 117975567.646 6  91929051.06044  88098669.281 7  22450007.656
  22450015.004    22450014.371          40.300          29.300          46.600
 114831720.930 6  89313582.696 6                  21474107.766    21474107.977
  21474113.266                          41.300          40.700
 120382210.787 6  93804340.72645  89895822.213 7  22907964.664
  22907973.551    22907973.395          36.300          35.100          45.100
 103123551.044 7  80207243.655 6                  19277858.242    19277856.805
  19277864.539                          46.200          41.300
 103920963.151 5  80827443.600 6                  19461061.391    19461059.836
  19461065.102                          33.800          41.500
 111490877.810 7  86875973.71647                  21215993.852
  21215999.457                          42.900          45.700
 107981961.162 7  83986016.043 7                  20214455.375    20214454.898
  20214459.695                          45.000          45.100
 106485633.997 7  82975790.30846                  20263526.336
  20263531.059                          43.000          37.200
 123085639.386 5  95733170.896 6                  23090518.969    23090518.398
  23090526.344                          34.300          37.300
 113778171.745 7  88658389.39347  84964289.489 8  21651274.078
  21651282.652    21651281.352          42.500          42.800          49.100
 122204246.274 5  95224130.55343                  23254702.148
  23254707.793                          35.200          20.100
 122249910.014 7                  91290538.751 8  23263382.016
                  23263387.277          46.500                          50.400
 137662189.855 6                 102799713.079 7  26196242.914
                  26196249.199          39.700                          42.600
 119052066.187 6                  88902545.586 7  22654853.727
                  22654858.508          41.600                          45.500
 129494376.809 7                  96700370.381 7  24641958.805
                  24641964.813          44.000                          46.800
 126531540.109 7                  94487853.578 7  24078153.266
                  24078159.492          42.900                          45.900
 121461526.192 7                  90701816.415 8  23113358.148
                  23113364.301          46.300                          50.600
 20  7  6  0 31 38.0000000  0 18G08G27R24G30R23R13G07R12G11R14G01G16
                                E27E21E14E13E30E15
 108694678.423 7  84697199.99648  81168145.203 8  20683914.047
  20683921.840    20683920.801          43.700          49.500          51.900
 117978188.587 6  91931093.35444  88100626.497 7  22450505.875
  22450513.648    22450513.051          40.200          29.300          46.600
 114828607.847 6  89311161.395 6                  21473526.133    21473525.852
  21473531.066                          41.400          40.700
 120379744.687 6  93802419.08945  89893980.646 7  22907495.727
  22907504.430    22907503.906          36.300          35.200          45.100
 103122890.495 7  80206729.892 6                  19277734.000    19277733.262
  19277741.180                          46.000          41.100
 103919394.181 5  80826223.265 6                  19460767.602    19460766.000
  19460771.156                          33.800          41.800
 111490052.402 7  86875330.54647                  21215836.805
  21215842.367                          43.100          45.600
 107984357.426 7  83987879.804 7                  20214903.617    20214903.480
  20214908.336                          45.000          45.100
 106484556.716 7  82974950.87046                  20263321.008
  20263326.039                          43.000          37.100
 123081652.947 5  95730070.330 6                  23089771.648    23089770.219
  23089778.559                          34.300          38.000
 113774979.667 7  88655902.05547  84961905.788 8  21650666.555
  21650675.160    21650674.043          42.200          43.000          48.900
 122206746.823 5  95226079.04643                  23255178.359
  23255183.551                          35.300          20.600
 122249446.987 7                  91290192.998 8  23263293.875
                  23263299.270          46.100                          49.600
 137659824.291 6                 102797946.577 7  26195793.063
                  26195799.281          39.500                          42.500
 119046363.582 6                  88898287.169 7  22653768.633
                  22653773.324          41.700                          45.100
 129492158.989 7                  96698714.214 7  24641536.961
                  24641542.859          44.100                          46.600
 126533413.637 7                  94489252.642 7  24078509.914
                  24078515.992          42.500                          45.900
 121461910.997 7                  90702103.775 8  23113431.281
                  23113437.582          46.500                          49.800
 20  7  6  0 31 39.0000000  0 18G08G27R24G30R23R13G07R12G11R14G01G16
                                E27E21E14E13E30E15
 108695846.070 7  84698109.85548  81169017.152 8  20684135.977
  20684144.020    20684143.000          43.900          49.500          51.800
 117980809.673 6  91933135.75144  88102583.785 7  22451004.516
  22451012.406    22451011.934          40.400          28.700          47.000
 114825495.202 6  89308740.464 6                  21472944.016    21472943.832
  21472948.957                          41.300          40.500
 120377279.075 5  93800497.83145  89892139.441 7  22907026.164
  22907035.063    22907034.863          35.900          34.000          45.000
 103122230.662 7  80206216.682 6                  19277610.367    19277610.250
  19277617.758                          45.900          41.100
 103917825.827 5  80825003.457 6                  19460474.070    19460472.301
  19460477.512                          33.200          41.300
 111489227.657 7  86874687.88147                  21215679.984
  21215685.438                          43.300          45.800
 107986754.326 7  83989744.070 7                  20215352.719    20215352.258
  20215357.102                          45.100          45.500
 106483479.974 7  82974111.84746                  20263116.086
  20263121.020                          43.000          36.900
 123077666.544 5  95726969.786 6                  23089022.883    23089022.313
  23089030.789                          34.300          37.400
 113771787.973 7  88653415.02447  84959522.397 8  21650059.414
  21650067.855    21650066.805          42.100          42.900          49.100
 122209247.498 5  95228027.61043                  23255653.938
  23255659.438                          35.600          20.900
 122248984.258 7                  91289847.449 8  23263205.758
                  23263211.133          46.100                          50.000
 137657458.768 6                 102796180.126 7  26195343.234
                  26195349.070          38.900                          42.500
 119040661.125 6                  88894028.834 7  22652683.398
                  22652688.195          41.300                          45.100
 129489941.499 7                  96697058.301 7  24641114.953
                  24641120.875          44.200                          46.900
 126535287.411 7                  94490651.898 7  24078866.609
                  24078872.770          42.900                          45.500
 121462296.247 7                  90702391.447 8  23113504.656
                  23113510.859          46.500                          50.100
 20  7  6  0 31 40.0000000  0 18G08G27R24G30R23R13G07R12G11R14G01G16
                                E27E21E14E13E30E15
 108697013.980 7  84699019.92248  81169889.295 8  20684358.039
  20684366.391    20684365.246          44.000          49.500          51.700
 117983430.841 6  91935178.21844  88104541.136 7  22451503.305
  22451511.199    22451510.703          40.200          29.100          46.500
 114822383.036 6  89306319.885 6                  21472362.836    21472361.516
  21472367.063                          41.100          40.800
 120374813.917 6  93798576.93445  89890298.553 7  22906556.953
  22906565.820    22906565.703          36.000          34.400          44.700
 103121571.526 7  80205704.027 6                  19277487.828    19277486.914
  19277494.336                          45.900          40.900
 103916258.178 5  80823784.161 6                  19460181.664    19460178.676
  19460183.820                          32.800          41.300
 111488403.543 7  86874045.71747                  21215523.250
  21215528.664                          43.400          45.400
 107989151.868 7  83991608.820 7                  20215801.477    20215800.801
  20215805.965                          45.000          45.300
 106482403.765 7  82973273.24346                  20262911.250
  20262916.211                          43.200          37.300
 123073680.250 5  95723869.324 6                  23088276.180    23088274.500
  23088282.945                          34.400          38.100
 113768596.738 7  88650928.35247  84957139.313 8  21649451.805
  21649460.633    21649459.445          42.000          42.900          48.800
 122211748.356 5  95229976.34843                  23256129.570
  23256135.262                          35.200          20.600
 122248521.813 7                  91289502.113 8  23263117.898
                  23263123.137          46.700                          49.800
 137655093.308 6                 102794413.714 7  26194892.922
                  26194898.879          38.900                          42.300
 119034958.802 6                  88889770.623 7  22651598.250
                  22651602.953          41.500                          45.100
 129487724.291 7                  96695402.587 7  24640693.047
                  24640699.016          43.900                          47.100
 126537161.447 7                  94492051.338 7  24079223.063
                  24079229.305          42.200                          45.600
 121462681.887 7                  90702679.417 8  23113577.945
                  23113584.273          46.600                          50.000
 20  7  6  0 31 41.0000000  0 18G08G27R24G30R23R13G07R12G11R14G01G16
                                E27E21E14E13E30E15
 108698182.158 7  84699930.19348  81170761.632 8  20684580.422
  20684588.477    20684587.633          43.700          49.500          51.700
 117986052.077 6  91937220.74644  88106498.572 7  22452002.445
  22452010.000    22452009.484          40.200          29.600          46.600
 114819271.365 6  89303899.695 6                  21471780.781    21471779.676
  21471785.129                          40.900          40.600
 120372349.169 5  93796656.35445  89888458.020 7  22906088.281
  22906096.852    22906096.652          35.700          35.100          44.800
 103120913.106 7  80205191.927 6                  19277364.664    19277363.629
  19277371.266                          45.500          40.700
 103914691.152 5  80822565.357 6                  19459886.438    19459884.922
  19459890.270                          33.400          41.600
 111487580.074 7  86873404.05347                  21215366.180
  21215371.992                          43.000          45.600
 107991550.028 7  83993474.056 7                  20216250.375    20216249.695
  20216254.914                          45.200          45.500
 106481328.118 7  82972435.07946                  20262707.078
  20262711.477                          43.000          36.800
 123069694.027 5  95720768.917 6                  23087528.258    23087527.137
  23087535.105                          34.600          38.000
 113765405.903 7  88648441.98647  84954756.559 8  21648844.617
  21648853.340    21648852.336          42.100          43.000          48.900
 122214249.440 5  95231925.23743                  23256604.789
  23256611.188                          35.100          19.900
 122248059.642 7                  91289156.986 8  23263029.984
                  23263035.156          46.600                          49.800
 137652727.892 6                 102792647.343 7  26194442.758
                  26194448.879          39.100                          42.100
 119029256.627 6                  88885512.506 7  22650513.344
                  22650517.824          41.600                          44.300
 129485507.381 7                  96693747.091 7  24640271.352
                  24640277.066          44.200                          46.700
 126539035.735 7                  94493450.956 7  24079579.563
                  24079585.922          42.600                          45.400
 121463067.926 7                  90702967.708 8  23113651.477
                  23113657.727          46.600                          49.800
 20  7  6  0 31 42.0000000  0 18G08G27R24G30R23R13G07R12G11R14G01G16
                                E27E21E14E13E30E15
 108699350.619 7  84700840.67648  81171634.182 8  20684802.602
  20684810.965    20684810.004          43.800          49.400          52.200
 117988673.423 6  91939263.35144  88108456.062 7  22452501.070
  22452508.824    22452508.254          39.800          28.900          46.600
 114816160.213 6  89301479.895 6                  21471198.898    21471197.797
  21471203.352                          40.600          40.900
 120369884.890 5  93794736.13245  89886617.816 7  22905619.258
  22905627.816    22905627.637          35.700          34.400          44.900
 103120255.408 7  80204680.395 6                  19277241.883    19277240.711
  19277248.402                          45.900          40.400
 103913124.799 5  80821347.073 6                  19459593.273    19459591.625
  19459596.953                          33.700          41.400
 111486757.225 7  86872762.87047                  21215209.484
  21215215.387                          42.800          45.700
 107993948.799 7  83995339.765 7                  20216698.992    20216698.848
  20216703.996                          45.000          45.300
 106480253.038 7  82971597.35646                  20262502.320
  20262506.930                          43.000          37.000
 123065707.876 5  95717668.564 6                  23086780.094    23086779.555
  23086787.363                          34.200          38.400
 113762215.503 6  88645955.95747  84952374.107 8  21648237.242
  21648246.332    21648245.074          41.700          43.200          49.000
 122216750.702 6  95233874.26743                  23257081.102
  23257087.074                          36.100          18.600
 122247597.786 7                  91288812.086 8  23262942.148
                  23262947.371          46.300                          50.100
 137650362.545 6                 102790881.015 7  26193992.523
                  26193998.805          39.400                          42.100
 119023554.619 7                  88881254.503 7  22649428.086
                  22649432.684          42.100                          44.700
 129483290.808 7                  96692091.853 7  24639849.445
                  24639855.402          43.800                          46.800
 126540910.246 7                  94494850.757 7  24079936.203
                  24079942.715          42.700                          45.700
 121463454.408 7                  90703256.297 8  23113725.086
                  23113731.195          46.200                          50.200
 20  7  6  0 31 43.0000000  0 18G08G27R24G30R23R13G07R12G11R14G01G16
                                E27E21E14E13E30E15
 108700519.302 7  84701751.33348  81172506.899 8  20685025.117
  20685033.215    20685032.367          43.900          49.100          51.700
 117991294.837 6  91941306.00744  88110413.609 7  22452999.820
  22453007.707    22453007.207          39.700          28.300          46.600
 114813049.462 6  89299060.432 6                  21470616.797    21470615.727
  21470621.566                          40.700          39.900
 120367421.042 6  93792816.25545  89884777.922 7  22905151.008
  22905158.906    22905158.961          36.300          34.200          45.200
 103119598.405 7  80204169.382 6                  19277119.000    19277117.684
  19277125.473                          45.700          39.900
 103911559.028 5  80820129.273 6                  19459300.219    19459298.672
  19459303.957                          33.400          40.400
 111485935.007 7  86872122.18047                  21215052.969
  21215058.883                          43.100          45.200
 107996348.193 7  83997205.953 7                  20217147.914    20217147.973
  20217153.078                          45.100          44.200
 106479178.443 7  82970760.01146                  20262297.633
  20262302.492                          42.600          36.500
 123061721.801 5  95714568.276 6                  23086031.484    23086031.078
  23086039.605                          34.500          37.400
 113759025.484 6  88643470.23447  84949991.962 8  21647630.008
  21647639.262    21647638.180          41.800          42.600          49.100
 122219252.146 6  95235823.44143                  23257556.930
  23257562.945                          36.200          19.000
 122247136.168 7                  91288467.379 8  23262854.195
                  23262859.449          46.100                          49.800
 137647997.187 6                 102789114.680 7  26193542.805
                  26193548.820          39.200                          42.200
 119017852.695 7                  88876996.580 7  22648343.219
                  22648347.742          42.300                          44.600
 129481074.467 7                  96690436.831 7  24639427.742
                  24639433.480          44.000                          46.500
 126542784.995 7                  94496250.746 7  24080292.992
                  24080299.320          42.100                          45.600
 121463841.247 7                  90703545.182 8  23113798.422
                  23113804.902          46.000                          50.000
 20  7  6  0 31 44.0000000  0 18G08G27R24G30R23R13G07R12G11R14G01G16
                                E27E21E14E13E30E15
 108701688.309 7  84702662.25148  81173379.848 8  20685247.727
  20685255.578    20685254.836          43.600          49.500          51.900
 117993916.362 6  91943348.75544  88112371.254 7  22453499.086
  22453506.563    22453506.105          39.700          28.700          46.800
 114809939.220 6  89296641.358 6                  21470035.273    21470034.441
  21470039.891                          40.600          40.400
 120364957.704 6  93790896.76545  89882938.409 7  22904682.758
  22904690.137    22904690.301          36.800          34.700          45.200
 103118942.157 7  80203658.976 6                  19276996.016    19276995.082
  19277002.746                          45.800          40.300
 103909994.001 5  80818912.009 6                  19459006.570    19459005.652
  19459010.859                          34.100          41.400
 111485113.471 7  86871482.02147                  21214896.977
  21214902.602                          43.300          45.700
 107998748.285 7  83999072.694 7                  20217597.992    20217597.277
  20217602.285                          44.900          44.400
 106478104.460 7  82969923.13546                  20262093.000
  20262098.117                          42.700          36.600
 123057735.816 5  95711468.082 6                  23085284.539    23085283.762
  23085291.844                          34.500          38.100
 113755835.937 7  88640984.87147  84947610.151 8  21647023.227
  21647032.504    21647031.297          42.300          43.100          49.100
 122221753.785 6  95237772.76643                  23258033.234
  23258039.164                          36.200          19.600
 122246674.886 7                  91288122.918 8  23262766.508
                  23262771.586          46.200                          50.200
 137645631.982 6                 102787348.437 7  26193092.555
                  26193098.852          39.400                          42.300
 119012150.974 6                  88872738.804 7  22647258.180
                  22647262.586          41.900                          44.900
 129478858.527 7                  96688782.054 7  24639005.875
                  24639011.793          43.900                          47.100
 126544660.037 7                  94497650.942 7  24080650.000
                  24080656.293          42.500                          45.800
 121464228.566 7                  90703834.410 8  23113872.500
                  23113878.512          46.000                          50.000
 20  7  6  0 31 45.0000000  0 18G08G27R24G30R23R13G07R12G11R14G01G16
                                E27E21E14E13E30E15
 108702857.535 7  84703573.33248  81174252.982 8  20685470.352
  20685478.094    20685477.297          43.700          49.500          51.700
 117996537.964 6  91945391.57044  88114328.939 7  22453997.445
  22454005.402    22454004.891          39.500          29.900          46.700
 114806829.418 6  89294222.605 6                  21469453.156    21469452.836
  21469458.469                          40.900          40.900
 120362494.751 6  93788977.57745  89881099.189 7  22904212.930
  22904221.508    22904221.496          36.500          34.600          45.000
 103118286.599 7  80203149.088 6                  19276874.180    19276872.715
  19276880.129                          45.900          40.400
 103908429.538 5  80817695.246 6                  19458714.359    19458713.027
  19458717.898                          33.700          41.400
 111484292.535 7  86870842.33047                  21214740.406
  21214746.391                          43.200          45.600
 108001148.966 7  84000939.880 7                  20218046.852    20218046.539
  20218051.734                          44.500          44.500
 106477030.987 7  82969086.66246                  20261889.070
  20261893.898                          42.500          36.900
 123053749.794 5  95708367.857 6                  23084536.781    23084536.500
  23084544.105                          34.500          38.000
 113752646.757 7  88638499.79147  84945228.619 8  21646415.945
  21646425.555    21646424.332          42.000          43.000          48.900
 122224255.604 6  95239722.23143                  23258509.789
  23258515.281                          36.600          19.300
 122246213.865 7                  91287778.646 8  23262678.727
                  23262683.957          46.100                          49.700
 137643266.770 6                 102785582.214 7  26192642.414
                  26192648.551          39.400                          42.200
 119006449.381 6                  88868481.097 7  22646173.047
                  22646177.656          41.800                          44.100
 129476642.823 7                  96687127.474 7  24638584.469
                  24638590.352          43.800                          46.400
 126546535.295 7                  94499051.284 7  24081007.016
                  24081013.145          42.600                          44.900
 121464616.252 7                  90704123.919 8  23113946.320
                  23113952.422          46.000                          49.700
 20  7  6  0 31 46.0000000  0 18G08G27R24G30R23R13G07R12G11R14G01G16
                                E27E21E14E13E30E15
 108704027.061 7  84704484.65548  81175126.343 8  20685692.992
  20685700.887    20685699.953          43.800          49.500          51.900
 117999159.699 6  91947434.47344  88116286.724 7  22454496.195
  22454504.305    22454503.902          39.200          28.300          46.900
 114803720.118 6  89291804.265 6                  21468871.758    21468871.316
  21468877.039                          40.800          41.400
 120360032.259 6  93787058.75645  89879260.342 7  22903744.859
  22903752.926    22903752.883          36.900          34.800          45.300
 103117631.782 7  80202639.777 6                  19276751.836    19276750.156
  19276757.781                          46.100          40.600
 103906865.822 5  80816478.993 6                  19458421.656    19458420.270
  19458425.000                          33.700          41.400
 111483472.308 7  86870203.19447                  21214584.156
  21214590.340                          43.200          45.500
 108003550.265 7  84002807.562 7                  20218496.313    20218496.145
  20218501.352                          44.300          44.600
 106475958.091 7  82968250.64546                  20261685.180
  20261689.727                          42.600          36.900
 123049763.957 5  95705267.751 6                  23083789.539    23083788.613
  23083796.375                          34.200          38.300
 113749458.038 7  88636015.07947  84942847.439 8  21645809.398
  21645818.961    21645817.590          42.200          43.100          49.100
 122226757.695 6  95241671.90743                  23258986.172
  23258991.367                          36.100          20.400
 122245753.171 7                  91287434.611 8  23262591.141
                  23262596.223          46.100                          49.900
 137640901.633 6                 102783816.047 7  26192192.273
                  26192198.484          39.400                          42.300
 119000747.934 6                  88864223.533 7  22645088.328
                  22645092.637          41.800                          44.500
 129474427.491 7                  96685473.154 7  24638162.773
                  24638168.660          43.800                          46.800
 126548410.824 7                  94500451.858 7  24081363.648
                  24081369.801          42.400                          45.400
 121465004.397 7                  90704413.758 8  23114020.016
                  23114026.180          46.100                          50.300
 20  7  6  0 31 47.0000000  0 18G08G27R24G30R23R13G07R12G11R14G01G16
                                E27E21E14E13E30E15
 108705196.853 7  84705396.18548  81175999.881 8  20685915.438
  20685923.371    20685922.520          44.100          49.500          51.800
 118001781.505 6  91949477.43544  88118244.561 7  22454995.461
  22455003.238    22455002.879          39.400          28.000          47.000
 114800611.293 6  89289386.301 6                  21468290.219    21468290.008
  21468295.609                          40.000          40.800
 120357570.251 6  93785140.31245  89877421.804 7  22903276.406
  22903284.445    22903284.504          36.800          34.800          45.600
 103116977.646 7  80202131.007 6                  19276628.438    19276628.020
  19276635.492                          46.300          40.400
 103905302.742 5  80815263.277 6                  19458129.008    19458127.168
  19458132.320                          33.900          41.500
 111482652.681 7  86869564.51747                  21214428.250
  21214434.250                          43.700          45.500
 108005952.166 7  84004675.711 7                  20218946.109    20218945.723
  20218950.957                          43.900          44.600
 106474885.720 7  82967415.02946                  20261480.617
  20261485.574                          42.500          36.600
 123045778.119 5  95702167.691 6                  23083041.313    23083040.789
  23083048.637                          34.700          38.400
 113746269.724 7  88633530.67947  84940466.555 8  21645202.773
  21645212.160    21645211.004          42.300          43.200          49.100
 122229259.879 5  95243621.67443                  23259462.000
  23259467.707                          35.300          19.900
 122245292.732 7                  91287090.781 8  23262503.500
                  23262508.629          46.200                          49.800
 137638536.547 6                 102782049.892 7  26191742.336
                  26191748.578          39.500                          42.300
 118995046.622 6                  88859966.065 7  22644003.328
                  22644007.758          41.800                          44.700
 129472212.412 7                  96683819.041 7  24637741.328
                  24637747.195          43.800                          46.700
 126550286.606 7                  94501852.596 7  24081720.586
                  24081726.961          42.600                          45.600
 121465392.915 7                  90704703.893 8  23114093.977
                  23114100.184          46.100                          50.200
 20  7  6  0 31 48.0000000  0 18G08G27R24G30R23R13G07R12G11R14G01G16
                                E27E21E14E13E30E15
 108706366.910 7  84706307.91748  81176873.622 8  20686138.352
  20686145.949    20686145.094          44.300          49.400          51.700
 118004403.386 6  91951520.46344  88120202.465 7  22455494.281
  22455502.188    22455501.758          39.200          28.300          46.700
 114797502.914 6  89286968.673 6                  21467709.641    21467708.996
  21467714.395                          40.000          40.700
 120355108.705 6  93783222.21645  89875583.639 7  22902808.164
  22902815.961    22902816.020          36.900          34.600          45.400
 103116324.210 7  80201622.793 6                  19276506.586    19276505.957
  19276513.367                          46.000          40.500
 103903740.320 5  80814048.073 6                  19457835.859    19457834.398
  19457839.719                          33.300          41.200
 111481833.672 7  86868926.33347                  21214272.422
  21214278.434                          43.000          45.600
 108008354.719 7  84006544.353 7                  20219395.539    20219395.277
  20219400.566                          44.200          44.900
 106473813.914 7  82966579.85446                  20261276.547
  20261281.730                          42.200          36.800
 123041792.431 5  95699067.645 6                  23082293.469    23082293.188
  23082300.930                          34.500          37.600
 113743081.837 7  88631046.61347  84938085.999 8  21644595.766
  21644605.535    21644604.340          42.300          43.100          49.100
 122231762.289 5  95245571.59943                  23259937.531
  23259943.871                          35.300          19.300
 122244832.594 7                  91286747.170 8  23262415.867
                  23262421.102          46.100                          49.900
 137636171.518 6                 102780283.794 7  26191292.242
                  26191298.566          39.100                          42.300
 118989345.433 6                  88855708.685 7  22642918.680
                  22642922.832          41.400                          44.700
 129469997.646 7                  96682165.158 7  24637319.820
                  24637325.777          44.000                          46.400
 126552162.619 7                  94503253.522 7  24082077.648
                  24082083.801          42.600                          45.900
 121465781.852 7                  90704994.332 8  23114167.961
                  23114174.180          46.100                          50.000
 20  7  6  0 31 49.0000000  0 18G08G27R24G30R23R13G07R12G11R14G01G16
                                E27E21E14E13E30E15
 108707537.240 7  84707219.86448  81177747.571 8  20686360.727
  20686368.648    20686367.852          44.600          49.400          51.800
 118007025.398 6  91953563.58644  88122160.452 7  22455993.727
  22456001.035    22456000.609          39.500          29.000          46.700
 114794394.994 6  89284551.397 6                  21467127.414    21467127.379
  21467133.113                          40.000          40.400
 120352647.602 6  93781304.47845  89873745.796 7  22902339.547
  22902347.625    22902347.656          36.500          34.300          45.300
 103115671.528 7  80201115.143 6                  19276384.531    19276383.844
  19276391.309                          45.600          40.700
 103902178.620 5  80812833.387 6                  19457543.625    19457541.691
  19457547.293                          33.400          41.300
 111481015.336 7  86868288.66447                  21214116.938
  21214122.746                          43.000          45.800
 108010757.912 7  84008413.501 7                  20219846.883    20219845.395
  20219850.473                          44.600          45.000
 106472742.655 7  82965745.11046                  20261072.852
  20261077.902                          42.300          37.000
 123037806.715 5  95695967.691 6                  23081547.070    23081545.621
  23081553.238                          33.800          38.000
 113739894.386 7  88628562.88247  84935705.751 8  21643989.797
  21643998.758    21643997.758          42.000          42.900          49.100
 122234264.924 5  95247521.71243                  23260413.953
  23260420.051                          35.400          19.300
 122244372.733 7                  91286403.776 8  23262328.398
                  23262333.516          46.400                          49.700
 137633806.533 6                 102778517.770 7  26190842.594
                  26190848.336          39.300                          42.300
 118983644.435 6                  88851451.448 7  22641833.625
                  22641837.977          41.600                          44.600
 129467783.202 7                  96680511.523 7  24636898.555
                  24636904.379          43.200                          46.600
 126554038.932 7                  94504654.633 7  24082434.656
                  24082440.672          42.600                          45.500
 121466171.212 7                  90705285.100 8  23114242.070
                  23114248.195          46.100                          49.800
 20  7  6  0 31 50.0000000  0 18G08G27R24G30R23R13G07R12G11R14G01G16
                                E27E21E14E13E30E15
 108708707.835 7  84708132.00848  81178621.709 8  20686583.633
  20686591.434    20686590.609          44.300          49.400          51.800
 118009647.446 6  91955606.75144  88124118.484 7  22456492.344
  22456500.039    22456499.531          39.400          28.900          46.600
 114791287.497 6  89282134.465 6                  21466546.531    21466546.121
  21466552.066                          40.200          40.200
 120350186.893 6  93779387.04545  89871908.272 7  22901870.836
  22901879.203    22901879.508          36.500          34.900          45.000
 103115019.516 7  80200608.021 6                  19276262.938    19276262.102
  19276269.367                          45.400          40.400
 103900617.510 5  80811619.215 6                  19457250.836    19457249.840
  19457254.996                          33.300          41.500
 111480197.616 7  86867651.48147                  21213961.273
  21213967.059                          43.100          45.700
 108013161.686 7  84010283.114 7                  20220295.641    20220295.348
  20220300.461                          44.100          45.000
 106471671.908 7  82964910.76446                  20260869.117
  20260873.984                          42.200          36.900
 123033821.103 5  95692867.746 6                  23080798.906    23080797.836
  23080805.488                          34.300          37.800
 113736707.329 6  88626079.46147  84933325.802 8  21643383.180
  21643392.516    21643391.230          41.700          43.200          49.300
 122236767.720 5  95249471.91143                  23260890.672
  23260896.410                          35.700          19.900
 122243913.152 7                  91286060.577 8  23262240.930
                  23262246.035          46.800                          49.600
 137631441.597 6                 102776751.730 7  26190392.320
                  26190398.527          39.300                          42.300
 118977943.545 6                  88847194.286 7  22640748.914
                  22640753.211          41.800                          44.900
 129465569.073 7                  96678858.096 7  24636477.273
                  24636482.988          43.600                          46.500
 126555915.417 7                  94506055.929 7  24082791.758
                  24082798.016          42.500                          44.900
 121466560.962 7                  90705576.143 8  23114316.188
                  23114322.391          46.200                          49.800
 20  7  6  0 31 51.0000000  0 18G08G27R24G30R23R13G07R12G11R14G01G16
                                E27E21E14E13E30E15
 108709878.711 7  84709044.38348  81179496.070 8  20686806.109
  20686814.289    20686813.332          44.500          49.500          52.100
 118012269.629 6  91957650.00444  88126076.605 7  22456990.953
  22456999.145    22456998.535          39.000          29.600          46.800
 114788180.556 6  89279717.979 6                  21465966.242    21465964.789
  21465971.027                          40.300          40.200
 120347726.697 6  93777470.00945  89870071.108 7  22901402.633
  22901411.051    22901411.281          36.600          34.900          45.300
 103114368.254 7  80200101.491 6                  19276141.195    19276140.195
  19276147.539                          45.700          40.700
 103899057.084 5  80810405.531 6                  19456959.781    19456957.918
  19456962.707                          33.800          41.400
 111479380.563 7  86867014.81347                  21213805.633
  21213811.563                          43.400          45.600
 108015566.156 7  84012153.240 7                  20220746.531    20220745.516
  20220750.453                          44.100          45.300
 106470601.761 7  82964076.88846                  20260665.781
  20260670.391                          42.100          37.000
 123029835.627 5  95689767.892 6                  23080051.031    23080050.262
  23080057.801                          34.700          37.800
 113733520.717 7  88623596.38947  84930946.187 8  21642777.016
  21642786.219    21642784.953          42.100          43.200          49.100
 122239270.729 5  95251422.29643                  23261367.602
  23261372.680                          35.200          20.100
 122243453.887 7                  91285717.608 8  23262153.508
                  23262158.680          46.600                          50.100
 137629076.723 6                 102774985.769 7  26189942.313
                  26189948.348          39.600                          42.700
 118972242.810 6                  88842937.247 7  22639664.023
                  22639668.441          41.600                          44.900
 129463355.226 7                  96677204.917 7  24636055.977
                  24636061.734          44.200                          46.900
 126557792.206 7                  94507457.419 7  24083148.813
                  24083155.078          42.600                          45.500
 121466951.155 7                  90705867.519 8  23114390.453
                  23114396.656          46.300                          50.300
 20  7  6  0 31 52.0000000  0 18G08G27R24G30R23R13G07R12G11R14G01G16
                                E27E21E14E13E30E15
 108711049.851 7  84709956.95748  81180370.621 8  20687029.203
  20687037.172    20687036.262          44.300          49.500          51.900
 118014891.922 6  91959693.34844  88128034.791 7  22457489.984
  22457498.129    22457497.625          39.400          29.700          46.900
 114785074.122 6  89277301.853 6                  21465384.180    21465383.953
  21465390.000                          40.400          40.200
 120345266.931 6  93775553.31545  89868234.278 7  22900934.656
  22900942.910    22900943.137          36.800          34.600          45.100
 103113717.721 7  80199595.516 6                  19276020.234    19276018.746
  19276025.820                          45.300          40.700
 103897497.296 5  80809192.387 6                  19456665.977    19456665.406
  19456670.586                          33.400          41.200
 111478564.155 7  86866378.65547                  21213650.523
  21213656.320                          43.500          45.600
 108017971.204 7  84014023.842 7                  20221196.352    20221195.672
  20221200.590                          44.300          45.000
 106469532.154 7  82963243.42546                  20260462.406
  20260466.910                          42.400          36.500
 123025850.141 5  95686668.111 6                  23079303.875    23079302.488
  23079310.129                          34.500          38.100
 113730334.531 7  88621113.64947  84928566.891 8  21642170.055
  21642179.867    21642178.746          42.000          43.000          49.300
 122241773.901 5  95253372.80743                  23261843.383
  23261849.035                          35.400          19.600
 122242994.897 7                  91285374.869 8  23262066.305
                  23262071.387          46.400                          49.900
 137626711.924 6                 102773219.827 6  26189492.195
                  26189498.535          39.400                          41.700
 118966542.224 7                  88838680.317 7  22638579.469
                  22638583.703          42.000                          45.000
 129461141.712 7                  96675551.959 7  24635634.625
                  24635640.602          44.000                          46.700
 126559669.225 7                  94508859.090 7  24083505.672
                  24083512.203          42.600                          45.100
 121467341.755 7                  90706159.196 8  23114464.711
                  23114470.965          46.200                          49.900
